satellites_20260121_005943/SAT-65291.csv

timestamp,satellite,azimuth_deg,elevation_deg,distance_km,relative_velocity_kms,doppler_shift_hz,tx_freq_ghz,rx_freq_hz,ue_lat,ue_lon,ue_alt_m,time_minutes
2026-01-20T23:03:12+00:00,SAT-65291,304.74567420458976,30.0335503181921,4169.610362084375,-1.831834375866586,64158.58849457498,10.5,10500064158.588495,47.655,-122.3035,60.0,3.2
2026-01-20T23:03:13+00:00,SAT-65291,304.62998760145865,30.06706982202018,4167.783412600178,-1.82121695516358,63786.72150991067,10.5,10500063786.72151,47.655,-122.3035,60.0,3.216666666666667
2026-01-20T23:03:14+00:00,SAT-65291,304.51409606095973,30.100416498500536,4165.967052223561,-1.8105832505462534,63414.284193685955,10.5,10500063414.284193,47.655,-122.3035,60.0,3.2333333333333334
2026-01-20T23:03:15+00:00,SAT-65291,304.3980002453236,30.133589536171655,4164.161297195016,-1.799933336000223,63041.279137190104,10.5,10500063041.279137,47.655,-122.3035,60.0,3.25
2026-01-20T23:03:16+00:00,SAT-65291,304.28170082621796,30.166588125027104,4162.366163681246,-1.789267274253022,62667.70853740667,10.5,10500062667.708538,47.655,-122.3035,60.0,3.2666666666666666
2026-01-20T23:03:17+00:00,SAT-65291,304.1651984855181,30.199411456350322,4160.58166778639,-1.7785851415904705,62293.57506618776,10.5,10500062293.575066,47.655,-122.3035,60.0,3.283333333333333
2026-01-20T23:03:18+00:00,SAT-65291,304.04849391447766,30.23205872301153,4158.807825538511,-1.767886997779213,61918.880816814075,10.5,10500061918.880817,47.655,-122.3035,60.0,3.3
2026-01-20T23:03:19+00:00,SAT-65291,303.93158781488313,30.264529119200766,4157.044652906059,-1.7571729216634489,61543.62855074298,10.5,10500061543.628551,47.655,-122.3035,60.0,3.316666666666667
2026-01-20T23:03:20+00:00,SAT-65291,303.8144808978418,30.2968218408299,4155.292165778854,-1.7464429852345407,61167.82078941651,10.5,10500061167.82079,47.655,-122.3035,60.0,3.3333333333333335
2026-01-20T23:03:21+00:00,SAT-65291,303.69717388428523,30.3289360854496,4153.550379974913,-1.7356972489686073,60791.459650964185,10.5,10500060791.45965,47.655,-122.3035,60.0,3.35
2026-01-20T23:03:22+00:00,SAT-65291,303.57966750580624,30.36087105207366,4151.819311251942,-1.7249357930596794,60414.54794412017,10.5,10500060414.547945,47.655,-122.3035,60.0,3.3666666666666667
2026-01-20T23:03:23+00:00,SAT-65291,303.46196250338744,30.39262594159765,4150.098975287663,-1.7141586914191744,60037.08825757495,10.5,10500060037.088257,47.655,-122.3035,60.0,3.3833333333333333
2026-01-20T23:03:24+00:00,SAT-65291,303.34405962786695,30.424199956723783,4148.389387686088,-1.7033660142856053,59659.08305137835,10.5,10500059659.083052,47.655,-122.3035,60.0,3.4
2026-01-20T23:03:25+00:00,SAT-65291,303.22595964024066,30.455592301937543,4146.690563981174,-1.6925578340304837,59280.53486028684,10.5,10500059280.53486,47.655,-122.3035,60.0,3.4166666666666665
2026-01-20T23:03:26+00:00,SAT-65291,303.10766331157953,30.486802183591628,4145.002519634701,-1.6817342247822367,58901.4462805915,10.5,10500058901.446281,47.655,-122.3035,60.0,3.433333333333333
2026-01-20T23:03:27+00:00,SAT-65291,302.9891714229555,30.517828809986153,4143.325270034518,-1.670895265374898,58521.820073393676,10.5,10500058521.820074,47.655,-122.3035,60.0,3.45
2026-01-20T23:03:28+00:00,SAT-65291,302.8704847651527,30.548671391501404,4141.6588304898505,-1.6600410283197402,58141.65877834482,10.5,10500058141.65878,47.655,-122.3035,60.0,3.466666666666667
2026-01-20T23:03:29+00:00,SAT-65291,302.75160413916973,30.579329140525907,4140.0032162376065,-1.6491715843482488,57760.964872760786,10.5,10500057760.964872,47.655,-122.3035,60.0,3.4833333333333334
2026-01-20T23:03:30+00:00,SAT-65291,302.63253035639866,30.609801271466022,4138.35844244415,-1.6382870228471338,57379.74148734223,10.5,10500057379.741488,47.655,-122.3035,60.0,3.5
2026-01-20T23:03:31+00:00,SAT-65291,302.51326423732485,30.640087001148792,4136.724524186697,-1.6273874051778328,56997.99077122629,10.5,10500056997.99077,47.655,-122.3035,60.0,3.5166666666666666
2026-01-20T23:03:32+00:00,SAT-65291,302.3938066136134,30.670185548332874,4135.101476481266,-1.6164728244650122,56615.715986032665,10.5,10500056615.715986,47.655,-122.3035,60.0,3.533333333333333
2026-01-20T23:03:33+00:00,SAT-65291,302.2741583258111,30.70009613436284,4133.489314251,-1.6055433470745497,56232.91945617515,10.5,10500056232.919456,47.655,-122.3035,60.0,3.55
2026-01-20T23:03:34+00:00,SAT-65291,302.1543202253951,30.72981798270152,4131.8880523528505,-1.5945990528279512,55849.603977340514,10.5,10500055849.603977,47.655,-122.3035,60.0,3.566666666666667
2026-01-20T23:03:35+00:00,SAT-65291,302.03429317379937,30.759350319238184,4130.297705564164,-1.5836400274486775,55465.77255192695,10.5,10500055465.772552,47.655,-122.3035,60.0,3.5833333333333335
2026-01-20T23:03:36+00:00,SAT-65291,301.9140780420246,30.7886923724425,4128.718288576788,-1.5726663465227302,55081.42782727599,10.5,10500055081.427828,47.655,-122.3035,60.0,3.6
2026-01-20T23:03:37+00:00,SAT-65291,301.79367571142774,30.817843373224434,4127.14981600719,-1.5616780893816902,54696.57258191514,10.5,10500054696.572582,47.655,-122.3035,60.0,3.6166666666666667
2026-01-20T23:03:38+00:00,SAT-65291,301.6730870735065,30.84680255504596,4125.592302392713,-1.5506753377528868,54311.20967828121,10.5,10500054311.209679,47.655,-122.3035,60.0,3.6333333333333333
2026-01-20T23:03:39+00:00,SAT-65291,301.55231302973357,30.875569154021058,4124.045762189194,-1.5396581707219232,53925.34188628652,10.5,10500053925.341887,47.655,-122.3035,60.0,3.65
2026-01-20T23:03:40+00:00,SAT-65291,301.4313544918173,30.90414240890736,4122.510209773594,-1.5286266797688655,53538.97240994997,10.5,10500053538.97241,47.655,-122.3035,60.0,3.6666666666666665
2026-01-20T23:03:41+00:00,SAT-65291,301.31021238075664,30.93252156139312,4120.985659431638,-1.5175809315838362,53152.10358504176,10.5,10500053152.103584,47.655,-122.3035,60.0,3.683333333333333
2026-01-20T23:03:42+00:00,SAT-65291,301.1888876288475,30.960705855670405,4119.472125382538,-1.5065210211490445,52764.7387382406,10.5,10500052764.738739,47.655,-122.3035,60.0,3.7
2026-01-20T23:03:43+00:00,SAT-65291,301.0673811774656,30.98869453902441,4117.969621750779,-1.4954470319258653,52376.8807927169,10.5,10500052376.880793,47.655,-122.3035,60.0,3.716666666666667
2026-01-20T23:03:44+00:00,SAT-65291,300.94569397801877,31.01648686165928,4116.478162577605,-1.4843590371985733,51988.53231519593,10.5,10500051988.532314,47.655,-122.3035,60.0,3.7333333333333334
2026-01-20T23:03:45+00:00,SAT-65291,300.82382699282294,31.044082076554066,4114.997761831172,-1.4732571333083566,51599.69667995365,10.5,10500051599.69668,47.655,-122.3035,60.0,3.75
2026-01-20T23:03:46+00:00,SAT-65291,300.70178119323504,31.071479439950146,4113.5284333835525,-1.462141399440429,51210.376660391186,10.5,10500051210.376661,47.655,-122.3035,60.0,3.7666666666666666
2026-01-20T23:03:47+00:00,SAT-65291,300.5795575611173,31.098678211071366,4112.070191027844,-1.4510119235091872,50820.57533564259,10.5,10500050820.575336,47.655,-122.3035,60.0,3.783333333333333
2026-01-20T23:03:48+00:00,SAT-65291,300.4571570881254,31.125677652339625,4110.623048469464,-1.4398687893556468,50430.29564217487,10.5,10500050430.295643,47.655,-122.3035,60.0,3.8
2026-01-20T23:03:49+00:00,SAT-65291,300.3345807761051,31.152477029344517,4109.187019330214,-1.4287120825131945,50039.54057572903,10.5,10500050039.540575,47.655,-122.3035,60.0,3.816666666666667
2026-01-20T23:03:50+00:00,SAT-65291,300.2118296369683,31.179075610925015,4107.762117146587,-1.4175418979142334,49648.31346123941,10.5,10500049648.313461,47.655,-122.3035,60.0,3.8333333333333335
2026-01-20T23:03:51+00:00,SAT-65291,300.08890469190226,31.205472669398603,4106.3483553604,-1.4063583131918747,49256.617017745935,10.5,10500049256.617018,47.655,-122.3035,60.0,3.85
2026-01-20T23:03:52+00:00,SAT-65291,299.9658069729146,31.231667480276492,4104.945747336044,-1.3951614210337147,48864.45449156031,10.5,10500048864.45449,47.655,-122.3035,60.0,3.8666666666666667
2026-01-20T23:03:53+00:00,SAT-65291,299.8425375215516,31.257659322601736,4103.554306345466,-1.383951313485977,48471.829106530626,10.5,10500048471.829107,47.655,-122.3035,60.0,3.8833333333333333
2026-01-20T23:03:54+00:00,SAT-65291,299.7190973889608,31.28344747898454,4102.174045568816,-1.3727280730698304,48078.74375289727,10.5,10500048078.743753,47.655,-122.3035,60.0,3.9
2026-01-20T23:03:55+00:00,SAT-65291,299.5954876367775,31.30903123547021,4100.804978103942,-1.361491794009219,47685.201730781366,10.5,10500047685.20173,47.655,-122.3035,60.0,3.9166666666666665
2026-01-20T23:03:56+00:00,SAT-65291,299.4717093360968,31.334409881809755,4099.447116954716,-1.350242565376265,47291.20615986538,10.5,10500047291.20616,47.655,-122.3035,60.0,3.933333333333333
2026-01-20T23:03:57+00:00,SAT-65291,299.3477635679668,31.359582711411655,4098.100475036181,-1.338980477925805,46896.76021876758,10.5,10500046896.76022,47.655,-122.3035,60.0,3.95
2026-01-20T23:03:58+00:00,SAT-65291,299.22365142324406,31.384549021421595,4096.765065172863,-1.3277056250325485,46501.86717786529,10.5,10500046501.867178,47.655,-122.3035,60.0,3.966666666666667
2026-01-20T23:03:59+00:00,SAT-65291,299.0993740023904,31.409308112821428,4095.4409000961637,-1.316418091104176,46106.52999347251,10.5,10500046106.529993,47.655,-122.3035,60.0,3.9833333333333334
2026-01-20T23:04:00+00:00,SAT-65291,298.9749324163238,31.433859290306284,4094.1279924533023,-1.3051179788112452,45710.75226154647,10.5,10500045710.752262,47.655,-122.3035,60.0,4.0
2026-01-20T23:04:01+00:00,SAT-65291,298.85032778471464,31.458201862683296,4092.8263547891015,-1.2938053726386853,45314.53694110676,10.5,10500045314.536942,47.655,-122.3035,60.0,4.016666666666667
2026-01-20T23:04:02+00:00,SAT-65291,298.7255612377361,31.482335142570452,4091.535999564123,-1.2824803709041523,44917.88747565357,10.5,10500044917.887476,47.655,-122.3035,60.0,4.033333333333333
2026-01-20T23:04:03+00:00,SAT-65291,298.6006339147537,31.506258446712053,4090.2569391408747,-1.2711430653596099,44520.807078728794,10.5,10500044520.80708,47.655,-122.3035,60.0,4.05
2026-01-20T23:04:04+00:00,SAT-65291,298.47554696497167,31.52997109589932,4088.9891857903563,-1.2597935471197144,44123.29894155309,10.5,10500044123.29894,47.655,-122.3035,60.0,4.066666666666666
2026-01-20T23:04:05+00:00,SAT-65291,298.3503015475245,31.553472415008958,4087.7327516926953,-1.2484319170254323,43725.36659600369,10.5,10500043725.366596,47.655,-122.3035,60.0,4.083333333333333
2026-01-20T23:04:06+00:00,SAT-65291,298.2248988305205,31.57676173323536,4086.487648927449,-1.237058267158563,43327.01326717469,10.5,10500043327.013268,47.655,-122.3035,60.0,4.1
2026-01-20T23:04:07+00:00,SAT-65291,298.09933999192606,31.599838383972706,4085.2538894823356,-1.2256726903393473,42928.24220602356,10.5,10500042928.242207,47.655,-122.3035,60.0,4.116666666666666
2026-01-20T23:04:08+00:00,SAT-65291,297.9736262195154,31.62270170487672,4084.0314852525044,-1.2142752894751745,42529.05701680238,10.5,10500042529.057016,47.655,-122.3035,60.0,4.133333333333334
2026-01-20T23:04:09+00:00,SAT-65291,297.8477587098382,31.64535103810661,4082.8204480304676,-1.2028661554154096,42129.46088144019,10.5,10500042129.460882,47.655,-122.3035,60.0,4.15
2026-01-20T23:04:10+00:00,SAT-65291,297.7217386694791,31.667785730140782,4081.6207895181333,-1.1914453861981875,41729.457233647176,10.5,10500041729.457233,47.655,-122.3035,60.0,4.166666666666667
2026-01-20T23:04:11+00:00,SAT-65291,297.5955673143245,31.690005131964334,4080.4325213196316,-1.180013081362415,41329.04955969692,10.5,10500041329.04956,47.655,-122.3035,60.0,4.183333333333334
2026-01-20T23:04:12+00:00,SAT-65291,297.4692458694024,31.712008599143733,4079.2556549398196,-1.168569337905901,40928.24125686297,10.5,10500040928.241257,47.655,-122.3035,60.0,4.2
2026-01-20T23:04:13+00:00,SAT-65291,297.3427755691639,31.733795491827458,4078.0902017868148,-1.1571142571427646,40527.03587359436,10.5,10500040527.035873,47.655,-122.3035,60.0,4.216666666666667
2026-01-20T23:04:14+00:00,SAT-65291,297.21615765701114,31.75536517487444,4076.9361731676904,-1.1456479297002795,40125.436584041534,10.5,10500040125.436584,47.655,-122.3035,60.0,4.233333333333333
2026-01-20T23:04:15+00:00,SAT-65291,297.08939338648673,31.77671701769906,4075.793580299136,-1.1341704642693748,39723.44719502061,10.5,10500039723.447195,47.655,-122.3035,60.0,4.25
2026-01-20T23:04:16+00:00,SAT-65291,296.96248401928426,31.79785039466165,4074.662434289439,-1.1226819559664292,39321.07103790952,10.5,10500039321.071037,47.655,-122.3035,60.0,4.266666666666667
2026-01-20T23:04:17+00:00,SAT-65291,296.8354308267396,31.818764684859023,4073.5427461520217,-1.1111825062402398,38918.31166587426,10.5,10500038918.311666,47.655,-122.3035,60.0,4.283333333333333
2026-01-20T23:04:18+00:00,SAT-65291,296.70823508915305,31.83945927228845,4072.434526799131,-1.0996722156573353,38515.17260118005,10.5,10500038515.172602,47.655,-122.3035,60.0,4.3
2026-01-20T23:04:19+00:00,SAT-65291,296.58089809585357,31.859933545881937,4071.3377870427157,-1.0881511864425633,38111.65742417348,10.5,10500038111.657425,47.655,-122.3035,60.0,4.316666666666666
2026-01-20T23:04:20+00:00,SAT-65291,296.45342114503603,31.880186899580828,4070.25253759277,-1.0766195175818891,37707.76960176175,10.5,10500037707.769602,47.655,-122.3035,60.0,4.333333333333333
2026-01-20T23:04:21+00:00,SAT-65291,296.3258055441243,31.900218732322617,4069.1787890605683,-1.0650773137863723,37303.51280136911,10.5,10500037303.512802,47.655,-122.3035,60.0,4.35
2026-01-20T23:04:22+00:00,SAT-65291,296.1980526090907,31.920028448195822,4068.1165519529522,-1.0535246775334468,36898.890612188756,10.5,10500036898.890612,47.655,-122.3035,60.0,4.366666666666666
2026-01-20T23:04:23+00:00,SAT-65291,296.07016366472385,31.939615456442937,4067.065836674559,-1.041961710107755,36493.906581637304,10.5,10500036493.906582,47.655,-122.3035,60.0,4.383333333333334
2026-01-20T23:04:24+00:00,SAT-65291,295.942140044754,31.958979171484216,4066.026653529011,-1.0303885148634104,36088.564329613015,10.5,10500036088.56433,47.655,-122.3035,60.0,4.4
2026-01-20T23:04:25+00:00,SAT-65291,295.8139830916122,31.97811901300289,4064.999012716854,-1.018805198991585,35682.86761040414,10.5,10500035682.86761,47.655,-122.3035,60.0,4.416666666666667
2026-01-20T23:04:26+00:00,SAT-65291,295.68569415594163,31.997034406061648,4063.9829243317263,-1.007211860934448,35276.81987187184,10.5,10500035276.819872,47.655,-122.3035,60.0,4.433333333333334
2026-01-20T23:04:27+00:00,SAT-65291,295.5572745976726,32.015724780983774,4062.9783983690877,-0.9956086102626572,34870.42495164405,10.5,10500034870.424952,47.655,-122.3035,60.0,4.45
2026-01-20T23:04:28+00:00,SAT-65291,295.4287257846237,32.034189573607925,4061.9854447151192,-0.9839955527214994,34463.68655336801,10.5,10500034463.686554,47.655,-122.3035,60.0,4.466666666666667
2026-01-20T23:04:29+00:00,SAT-65291,295.30004909295616,32.052428225260556,4061.0040731505383,-0.9723727874890463,34056.60815067931,10.5,10500034056.60815,47.655,-122.3035,60.0,4.483333333333333
2026-01-20T23:04:30+00:00,SAT-65291,295.1712459080184,32.070440182676194,4060.034293357149,-0.9607404259452171,33649.19364457387,10.5,10500033649.193645,47.655,-122.3035,60.0,4.5
2026-01-20T23:04:31+00:00,SAT-65291,295.04231762275896,32.08822489827219,4059.076114905673,-0.949098572138862,33241.44667928254,10.5,10500033241.44668,47.655,-122.3035,60.0,4.516666666666667
2026-01-20T23:04:32+00:00,SAT-65291,294.91326563866176,32.105781830052855,4058.1295472630604,-0.9374473363653596,32833.37111781603,10.5,10500032833.371119,47.655,-122.3035,60.0,4.533333333333333
2026-01-20T23:04:33+00:00,SAT-65291,294.7840913648792,32.12311044177325,4057.194599786258,-0.9257868190321646,32424.97047686813,10.5,10500032424.970476,47.655,-122.3035,60.0,4.55
2026-01-20T23:04:34+00:00,SAT-65291,294.65479621957843,32.14021020279333,4056.2712817320767,-0.9141171328293879,32016.248703323192,10.5,10500032016.248703,47.655,-122.3035,60.0,4.566666666666666
2026-01-20T23:04:35+00:00,SAT-65291,294.5253816282426,32.15708058835403,4055.359602244935,-0.9024383847789641,31607.20954554208,10.5,10500031607.209545,47.655,-122.3035,60.0,4.583333333333333
2026-01-20T23:04:36+00:00,SAT-65291,294.3958490244074,32.173721079512994,4054.459570362516,-0.8907506816893765,31197.85674440967,10.5,10500031197.856745,47.655,-122.3035,60.0,4.6
2026-01-20T23:04:37+00:00,SAT-65291,294.26619984969585,32.19013116318188,4053.5711950159775,-0.8790541322754405,30788.194107578667,10.5,10500030788.194107,47.655,-122.3035,60.0,4.616666666666666
2026-01-20T23:04:38+00:00,SAT-65291,294.136435553532,32.20631033220416,4052.6944850280547,-0.8673488481772844,30378.2255451586,10.5,10500030378.225546,47.655,-122.3035,60.0,4.633333333333334
2026-01-20T23:04:39+00:00,SAT-65291,294.0065575926613,32.222258085453305,4051.829449110139,-0.855634934712274,29967.954745809104,10.5,10500029967.954746,47.655,-122.3035,60.0,4.65
2026-01-20T23:04:40+00:00,SAT-65291,293.8765674320864,32.237973927752726,4050.976095868586,-0.8439125049471109,29557.38566960435,10.5,10500029557.38567,47.655,-122.3035,60.0,4.666666666666667
2026-01-20T23:04:41+00:00,SAT-65291,293.74646654387436,32.25345737006426,4050.1344337969854,-0.8321816662976004,29146.522078700204,10.5,10500029146.52208,47.655,-122.3035,60.0,4.683333333333334
2026-01-20T23:04:42+00:00,SAT-65291,293.6162564079842,32.26870792942171,4049.304471281798,-0.8204425305898794,28735.36788972101,10.5,10500028735.36789,47.655,-122.3035,60.0,4.7
2026-01-20T23:04:43+00:00,SAT-65291,293.48593851158273,32.28372512905336,4048.4862165979566,-0.808695211214385,28323.927074079504,10.5,10500028323.927074,47.655,-122.3035,60.0,4.716666666666667
2026-01-20T23:04:44+00:00,SAT-65291,293.3555143487374,32.29850849845082,4047.679677907305,-0.7969398134056435,27912.20331753395,10.5,10500027912.203318,47.655,-122.3035,60.0,4.733333333333333
2026-01-20T23:04:45+00:00,SAT-65291,293.2249854216949,32.313057573257076,4046.8848632667355,-0.7851764545436173,27500.200731227138,10.5,10500027500.200731,47.655,-122.3035,60.0,4.75
2026-01-20T23:04:46+00:00,SAT-65291,293.0943532389135,32.327371895530604,4046.1017806160708,-0.7734052413173578,27087.923051860955,10.5,10500027087.923052,47.655,-122.3035,60.0,4.766666666666667
2026-01-20T23:04:47+00:00,SAT-65291,292.9636193167601,32.34145101358587,4045.33043778873,-0.7616262897808819,26675.37434413797,10.5,10500026675.374344,47.655,-122.3035,60.0,4.783333333333333
2026-01-20T23:04:48+00:00,SAT-65291,292.8327851779421,32.35529448220449,4044.5708425023886,-0.7498397116449603,26262.558520641913,10.5,10500026262.558521,47.655,-122.3035,60.0,4.8
2026-01-20T23:04:49+00:00,SAT-65291,292.70185235217457,32.36890186259364,4043.8230023633078,-0.7380456186478079,25849.479494917727,10.5,10500025849.479494,47.655,-122.3035,60.0,4.816666666666666
2026-01-20T23:04:50+00:00,SAT-65291,292.5708223761666,32.38227272242179,4043.08692486631,-0.7262441244980075,25436.141249520955,10.5,10500025436.141249,47.655,-122.3035,60.0,4.833333333333333
2026-01-20T23:04:51+00:00,SAT-65291,292.4396967932434,32.39540663589399,4042.3626173928105,-0.7144353427023783,25022.547759940553,10.5,10500025022.54776,47.655,-122.3035,60.0,4.85
2026-01-20T23:04:52+00:00,SAT-65291,292.3084771533341,32.408303183783204,4041.6500872110223,-0.7026193870848693,24608.70301277268,10.5,10500024608.703012,47.655,-122.3035,60.0,4.866666666666666
2026-01-20T23:04:53+00:00,SAT-65291,292.1771650128975,32.42096195347197,4040.949341475636,-0.6907963716844059,24194.611002142898,10.5,10500024194.611002,47.655,-122.3035,60.0,4.883333333333334
2026-01-20T23:04:54+00:00,SAT-65291,292.04576193481796,32.43338253899296,4040.26038722761,-0.6789664109581786,23780.27573682616,10.5,10500023780.275738,47.655,-122.3035,60.0,4.9
2026-01-20T23:04:55+00:00,SAT-65291,291.9142694883049,32.445564541070176,4039.583231393747,-0.6671296211807718,23365.701289250257,10.5,10500023365.70129,47.655,-122.3035,60.0,4.916666666666667
2026-01-20T23:04:56+00:00,SAT-65291,291.78268924849743,32.457507567187534,4038.91788078489,-0.6552861126130053,22950.891521215504,10.5,10500022950.891521,47.655,-122.3035,60.0,4.933333333333334
2026-01-20T23:04:57+00:00,SAT-65291,291.6510227976039,32.46921123151237,4038.26434210191,-0.6434360048257769,22535.850620600526,10.5,10500022535.85062,47.655,-122.3035,60.0,4.95
2026-01-20T23:04:58+00:00,SAT-65291,291.5192717230404,32.480675155099426,4037.622621926431,-0.6315794148585416,22120.582686622114,10.5,10500022120.582687,47.655,-122.3035,60.0,4.966666666666667
2026-01-20T23:04:59+00:00,SAT-65291,291.3874376178384,32.491898965876864,4036.992726723345,-0.6197164524913436,21705.09156424178,10.5,10500021705.091564,47.655,-122.3035,60.0,4.983333333333333
2026-01-20T23:05:00+00:00,SAT-65291,291.255522082129,32.50288229854751,4036.3746628480603,-0.6078472394372267,21289.381516365167,10.5,10500021289.381516,47.655,-122.3035,60.0,5.0
2026-01-20T23:05:01+00:00,SAT-65291,291.1235267206192,32.51362479483693,4035.7684365345954,-0.5959718891374505,20873.45651618504,10.5,10500020873.456516,47.655,-122.3035,60.0,5.016666666666667
2026-01-20T23:05:02+00:00,SAT-65291,290.9914531442839,32.524126103374904,4035.1740539038283,-0.5840905202242304,20457.3207187034,10.5,10500020457.320719,47.655,-122.3035,60.0,5.033333333333333
2026-01-20T23:05:03+00:00,SAT-65291,290.85930296919304,32.534385879820086,4034.591520958325,-0.5722032486402835,20040.978184724634,10.5,10500020040.978186,47.655,-122.3035,60.0,5.05
2026-01-20T23:05:04+00:00,SAT-65291,290.7270778170616,32.54440378684236,4034.0208435850145,-0.5603101903217195,19624.432974821717,10.5,10500019624.432976,47.655,-122.3035,60.0,5.066666666666666
2026-01-20T23:05:05+00:00,SAT-65291,290.59477931522434,32.554179494151775,4033.4620275552,-0.5484114662731244,19207.689327087097,10.5,10500019207.689327,47.655,-122.3035,60.0,5.083333333333333
2026-01-20T23:05:06+00:00,SAT-65291,290.4624090953933,32.563712678618856,4032.9150785195034,-0.5365071902366236,18790.75122525113,10.5,10500018790.751225,47.655,-122.3035,60.0,5.1
2026-01-20T23:05:07+00:00,SAT-65291,290.32996879532004,32.57300302417397,4032.380002015108,-0.5245974815467924,18373.622848915435,10.5,10500018373.622849,47.655,-122.3035,60.0,5.116666666666666
2026-01-20T23:05:08+00:00,SAT-65291,290.1974600574433,32.58205022193444,4031.8568034601785,-0.5126824604880694,17956.308410949845,10.5,10500017956.30841,47.655,-122.3035,60.0,5.133333333333334
2026-01-20T23:05:09+00:00,SAT-65291,290.0648845285487,32.59085397024919,4031.3454881529183,-0.5007622425661021,17538.811956850735,10.5,10500017538.811956,47.655,-122.3035,60.0,5.15
2026-01-20T23:05:10+00:00,SAT-65291,289.9322438609381,32.59941397464076,4030.8460612763324,-0.4888369488855959,17121.137728217156,10.5,10500017121.137728,47.655,-122.3035,60.0,5.166666666666667
2026-01-20T23:05:11+00:00,SAT-65291,289.79953971093676,32.60772994793075,4030.358527892644,-0.4769066959437352,16703.289805273285,10.5,10500016703.289804,47.655,-122.3035,60.0,5.183333333333334
2026-01-20T23:05:12+00:00,SAT-65291,289.6667737400612,32.61580161018484,4029.8828929478896,-0.4649716044645684,16285.272416285965,10.5,10500016285.272417,47.655,-122.3035,60.0,5.2
2026-01-20T23:05:13+00:00,SAT-65291,289.5339476138298,32.62362868881135,4029.419161267703,-0.4530317933212078,15867.089724694413,10.5,10500015867.089725,47.655,-122.3035,60.0,5.216666666666667
2026-01-20T23:05:14+00:00,SAT-65291,289.4010630022036,32.63121091855409,4028.9673375591647,-0.4410873820992894,15448.745918893457,10.5,10500015448.745918,47.655,-122.3035,60.0,5.233333333333333
2026-01-20T23:05:15+00:00,SAT-65291,289.2681215793374,32.6385480415282,4028.527426410084,-0.4291384908479456,15030.24520351152,10.5,10500015030.245203,47.655,-122.3035,60.0,5.25
2026-01-20T23:05:16+00:00,SAT-65291,289.13512502338443,32.64563980725162,4028.099432288545,-0.4171852384799298,14611.59174337622,10.5,10500014611.591743,47.655,-122.3035,60.0,5.266666666666667
2026-01-20T23:05:17+00:00,SAT-65291,289.00207501678716,32.65248597264873,4027.683359544034,-0.4052277464648487,14192.78979286701,10.5,10500014192.789793,47.655,-122.3035,60.0,5.283333333333333
2026-01-20T23:05:18+00:00,SAT-65291,288.8689732454265,32.65908630211565,4027.2792124048933,-0.3932661338292969,13773.843520798704,10.5,10500013773.843521,47.655,-122.3035,60.0,5.3
2026-01-20T23:05:19+00:00,SAT-65291,288.7358213993481,32.66544056750025,4026.8869949807545,-0.38130052200323994,13354.757180162349,10.5,10500013354.75718,47.655,-122.3035,60.0,5.316666666666666
2026-01-20T23:05:20+00:00,SAT-65291,288.6026211719129,32.6715485481641,4026.506711260143,-0.369331031684807,12935.534998316984,10.5,10500012935.534998,47.655,-122.3035,60.0,5.333333333333333
2026-01-20T23:05:21+00:00,SAT-65291,288.4693742599747,32.677410030989016,4026.1383651112096,-0.3573577833444451,12516.181194647244,10.5,10500012516.181194,47.655,-122.3035,60.0,5.35
2026-01-20T23:05:22+00:00,SAT-65291,288.33608236389483,32.68302481039457,4025.7819602819536,-0.3453808974988488,12096.699990157565,10.5,10500012096.69999,47.655,-122.3035,60.0,5.366666666666666
2026-01-20T23:05:23+00:00,SAT-65291,288.2027471875015,32.68839268835689,4025.4375004001818,-0.3334004956374455,11677.095639921594,10.5,10500011677.09564,47.655,-122.3035,60.0,5.383333333333334
2026-01-20T23:05:24+00:00,SAT-65291,288.06937043767607,32.6935134744433,4025.1049889725327,-0.32141670041755166,11257.372439917393,10.5,10500011257.37244,47.655,-122.3035,60.0,5.4
2026-01-20T23:05:25+00:00,SAT-65291,287.9359538237818,32.69838698584756,4024.784429383316,-0.3094296321876414,10837.534605257597,10.5,10500010837.534605,47.655,-122.3035,60.0,5.416666666666667
2026-01-20T23:05:26+00:00,SAT-65291,287.80249905852094,32.70301304737077,4024.475824896814,-0.29743941164431914,10417.586363247841,10.5,10500010417.586363,47.655,-122.3035,60.0,5.433333333333334
2026-01-20T23:05:27+00:00,SAT-65291,287.6690078577991,32.707391491444035,4024.1791786569343,-0.28544616206035556,9997.532031421995,10.5,10500009997.532032,47.655,-122.3035,60.0,5.45
2026-01-20T23:05:28+00:00,SAT-65291,287.5354819395437,32.71152215818316,4023.8944936846397,-0.27345000527991536,9577.375877278111,10.5,10500009577.375877,47.655,-122.3035,60.0,5.466666666666667
2026-01-20T23:05:29+00:00,SAT-65291,287.40192302421616,32.71540489538111,4023.6217728793736,-0.2614510618059715,9157.122121340026,10.5,10500009157.122122,47.655,-122.3035,60.0,5.483333333333333
2026-01-20T23:05:30+00:00,SAT-65291,287.2683328354426,32.71903955850435,4023.361019020399,-0.24944945577171057,8736.775111277018,10.5,10500008736.775112,47.655,-122.3035,60.0,5.5
2026-01-20T23:05:31+00:00,SAT-65291,287.1347130981686,32.72242601075794,4023.1122347631763,-0.23744530856339133,8316.339098549333,10.5,10500008316.339098,47.655,-122.3035,60.0,5.516666666666667
2026-01-20T23:05:32+00:00,SAT-65291,287.0010655399411,32.7255641230591,4022.8754226421024,-0.22543874256948196,7895.818369718829,10.5,10500007895.818369,47.655,-122.3035,60.0,5.533333333333333
2026-01-20T23:05:33+00:00,SAT-65291,286.86739189033653,32.72845377406403,4022.650585069513,-0.2134298797840721,7475.21719753456,10.5,10500007475.217197,47.655,-122.3035,60.0,5.55
2026-01-20T23:05:34+00:00,SAT-65291,286.7336938811743,32.73109485017524,4022.437724336075,-0.2014188437416656,7054.5399086973985,10.5,10500007054.53991,47.655,-122.3035,60.0,5.566666666666666
2026-01-20T23:05:35+00:00,SAT-65291,286.59997324552194,32.73348724557132,4022.23684260925,-0.18940575705587184,6633.790797654604,10.5,10500006633.790798,47.655,-122.3035,60.0,5.583333333333333
2026-01-20T23:05:36+00:00,SAT-65291,286.4662317181145,32.73563086220524,4022.047941934213,-0.1773907417553395,6212.974138365631,10.5,10500006212.974138,47.655,-122.3035,60.0,5.6
2026-01-20T23:05:37+00:00,SAT-65291,286.33247103575246,32.73752560980781,4021.8710242344355,-0.1653739214894299,5792.094261554152,10.5,10500005792.094261,47.655,-122.3035,60.0,5.616666666666666
2026-01-20T23:05:38+00:00,SAT-65291,286.1986929361189,32.73917140591506,4021.7060913100704,-0.1533554186588086,5371.155454209226,10.5,10500005371.155455,47.655,-122.3035,60.0,5.633333333333334
2026-01-20T23:05:39+00:00,SAT-65291,286.0648991585984,32.740568175862805,4021.553144839195,-0.1413353566043476,4950.162036249923,10.5,10500004950.162037,47.655,-122.3035,60.0,5.65
2026-01-20T23:05:40+00:00,SAT-65291,285.93109144353025,32.74171585280391,4021.412186376874,-0.12931385885445196,4529.118334163514,10.5,10500004529.118334,47.655,-122.3035,60.0,5.666666666666667
2026-01-20T23:05:41+00:00,SAT-65291,285.79727153184126,32.74261437771522,4021.283217354977,-0.11729104767917468,4108.028630364458,10.5,10500004108.028631,47.655,-122.3035,60.0,5.683333333333334
2026-01-20T23:05:42+00:00,SAT-65291,285.66344116622935,32.743263699394575,4021.166239083425,-0.10526704679902796,3686.897258068425,10.5,10500003686.897259,47.655,-122.3035,60.0,5.7
2026-01-20T23:05:43+00:00,SAT-65291,285.52960208972485,32.743663774477724,4021.0612527487506,-0.09324197965856064,3265.7285408256894,10.5,10500003265.72854,47.655,-122.3035,60.0,5.716666666666667
2026-01-20T23:05:44+00:00,SAT-65291,285.3957560458038,32.7438145674392,4020.968259414371,-0.08121596931658277,2844.5267886763154,10.5,10500002844.526789,47.655,-122.3035,60.0,5.733333333333333
2026-01-20T23:05:45+00:00,SAT-65291,285.26190477877117,32.74371605059501,4020.887260020973,-0.06918913924559529,2423.2963261495743,10.5,10500002423.296326,47.655,-122.3035,60.0,5.75
2026-01-20T23:05:46+00:00,SAT-65291,285.12805003322654,32.74336820410792,4020.8182553860984,-0.05716161281950452,2002.0414743215372,10.5,10500002002.041473,47.655,-122.3035,60.0,5.766666666666667
2026-01-20T23:05:47+00:00,SAT-65291,284.9941935541272,32.74277101598989,4020.761246204246,-0.04513351366327732,1580.7665630614758,10.5,10500001580.766563,47.655,-122.3035,60.0,5.783333333333333
2026-01-20T23:05:48+00:00,SAT-65291,284.8603370861489,32.74192448210075,4020.71623304662,-0.0331049650019116,1159.475908230059,10.5,10500001159.475908,47.655,-122.3035,60.0,5.8
2026-01-20T23:05:49+00:00,SAT-65291,284.7264823744977,32.740828606154004,4020.6832163615245,-0.021076090394305674,738.1738373825588,10.5,10500000738.173838,47.655,-122.3035,60.0,5.816666666666666
2026-01-20T23:05:50+00:00,SAT-65291,284.5926311643771,32.73948339971738,4020.6621964740375,-0.009047013516248379,316.86468216824846,10.5,10500000316.864681,47.655,-122.3035,60.0,5.833333333333333
2026-01-20T23:05:51+00:00,SAT-65291,284.4587851997673,32.737888882198725,4020.6531735858907,0.002982142303585534,-104.44723792100237,10.5,10499999895.552763,47.655,-122.3035,60.0,5.85
2026-01-20T23:05:52+00:00,SAT-65291,284.32494622513804,32.73604508086282,4020.656147775815,0.015011253476312793,-525.7575942797212,10.5,10499999474.242405,47.655,-122.3035,60.0,5.866666666666666
2026-01-20T23:05:53+00:00,SAT-65291,284.19111598455237,32.73395203082401,4020.671118999282,0.02704019646793788,-947.0620602248364,10.5,10499999052.93794,47.655,-122.3035,60.0,5.883333333333334
2026-01-20T23:05:54+00:00,SAT-65291,284.05729622090973,32.73160977503241,4020.698087088559,0.03906884781205847,-1368.3563114406766,10.5,10499998631.643688,47.655,-122.3035,60.0,5.9
2026-01-20T23:05:55+00:00,SAT-65291,283.92348867645313,32.729018364277685,4020.7370517527775,0.05109708396756397,-1789.63602099497,10.5,10499998210.36398,47.655,-122.3035,60.0,5.916666666666667
2026-01-20T23:05:56+00:00,SAT-65291,283.7896950927572,32.726177857187714,4020.7880125778547,0.06312478147465893,-2210.8968648034456,10.5,10499997789.103136,47.655,-122.3035,60.0,5.933333333333334
2026-01-20T23:05:57+00:00,SAT-65291,283.65591721026374,32.72308832021704,4020.8509690265787,0.07515181689794244,-2632.134519636233,10.5,10499997367.86548,47.655,-122.3035,60.0,5.95
2026-01-20T23:05:58+00:00,SAT-65291,283.522156768179,32.71974982763938,4020.9259204386312,0.08717806670036965,-3053.34465870346,10.5,10499996946.655342,47.655,-122.3035,60.0,5.966666666666667
2026-01-20T23:05:59+00:00,SAT-65291,283.38841550474405,32.716162461551036,4021.012866030487,0.09920340761069467,-3474.522964524658,10.5,10499996525.477036,47.655,-122.3035,60.0,5.983333333333333
2026-01-20T23:06:00+00:00,SAT-65291,283.2546951564973,32.712326311846965,4021.111804895678,0.11122771614421925,-3895.6651121433556,10.5,10499996104.334888,47.655,-122.3035,60.0,6.0
2026-01-20T23:06:01+00:00,SAT-65291,283.1209974586557,32.708241476225176,4021.222736004579,0.12325086935292533,-4316.766795399889,10.5,10499995683.233204,47.655,-122.3035,60.0,6.016666666666667
2026-01-20T23:06:02+00:00,SAT-65291,282.98732414437035,32.70390806015827,4021.3456582049466,0.13527274357728694,-4737.823683214582,10.5,10499995262.176317,47.655,-122.3035,60.0,6.033333333333333
2026-01-20T23:06:03+00:00,SAT-65291,282.85367694554213,32.699326176911796,4021.4805702212075,0.1472932156167009,-5158.83146058117,10.5,10499994841.16854,47.655,-122.3035,60.0,6.05
2026-01-20T23:06:04+00:00,SAT-65291,282.7200575920745,32.694495947515364,4021.627470654916,0.15931216273507656,-5579.7858287625895,10.5,10499994420.21417,47.655,-122.3035,60.0,6.066666666666666
2026-01-20T23:06:05+00:00,SAT-65291,282.58646781151145,32.68941750073933,4021.786357985217,0.17132946134658006,-6000.682459260168,10.5,10499993999.317541,47.655,-122.3035,60.0,6.083333333333333
2026-01-20T23:06:06+00:00,SAT-65291,282.4529093296868,32.6840909731111,4021.9572305680003,0.18334498901801982,-6421.517063945645,10.5,10499993578.482937,47.655,-122.3035,60.0,6.1
2026-01-20T23:06:07+00:00,SAT-65291,282.31938386971876,32.678516508867304,4022.1400866370477,0.19535862254421857,-6842.285327652556,10.5,10499993157.714672,47.655,-122.3035,60.0,6.116666666666666
2026-01-20T23:06:08+00:00,SAT-65291,282.1858931525536,32.672694259965155,4022.334924303265,0.20737023866358653,-7262.982933238629,10.5,10499992737.017067,47.655,-122.3035,60.0,6.133333333333334
2026-01-20T23:06:09+00:00,SAT-65291,282.05243889691985,32.66662438607294,4022.5417415546253,0.21937971552941785,-7683.605613116815,10.5,10499992316.394386,47.655,-122.3035,60.0,6.15
2026-01-20T23:06:10+00:00,SAT-65291,281.91902281827157,32.66030705451054,4022.76053625758,0.23138693007375438,-8104.149056926645,10.5,10499991895.850943,47.655,-122.3035,60.0,6.166666666666667
2026-01-20T23:06:11+00:00,SAT-65291,281.78564662960815,32.65374244027527,4022.9913061558404,0.24339175936636584,-8524.608959131458,10.5,10499991475.39104,47.655,-122.3035,60.0,6.183333333333334
2026-01-20T23:06:12+00:00,SAT-65291,281.65231204125246,32.64693072602127,4023.234048870515,0.25539408151785575,-8944.981050648998,10.5,10499991055.01895,47.655,-122.3035,60.0,6.2
2026-01-20T23:06:13+00:00,SAT-65291,281.5190207601923,32.63987210201363,4023.4887619011492,0.2673937742190383,-9365.26104769421,10.5,10499990634.738953,47.655,-122.3035,60.0,6.216666666666667
2026-01-20T23:06:14+00:00,SAT-65291,281.38577449028867,32.63256676612473,4023.755442625303,0.27939071510634805,-9785.444664577435,10.5,10499990214.555336,47.655,-122.3035,60.0,6.233333333333333
2026-01-20T23:06:15+00:00,SAT-65291,281.25257493224393,32.62501492381972,4024.034088298503,0.2913847814071027,-10205.527601280011,10.5,10499989794.472399,47.655,-122.3035,60.0,6.25
2026-01-20T23:06:16+00:00,SAT-65291,281.11942378371543,32.6172167881501,4024.3246960538263,0.3033758517396174,-10625.505606501893,10.5,10499989374.494394,47.655,-122.3035,60.0,6.266666666666667
2026-01-20T23:06:17+00:00,SAT-65291,280.9863227385383,32.60917257969508,4024.6272629032946,0.31536380629667216,-11045.374484087448,10.5,10499988954.625515,47.655,-122.3035,60.0,6.283333333333333
2026-01-20T23:06:18+00:00,SAT-65291,280.85327348609576,32.60088252650197,4024.941785739441,0.3273485190656838,-11465.129820542983,10.5,10499988534.87018,47.655,-122.3035,60.0,6.3
2026-01-20T23:06:19+00:00,SAT-65291,280.72027771393994,32.59234686423785,4025.268261329122,0.339329872103074,-11884.767484985487,10.5,10499988115.232515,47.655,-122.3035,60.0,6.316666666666666
2026-01-20T23:06:20+00:00,SAT-65291,280.587337104194,32.583565835945585,4025.606686321567,0.35130774261633996,-12304.283176702096,10.5,10499987695.716824,47.655,-122.3035,60.0,6.333333333333333
2026-01-20T23:06:21+00:00,SAT-65291,280.45445333564317,32.57453969215903,4025.957057243536,0.36328200955058226,-12723.672655838172,10.5,10499987276.327345,47.655,-122.3035,60.0,6.35
2026-01-20T23:06:22+00:00,SAT-65291,280.3216280828957,32.56526869083181,4026.319370501061,0.37525255189155887,-13142.93168396307,10.5,10499986857.068316,47.655,-122.3035,60.0,6.366666666666666
2026-01-20T23:06:23+00:00,SAT-65291,280.1888630163522,32.555753097316796,4026.693622379481,0.3872192486529801,-13562.056023625153,10.5,10499986437.943975,47.655,-122.3035,60.0,6.383333333333334
2026-01-20T23:06:24+00:00,SAT-65291,280.0561598021162,32.54599318434063,4027.079809043471,0.3991819795143238,-13981.041460690782,10.5,10499986018.95854,47.655,-122.3035,60.0,6.4
2026-01-20T23:06:25+00:00,SAT-65291,279.9235201017466,32.535989231966035,4027.4779265377065,0.41114062320520545,-14399.883747758115,10.5,10499985600.116253,47.655,-122.3035,60.0,6.416666666666667
2026-01-20T23:06:26+00:00,SAT-65291,279.79094557249135,32.52574152759009,4027.8879707859164,0.42309505907476014,-14818.57865912351,10.5,10499985181.42134,47.655,-122.3035,60.0,6.433333333333334
2026-01-20T23:06:27+00:00,SAT-65291,279.6584378670398,32.51525036590648,4028.3099375915003,0.43504516915094965,-15237.122062907172,10.5,10499984762.877937,47.655,-122.3035,60.0,6.45
2026-01-20T23:06:28+00:00,SAT-65291,279.5259986325939,32.5045160488083,4028.7438226402,0.4469908305660545,-15655.509655761827,10.5,10499984344.490345,47.655,-122.3035,60.0,6.466666666666667
2026-01-20T23:06:29+00:00,SAT-65291,279.3936295124258,32.49353888549305,4029.189621495218,0.4589319250537769,-16073.737295501467,10.5,10499983926.262705,47.655,-122.3035,60.0,6.483333333333333
2026-01-20T23:06:30+00:00,SAT-65291,279.2613321443042,32.48231919231368,4029.6473296018053,0.47086833275302575,-16491.80078408367,10.5,10499983508.199217,47.655,-122.3035,60.0,6.5
2026-01-20T23:06:31+00:00,SAT-65291,279.12910816100936,32.47085729279623,4030.116942285671,0.48279993349015454,-16909.695912518997,10.5,10499983090.304087,47.655,-122.3035,60.0,6.516666666666667
2026-01-20T23:06:32+00:00,SAT-65291,278.9969591903407,32.45915351761942,4030.5984547526714,0.49472661115117655,-17327.41861400447,10.5,10499982672.581387,47.655,-122.3035,60.0,6.533333333333333
2026-01-20T23:06:33+00:00,SAT-65291,278.8648868539401,32.44720820448495,4031.0918620928596,0.5066482421548314,-17744.964560201613,10.5,10499982255.03544,47.655,-122.3035,60.0,6.55
2026-01-20T23:06:34+00:00,SAT-65291,278.73289276931536,32.4350216982762,4031.5971592730352,0.5185647112729597,-18162.329715332857,10.5,10499981837.670284,47.655,-122.3035,60.0,6.566666666666666
2026-01-20T23:06:35+00:00,SAT-65291,278.6009785474979,32.42259435082106,4032.114341145078,0.5304758975035165,-18579.509841394756,10.5,10499981420.490158,47.655,-122.3035,60.0,6.583333333333333
2026-01-20T23:06:36+00:00,SAT-65291,278.469145794543,32.40992652100497,4032.6434024401883,0.5423816851075812,-18996.500884720732,10.5,10499981003.499115,47.655,-122.3035,60.0,6.6
2026-01-20T23:06:37+00:00,SAT-65291,278.337396110143,32.3970185746125,4033.1843377741357,0.5542819552191569,-19413.298682120774,10.5,10499980586.701319,47.655,-122.3035,60.0,6.616666666666666
2026-01-20T23:06:38+00:00,SAT-65291,278.2057310883797,32.38387088437273,4033.737141644141,0.5661765878846561,-19829.899032312842,10.5,10499980170.100967,47.655,-122.3035,60.0,6.633333333333334
2026-01-20T23:06:39+00:00,SAT-65291,278.0741523179305,32.37048382995645,4034.3018084277915,0.57806546854372,-20246.297922908587,10.5,10499979753.702078,47.655,-122.3035,60.0,6.65
2026-01-20T23:06:40+00:00,SAT-65291,277.94266138071725,32.35685779780992,4034.8783323884186,0.5899484786327421,-20662.49120130898,10.5,10499979337.508799,47.655,-122.3035,60.0,6.666666666666667
2026-01-20T23:06:41+00:00,SAT-65291,277.81125985284245,32.34299318122329,4035.4667076711085,0.6018254997248274,-21078.474719703212,10.5,10499978921.52528,47.655,-122.3035,60.0,6.683333333333334
2026-01-20T23:06:42+00:00,SAT-65291,277.6799493045073,32.328890380294304,4036.066928302834,0.6136964172596171,-21494.244465702934,10.5,10499978505.755535,47.655,-122.3035,60.0,6.7
2026-01-20T23:06:43+00:00,SAT-65291,277.5487312990607,32.31454980179894,4036.678988196314,0.6255611153101488,-21909.796379055548,10.5,10499978090.20362,47.655,-122.3035,60.0,6.716666666666667
2026-01-20T23:06:44+00:00,SAT-65291,277.41760739334035,32.29997185919364,4037.30288114865,0.637419473799338,-22325.12625415363,10.5,10499977674.873745,47.655,-122.3035,60.0,6.733333333333333
2026-01-20T23:06:45+00:00,SAT-65291,277.286579138497,32.28515697268231,4037.9386008371866,0.6492713800223361,-22740.230143596636,10.5,10499977259.769855,47.655,-122.3035,60.0,6.75
2026-01-20T23:06:46+00:00,SAT-65291,277.1556480783567,32.270105569000144,4038.586140826862,0.6611167169462946,-23155.10394839917,10.5,10499976844.896051,47.655,-122.3035,60.0,6.766666666666667
2026-01-20T23:06:47+00:00,SAT-65291,277.0248157503514,32.25481808148769,4039.245494565896,0.6729553716595195,-23569.743713916094,10.5,10499976430.256287,47.655,-122.3035,60.0,6.783333333333333
2026-01-20T23:06:48+00:00,SAT-65291,276.89408368460704,32.23929494995221,4039.916655389898,0.6847872244101867,-23984.14524593197,10.5,10499976015.854753,47.655,-122.3035,60.0,6.8
2026-01-20T23:06:49+00:00,SAT-65291,276.7634534053059,32.223536620799386,4040.599616515043,0.6966121645578363,-24398.30466934989,10.5,10499975601.695332,47.655,-122.3035,60.0,6.816666666666666
2026-01-20T23:06:50+00:00,SAT-65291,276.6329264288325,32.2075435467765,4041.2943710471623,0.708430075502115,-24812.21790033226,10.5,10499975187.782099,47.655,-122.3035,60.0,6.833333333333333
2026-01-20T23:06:51+00:00,SAT-65291,276.5025042649213,32.19131618707992,4042.0009119757965,0.7202408440807763,-25225.88097545853,10.5,10499974774.119024,47.655,-122.3035,60.0,6.85
2026-01-20T23:06:52+00:00,SAT-65291,276.3721884159666,32.17485500723452,4042.7192321776265,0.7320443535786093,-25639.289806868313,10.5,10499974360.710194,47.655,-122.3035,60.0,6.866666666666666
2026-01-20T23:06:53+00:00,SAT-65291,276.241980377641,32.15816047914166,4043.449324412929,0.7438404955349085,-26052.44059580892,10.5,10499973947.559404,47.655,-122.3035,60.0,6.883333333333334
2026-01-20T23:06:54+00:00,SAT-65291,276.11188163737745,32.14123308084515,4044.191181333809,0.7556291526774542,-26465.32923491114,10.5,10499973534.670765,47.655,-122.3035,60.0,6.9
2026-01-20T23:06:55+00:00,SAT-65291,275.98189367593335,32.124073296701546,4044.944795475413,0.7674102137848914,-26877.951828732665,10.5,10499973122.048172,47.655,-122.3035,60.0,6.916666666666667
2026-01-20T23:06:56+00:00,SAT-65291,275.8520179662772,32.10668161719798,4045.7101592619606,0.7791835650942576,-27290.304392813323,10.5,10499972709.695608,47.655,-122.3035,60.0,6.933333333333334
2026-01-20T23:06:57+00:00,SAT-65291,275.722255974022,32.08905853897429,4046.487265004215,0.7909490935967886,-27702.38296910818,10.5,10499972297.617031,47.655,-122.3035,60.0,6.95
2026-01-20T23:06:58+00:00,SAT-65291,275.59260915724985,32.07120456476366,4047.2761049002283,0.802706690480091,-28114.183746546936,10.5,10499971885.816254,47.655,-122.3035,60.0,6.966666666666667
2026-01-20T23:06:59+00:00,SAT-65291,275.4630789657974,32.05312020325628,4048.0766710395337,0.8144562423181523,-28525.70275247084,10.5,10499971474.297247,47.655,-122.3035,60.0,6.983333333333333
2026-01-20T23:07:00+00:00,SAT-65291,275.33366684202605,32.03480596916684,4048.888955398539,0.8261976371003518,-28936.936063794154,10.5,10499971063.063936,47.655,-122.3035,60.0,7.0
2026-01-20T23:07:01+00:00,SAT-65291,275.2043742205205,32.01626238315867,4049.712949841941,0.837930764605511,-29347.879820104965,10.5,10499970652.12018,47.655,-122.3035,60.0,7.016666666666667
2026-01-20T23:07:02+00:00,SAT-65291,275.0752025278247,31.99748997176413,4050.5486461245073,0.849655514258222,-29758.530148584767,10.5,10499970241.46985,47.655,-122.3035,60.0,7.033333333333333
2026-01-20T23:07:03+00:00,SAT-65291,274.94615318245224,31.97848926734989,4051.3960358907275,0.861371775198474,-30168.883166447024,10.5,10499969831.116833,47.655,-122.3035,60.0,7.05
2026-01-20T23:07:04+00:00,SAT-65291,274.81722759493664,31.959260808082785,4052.2551106745254,0.8730794395550961,-30578.93509558706,10.5,10499969421.064905,47.655,-122.3035,60.0,7.066666666666666
2026-01-20T23:07:05+00:00,SAT-65291,274.68842716733695,31.93980513781737,4053.1258619022415,0.8847783958577055,-30988.682031840533,10.5,10499969011.317968,47.655,-122.3035,60.0,7.083333333333333
2026-01-20T23:07:06+00:00,SAT-65291,274.5597532937845,31.92012280613807,4054.0082808890434,0.8964685370493003,-31398.120225618393,10.5,10499968601.879774,47.655,-122.3035,60.0,7.1
2026-01-20T23:07:07+00:00,SAT-65291,274.4312073598112,31.90021436821423,4054.9023588433274,0.9081497501805774,-31807.24572095827,10.5,10499968192.754278,47.655,-122.3035,60.0,7.116666666666666
2026-01-20T23:07:08+00:00,SAT-65291,274.3027907431861,31.88008038489305,4055.8080868608413,0.9198219296287308,-32216.05481850272,10.5,10499967783.94518,47.655,-122.3035,60.0,7.133333333333334
2026-01-20T23:07:09+00:00,SAT-65291,274.1745048128437,31.859721422487876,4056.725455931991,0.9314849718668529,-32624.543892301503,10.5,10499967375.456108,47.655,-122.3035,60.0,7.15
2026-01-20T23:07:10+00:00,SAT-65291,274.04635092860167,31.839138052687407,4057.6544569439325,0.943138761275454,-33032.70889287104,10.5,10499966967.291107,47.655,-122.3035,60.0,7.166666666666667
2026-01-20T23:07:11+00:00,SAT-65291,273.9183304428445,31.818330852788247,4058.5950806685114,0.9547831942961171,-33440.546193157505,10.5,10499966559.453806,47.655,-122.3035,60.0,7.183333333333334
2026-01-20T23:07:12+00:00,SAT-65291,273.7904446988199,31.79730040537571,4059.5473177742892,0.9664181648476216,-33848.05207774782,10.5,10499966151.947922,47.655,-122.3035,60.0,7.2
2026-01-20T23:07:13+00:00,SAT-65291,273.6626950309966,31.776047298336678,4060.5111588240306,0.9780435664843534,-34255.22281846634,10.5,10499965744.777182,47.655,-122.3035,60.0,7.216666666666667
2026-01-20T23:07:14+00:00,SAT-65291,273.5350827650934,31.75457212482283,4061.4865942743377,0.9896592925767228,-34662.05468069377,10.5,10499965337.94532,47.655,-122.3035,60.0,7.233333333333333
2026-01-20T23:07:15+00:00,SAT-65291,273.4076092181395,31.73287548321275,4062.473614475468,1.0012652350939786,-35068.54388073624,10.5,10499964931.45612,47.655,-122.3035,60.0,7.25
2026-01-20T23:07:16+00:00,SAT-65291,273.28027569860285,31.710957977096733,4063.4722096699347,1.0128612933765886,-35474.686893071135,10.5,10499964525.313107,47.655,-122.3035,60.0,7.266666666666667
2026-01-20T23:07:17+00:00,SAT-65291,273.1530835054531,31.688820215063615,4064.4823699998624,1.0244473598527235,-35880.47995007799,10.5,10499964119.52005,47.655,-122.3035,60.0,7.283333333333333
2026-01-20T23:07:18+00:00,SAT-65291,273.0260339290557,31.66646281081492,4065.5040855000884,1.0360233298199637,-36285.91938463515,10.5,10499963714.080616,47.655,-122.3035,60.0,7.3
2026-01-20T23:07:19+00:00,SAT-65291,272.89912825079824,31.643886383051637,4066.5373461010295,1.0475891027036497,-36691.001674192616,10.5,10499963308.998325,47.655,-122.3035,60.0,7.316666666666666
2026-01-20T23:07:20+00:00,SAT-65291,272.7723677425793,31.621091555337227,4067.582141632792,1.059144569978023,-37095.72301771928,10.5,10499962904.276981,47.655,-122.3035,60.0,7.333333333333333
2026-01-20T23:07:21+00:00,SAT-65291,272.64575366778786,31.598078956228953,4068.63846181725,1.0706896336822,-37500.07998421061,10.5,10499962499.920015,47.655,-122.3035,60.0,7.35
2026-01-20T23:07:22+00:00,SAT-65291,272.5192872800351,31.574849218997826,4069.706296278576,1.0822241850596908,-37904.06876455429,10.5,10499962095.931236,47.655,-122.3035,60.0,7.366666666666666
2026-01-20T23:07:23+00:00,SAT-65291,272.3929698244316,31.55140298181945,4070.7856345324753,1.093748127978185,-38307.685991790175,10.5,10499961692.314009,47.655,-122.3035,60.0,7.383333333333334
2026-01-20T23:07:24+00:00,SAT-65291,272.26680253610925,31.527740887449962,4071.876465998779,1.105261356166388,-38710.927943847986,10.5,10499961289.072056,47.655,-122.3035,60.0,7.4
2026-01-20T23:07:25+00:00,SAT-65291,272.1407866414113,31.503863583401323,4072.9787799913292,1.1167637719378534,-39113.79119933518,10.5,10499960886.208801,47.655,-122.3035,60.0,7.416666666666667
2026-01-20T23:07:26+00:00,SAT-65291,272.01492335691705,31.47977172170818,4074.092565726542,1.1282552724451633,-39516.27215610012,10.5,10499960483.727844,47.655,-122.3035,60.0,7.433333333333334
2026-01-20T23:07:27+00:00,SAT-65291,271.8892138900281,31.455465958990775,4075.2178123182603,1.139735754730616,-39918.36720812859,10.5,10499960081.632792,47.655,-122.3035,60.0,7.45
2026-01-20T23:07:28+00:00,SAT-65291,271.7636594390073,31.430946956415607,4076.354508777645,1.1512051248030308,-40320.07306345186,10.5,10499959679.926937,47.655,-122.3035,60.0,7.466666666666667
2026-01-20T23:07:29+00:00,SAT-65291,271.63826119195016,31.40621537944326,4077.5026440221154,1.162663277030962,-40721.38602240988,10.5,10499959278.613977,47.655,-122.3035,60.0,7.483333333333333
2026-01-20T23:07:30+00:00,SAT-65291,271.51302032813993,31.381271898046325,4078.6622068637407,1.17411011480793,-41122.30270143509,10.5,10499958877.697298,47.655,-122.3035,60.0,7.5
2026-01-20T23:07:31+00:00,SAT-65291,271.3879380170218,31.356117186455794,4079.8331860182425,1.1855455424305623,-41522.819748590555,10.5,10499958477.180252,47.655,-122.3035,60.0,7.516666666666667
2026-01-20T23:07:32+00:00,SAT-65291,271.2630154181507,31.330751923098372,4081.0155701058934,1.1969694578351155,-41922.93358917226,10.5,10499958077.06641,47.655,-122.3035,60.0,7.533333333333333
2026-01-20T23:07:33+00:00,SAT-65291,271.13825368187935,31.30517679068537,4082.209347645174,1.2083817625103024,-42322.640772898216,10.5,10499957677.359226,47.655,-122.3035,60.0,7.55
2026-01-20T23:07:34+00:00,SAT-65291,271.0136539489991,31.279392476091793,4083.4145070563177,1.2197823590039663,-42721.937886581676,10.5,10499957278.062113,47.655,-122.3035,60.0,7.566666666666666
2026-01-20T23:07:35+00:00,SAT-65291,270.8892173506333,31.25339967028068,4084.6310366623643,1.231171157295648,-43120.82177732538,10.5,10499956879.178223,47.655,-122.3035,60.0,7.583333333333333
2026-01-20T23:07:36+00:00,SAT-65291,270.7649450074916,31.227199068094038,4085.858924696574,1.2425480573773529,-43519.28894242632,10.5,10499956480.711058,47.655,-122.3035,60.0,7.6
2026-01-20T23:07:37+00:00,SAT-65291,270.64083803095264,31.200791368426145,4087.098159292465,1.2539129575136478,-43917.335818679276,10.5,10499956082.66418,47.655,-122.3035,60.0,7.616666666666666
2026-01-20T23:07:38+00:00,SAT-65291,270.51689752321806,31.174177274212028,4088.3487284820917,1.2652657689937559,-44314.959299057606,10.5,10499955685.0407,47.655,-122.3035,60.0,7.633333333333334
2026-01-20T23:07:39+00:00,SAT-65291,270.3931245760078,31.147357492091434,4089.610620209035,1.276606394199332,-44712.15596455394,10.5,10499955287.844036,47.655,-122.3035,60.0,7.65
2026-01-20T23:07:40+00:00,SAT-65291,270.2695202715186,31.120332732561888,4090.8838223195166,1.2879347426245675,-45108.92264527201,10.5,10499954891.077354,47.655,-122.3035,60.0,7.666666666666667
2026-01-20T23:07:41+00:00,SAT-65291,270.1460856817201,31.09310370977036,4092.168322569494,1.299250714505921,-45505.255847070606,10.5,10499954494.744152,47.655,-122.3035,60.0,7.683333333333334
2026-01-20T23:07:42+00:00,SAT-65291,270.0228218692989,31.06567114167234,4093.4641086154284,1.3105542212581465,-45901.152467319705,10.5,10499954098.847532,47.655,-122.3035,60.0,7.7
2026-01-20T23:07:43+00:00,SAT-65291,269.899729886579,31.038035749734146,4094.7711680254292,1.3218451671610996,-46296.60915349494,10.5,10499953703.390846,47.655,-122.3035,60.0,7.716666666666667
2026-01-20T23:07:44+00:00,SAT-65291,269.7768107762627,31.01019825904719,4096.089488272145,1.3331234585026126,-46691.62262339979,10.5,10499953308.377377,47.655,-122.3035,60.0,7.733333333333333
2026-01-20T23:07:45+00:00,SAT-65291,269.6540655712381,30.982159398230642,4097.419056734758,1.344389010814019,-47086.18991858427,10.5,10499952913.810081,47.655,-122.3035,60.0,7.75
2026-01-20T23:07:46+00:00,SAT-65291,269.53149529376316,30.95391989918636,4098.75986070821,1.3556417220727413,-47480.30746578616,10.5,10499952519.692533,47.655,-122.3035,60.0,7.766666666666667
2026-01-20T23:07:47+00:00,SAT-65291,269.4091009571194,30.92548049743069,4100.11188738569,1.366881510039165,-47873.97238462627,10.5,10499952126.027615,47.655,-122.3035,60.0,7.783333333333333
2026-01-20T23:07:48+00:00,SAT-65291,269.28688356383236,30.89684193162098,4101.475123878369,1.378108279732097,-48267.18134846147,10.5,10499951732.818651,47.655,-122.3035,60.0,7.8
2026-01-20T23:07:49+00:00,SAT-65291,269.16484410684205,30.868004943776917,4102.849557202689,1.3893219415218996,-48659.9312180827,10.5,10499951340.068783,47.655,-122.3035,60.0,7.816666666666666
2026-01-20T23:07:50+00:00,SAT-65291,269.0429835690783,30.83897027912586,4104.2351742857,1.4005224101582638,-49052.21900766353,10.5,10499950947.780993,47.655,-122.3035,60.0,7.833333333333333
2026-01-20T23:07:51+00:00,SAT-65291,268.92130292308684,30.809738685952862,4105.631961969431,1.4117095903001782,-49444.04137795845,10.5,10499950555.958622,47.655,-122.3035,60.0,7.85
2026-01-20T23:07:52+00:00,SAT-65291,268.7998031319663,30.780310915776447,4107.039907000824,1.4228833990442922,-49835.39542534145,10.5,10499950164.604574,47.655,-122.3035,60.0,7.866666666666666
2026-01-20T23:07:53+00:00,SAT-65291,268.6784851483127,30.750687723030143,4108.458996044137,1.4340437441532923,-50226.27791927163,10.5,10499949773.72208,47.655,-122.3035,60.0,7.883333333333334
2026-01-20T23:07:54+00:00,SAT-65291,268.5573499150635,30.720869865218273,4109.88921567164,1.4451905415467916,-50616.685914898204,10.5,10499949383.314085,47.655,-122.3035,60.0,7.9
2026-01-20T23:07:55+00:00,SAT-65291,268.4363983648339,30.69085810269071,4111.330552371743,1.4563237056939442,-51006.61641656914,10.5,10499948993.383583,47.655,-122.3035,60.0,7.916666666666667
2026-01-20T23:07:56+00:00,SAT-65291,268.31563142009,30.660653198629795,4112.782992547554,1.4674431433633586,-51396.06615892674,10.5,10499948603.933842,47.655,-122.3035,60.0,7.933333333333334
2026-01-20T23:07:57+00:00,SAT-65291,268.1950499938258,30.630255919166224,4114.246522509203,1.4785487744748456,-51785.03233722403,10.5,10499948214.967663,47.655,-122.3035,60.0,7.95
2026-01-20T23:07:58+00:00,SAT-65291,268.07465498849757,30.599667033050853,4115.721128486945,1.489640519753236,-52173.51217490928,10.5,10499947826.487825,47.655,-122.3035,60.0,7.966666666666667
2026-01-20T23:07:59+00:00,SAT-65291,267.95444729603093,30.568887311591826,4117.206796631979,1.5007182769375982,-52561.50209037207,10.5,10499947438.49791,47.655,-122.3035,60.0,7.983333333333333
2026-01-20T23:08:00+00:00,SAT-65291,267.8344277997237,30.537917529099033,4118.703512993512,1.5117819769710295,-52948.99966494758,10.5,10499947051.000336,47.655,-122.3035,60.0,8.0
2026-01-20T23:08:01+00:00,SAT-65291,267.7145973715801,30.506758462126168,4120.211263551877,1.5228315316362346,-53336.00180889295,10.5,10499946663.998192,47.655,-122.3035,60.0,8.016666666666667
2026-01-20T23:08:02+00:00,SAT-65291,267.5949568739217,30.475410889836656,4121.73003419943,1.5338668614186728,-53722.50573727263,10.5,10499946277.494263,47.655,-122.3035,60.0,8.033333333333333
2026-01-20T23:08:03+00:00,SAT-65291,267.47550715874013,30.44387559376962,4123.259810749218,1.5448878739778622,-54108.50821593234,10.5,10499945891.491783,47.655,-122.3035,60.0,8.05
2026-01-20T23:08:04+00:00,SAT-65291,267.3562490687349,30.412153358066057,4124.800578922198,1.5558944957794836,-54494.006669389186,10.5,10499945505.99333,47.655,-122.3035,60.0,8.066666666666666
2026-01-20T23:08:05+00:00,SAT-65291,267.2371834358943,30.38024496902496,4126.352324365989,1.5668866430663786,-54878.99816411317,10.5,10499945121.001837,47.655,-122.3035,60.0,8.083333333333334
2026-01-20T23:08:06+00:00,SAT-65291,267.11831108235486,30.348151215276143,4127.915032644673,1.5778642358183284,-55263.47989745775,10.5,10499944736.520103,47.655,-122.3035,60.0,8.1
2026-01-20T23:08:07+00:00,SAT-65291,266.9996328201338,30.31587288764929,4129.488689242529,1.58882719015366,-55647.44893153192,10.5,10499944352.55107,47.655,-122.3035,60.0,8.116666666666667
2026-01-20T23:08:08+00:00,SAT-65291,266.8811494514963,30.283410779217338,4131.073279560176,1.59977543231393,-56030.902683003005,10.5,10499943969.097317,47.655,-122.3035,60.0,8.133333333333333
2026-01-20T23:08:09+00:00,SAT-65291,266.7628617682301,30.25076568503262,4132.6687889246705,1.6107088742688684,-56413.83806867855,10.5,10499943586.161932,47.655,-122.3035,60.0,8.15
2026-01-20T23:08:10+00:00,SAT-65291,266.6447705527665,30.217938402385528,4134.275202575274,1.6216274457906334,-56796.25262888251,10.5,10499943203.747372,47.655,-122.3035,60.0,8.166666666666666
2026-01-20T23:08:11+00:00,SAT-65291,266.5268765768938,30.18492973037942,4135.89250568121,1.6325310626788996,-57178.1434145633,10.5,10499942821.856585,47.655,-122.3035,60.0,8.183333333333334
2026-01-20T23:08:12+00:00,SAT-65291,266.4091806028747,30.151740470189118,4137.520683327722,1.643419653297041,-57559.50791670327,10.5,10499942440.492083,47.655,-122.3035,60.0,8.2
2026-01-20T23:08:13+00:00,SAT-65291,266.2916833825439,30.118371424741913,4139.15972052861,1.6542931344164473,-57940.343220284405,10.5,10499942059.65678,47.655,-122.3035,60.0,8.216666666666667
2026-01-20T23:08:14+00:00,SAT-65291,266.17438565824114,30.08482339892631,4140.809602214668,1.6651514290469058,-58320.64662878381,10.5,10499941679.35337,47.655,-122.3035,60.0,8.233333333333333
2026-01-20T23:08:15+00:00,SAT-65291,266.05728816236643,30.051097199407586,4142.4703132399045,1.6759944706970076,-58700.41581339107,10.5,10499941299.584187,47.655,-122.3035,60.0,8.25
2026-01-20T23:08:16+00:00,SAT-65291,265.9403916167377,30.017193634373765,4144.141838392013,1.6868221676976285,-59079.64756346572,10.5,10499940920.352436,47.655,-122.3035,60.0,8.266666666666667
