satellites_20260121_005943/SAT-66154.csv

timestamp,satellite,azimuth_deg,elevation_deg,distance_km,relative_velocity_kms,doppler_shift_hz,tx_freq_ghz,rx_freq_hz,ue_lat,ue_lon,ue_alt_m,time_minutes
2026-01-20T23:14:56+00:00,SAT-66154,181.61799127638628,30.014922312345742,802.8930514992135,-5.025881381994966,176027.62545463085,10.5,10500176027.625454,47.655,-122.3035,60.0,14.933333333333334
2026-01-20T23:14:57+00:00,SAT-66154,181.60902195767238,30.40107737209242,797.8805724675705,-4.994104621937916,174914.6689018712,10.5,10500174914.668901,47.655,-122.3035,60.0,14.95
2026-01-20T23:14:58+00:00,SAT-66154,181.60031526241926,30.79176909085538,792.8997854579577,-4.961719702064594,173780.41201983218,10.5,10500173780.41202,47.655,-122.3035,60.0,14.966666666666667
2026-01-20T23:14:59+00:00,SAT-66154,181.59187936889057,31.18705380199676,787.951297008432,-4.928715282313188,172624.45763158082,10.5,10500172624.457632,47.655,-122.3035,60.0,14.983333333333333
