satellites_20260121_005943/SAT-55658.csv

timestamp,satellite,azimuth_deg,elevation_deg,distance_km,relative_velocity_kms,doppler_shift_hz,tx_freq_ghz,rx_freq_hz,ue_lat,ue_lon,ue_alt_m,time_minutes
2026-01-20T23:03:11+00:00,SAT-55658,193.3402590214253,30.12095589473606,1220.1900359227504,-2.18425961992953,76502.01129896357,10.5,10500076502.0113,47.655,-122.3035,60.0,3.183333333333333
2026-01-20T23:03:12+00:00,SAT-55658,193.53418309220982,30.406281614014365,1218.0116009951407,-2.1478992532240513,75228.51745273905,10.5,10500075228.517452,47.655,-122.3035,60.0,3.2
2026-01-20T23:03:13+00:00,SAT-55658,193.7302170413224,30.692110936420896,1215.8694294732584,-2.111344659585503,73948.22095773931,10.5,10500073948.220957,47.655,-122.3035,60.0,3.216666666666667
2026-01-20T23:03:14+00:00,SAT-55658,193.9283868458632,30.978422214560894,1213.7637150660985,-2.074597828777626,72661.19150390726,10.5,10500072661.191504,47.655,-122.3035,60.0,3.2333333333333334
2026-01-20T23:03:15+00:00,SAT-55658,194.12871877331636,31.265193307871417,1211.6946494981976,-2.037660822446257,71367.50129880085,10.5,10500071367.501299,47.655,-122.3035,60.0,3.25
2026-01-20T23:03:16+00:00,SAT-55658,194.33123938073768,31.55240158081628,1209.6624224379445,-2.0005357672159265,70067.22482580674,10.5,10500070067.224825,47.655,-122.3035,60.0,3.2666666666666666
2026-01-20T23:03:17+00:00,SAT-55658,194.5359755127687,31.840023900140885,1207.6672214327746,-1.9632248819896423,68760.43980029425,10.5,10500068760.4398,47.655,-122.3035,60.0,3.283333333333333
2026-01-20T23:03:18+00:00,SAT-55658,194.74295430191356,32.128036636035546,1205.7092318171367,-1.9257304409126326,67447.22587244886,10.5,10500067447.225872,47.655,-122.3035,60.0,3.3
2026-01-20T23:03:19+00:00,SAT-55658,194.95220316512675,32.41641565865002,1203.7886366574,-1.888054810074959,66127.66591275312,10.5,10500066127.665913,47.655,-122.3035,60.0,3.316666666666667
2026-01-20T23:03:20+00:00,SAT-55658,195.16374980348104,32.70513633977968,1201.905616660152,-1.8502004280240831,64801.845329454125,10.5,10500064801.84533,47.655,-122.3035,60.0,3.3333333333333335
2026-01-20T23:03:21+00:00,SAT-55658,195.37762219964824,32.99417355215931,1200.060350099936,-1.8121698073578814,63469.85212435782,10.5,10500063469.852125,47.655,-122.3035,60.0,3.35
2026-01-20T23:03:22+00:00,SAT-55658,195.59384861536003,33.28350166946257,1198.2530127453977,-1.7739655264754777,62131.77660390815,10.5,10500062131.776604,47.655,-122.3035,60.0,3.3666666666666667
2026-01-20T23:03:23+00:00,SAT-55658,195.81245758740414,33.57309456515838,1196.4837777936593,-1.7355902518901223,60787.71216067846,10.5,10500060787.71216,47.655,-122.3035,60.0,3.3833333333333333
2026-01-20T23:03:24+00:00,SAT-55658,196.0334779257464,33.86292561507842,1194.752815782441,-1.6970467231094015,59437.75474381252,10.5,10500059437.754744,47.655,-122.3035,60.0,3.4
2026-01-20T23:03:25+00:00,SAT-55658,196.25693870964963,34.152967698095914,1193.0602945172598,-1.658337746379302,58082.00263991523,10.5,10500058082.00264,47.655,-122.3035,60.0,3.4166666666666665
2026-01-20T23:03:26+00:00,SAT-55658,196.48286928279043,34.44319319630821,1191.406379004871,-1.6194662024632842,56720.55674550853,10.5,10500056720.556746,47.655,-122.3035,60.0,3.433333333333333
2026-01-20T23:03:27+00:00,SAT-55658,196.7112992486303,34.73357399656303,1189.7912313789477,-1.5804350509011555,55353.52071619539,10.5,10500055353.520716,47.655,-122.3035,60.0,3.45
2026-01-20T23:03:28+00:00,SAT-55658,196.9422584660819,35.02408149325434,1188.2150108215155,-1.5412473253606456,53981.00080385204,10.5,10500053981.000803,47.655,-122.3035,60.0,3.466666666666667
2026-01-20T23:03:29+00:00,SAT-55658,197.17577704415393,35.31468659072632,1186.6778734890224,-1.501906117003876,52603.105274051624,10.5,10500052603.105274,47.655,-122.3035,60.0,3.4833333333333334
2026-01-20T23:03:30+00:00,SAT-55658,197.41188533408058,35.60535970345862,1185.1799724549971,-1.4624146008718468,51219.94533016035,10.5,10500051219.94533,47.655,-122.3035,60.0,3.5
2026-01-20T23:03:31+00:00,SAT-55658,197.65061392421333,35.89607076086466,1183.7214576263946,-1.4227760237031706,49831.634686698126,10.5,10500049831.634687,47.655,-122.3035,60.0,3.5166666666666666
2026-01-20T23:03:32+00:00,SAT-55658,197.8919936332171,36.18678921087284,1182.3024756720877,-1.3829936953098352,48438.28926728127,10.5,10500048438.289267,47.655,-122.3035,60.0,3.533333333333333
2026-01-20T23:03:33+00:00,SAT-55658,198.13605550124333,36.477484022166614,1180.9231699599654,-1.343070982677283,47040.02699798229,10.5,10500047040.026999,47.655,-122.3035,60.0,3.55
2026-01-20T23:03:34+00:00,SAT-55658,198.3828307800311,36.76812368614172,1179.5836804999085,-1.3030113477177696,45636.96912961227,10.5,10500045636.96913,47.655,-122.3035,60.0,3.566666666666667
2026-01-20T23:03:35+00:00,SAT-55658,198.63235092766232,37.058676225856274,1178.2841438491182,-1.2628182896339208,44229.238219048755,10.5,10500044229.238218,47.655,-122.3035,60.0,3.5833333333333335
2026-01-20T23:03:36+00:00,SAT-55658,198.88464759465404,37.34910919542574,1177.0246930749233,-1.2224953952492632,42816.95989202392,10.5,10500042816.959892,47.655,-122.3035,60.0,3.6
2026-01-20T23:03:37+00:00,SAT-55658,199.13975261676356,37.6393896889093,1175.8054576673946,-1.1820462998714887,41400.26147239045,10.5,10500041400.261473,47.655,-122.3035,60.0,3.6166666666666667
2026-01-20T23:03:38+00:00,SAT-55658,199.39769800164493,37.929484342898384,1174.6265634909894,-1.1414747037229462,39979.27255758694,10.5,10500039979.272558,47.655,-122.3035,60.0,3.6333333333333333
2026-01-20T23:03:39+00:00,SAT-55658,199.65851591676508,38.219359342124164,1173.4881327198098,-1.100784378822954,38554.12525968554,10.5,10500038554.12526,47.655,-122.3035,60.0,3.65
2026-01-20T23:03:40+00:00,SAT-55658,199.92223867896683,38.50898042802217,1172.390283765997,-1.0599791369275169,37124.95308250526,10.5,10500037124.953083,47.655,-122.3035,60.0,3.6666666666666665
2026-01-20T23:03:41+00:00,SAT-55658,200.18889873684034,38.79831290052069,1171.3331312401012,-1.0190628652592104,35691.89217302361,10.5,10500035691.892174,47.655,-122.3035,60.0,3.683333333333333
2026-01-20T23:03:42+00:00,SAT-55658,200.45852865966816,39.087321628622085,1170.316785875816,-0.9780395008491957,34255.08042272549,10.5,10500034255.080423,47.655,-122.3035,60.0,3.7
2026-01-20T23:03:43+00:00,SAT-55658,200.73116112065438,39.37597105590189,1169.3413544803025,-0.9369130365926602,32814.6576796903,10.5,10500032814.65768,47.655,-122.3035,60.0,3.716666666666667
2026-01-20T23:03:44+00:00,SAT-55658,201.00682888098578,39.664225208328965,1168.406939878474,-0.8956875081059983,31370.765288274804,10.5,10500031370.765287,47.655,-122.3035,60.0,3.7333333333333334
2026-01-20T23:03:45+00:00,SAT-55658,201.28556476988638,39.95204769926804,1167.5136408703897,-0.854367021575223,29923.54706448233,10.5,10500029923.547064,47.655,-122.3035,60.0,3.75
2026-01-20T23:03:46+00:00,SAT-55658,201.56740167085331,40.23940174254936,1166.661552160872,-0.8129557138004897,28473.14789655296,10.5,10500028473.147896,47.655,-122.3035,60.0,3.7666666666666666
2026-01-20T23:03:47+00:00,SAT-55658,201.8523724978107,40.52625015620464,1165.850764328975,-0.7714577803458806,27019.714730888085,10.5,10500027019.714731,47.655,-122.3035,60.0,3.783333333333333
2026-01-20T23:03:48+00:00,SAT-55658,202.14051017738234,40.81255537430645,1165.0813637693766,-0.7298774573535238,25563.39593510388,10.5,10500025563.395935,47.655,-122.3035,60.0,3.8
2026-01-20T23:03:49+00:00,SAT-55658,202.4318476260974,41.0982794549547,1164.3534326519095,-0.6882190253707406,24104.34143207424,10.5,10500024104.341433,47.655,-122.3035,60.0,3.816666666666667
2026-01-20T23:03:50+00:00,SAT-55658,202.72641772782373,41.38338409014945,1163.667048877273,-0.6464868074208446,22642.702632361983,10.5,10500022642.702633,47.655,-122.3035,60.0,3.8333333333333335
2026-01-20T23:03:51+00:00,SAT-55658,203.02425331004298,41.66783061606367,1163.022286034672,-0.6046851624524423,21178.632204785634,10.5,10500021178.632204,47.655,-122.3035,60.0,3.85
2026-01-20T23:03:52+00:00,SAT-55658,203.32538711790724,41.95158002265481,1162.419213365986,-0.5628184887760153,19712.284196783097,10.5,10500019712.284197,47.655,-122.3035,60.0,3.8666666666666667
2026-01-20T23:03:53+00:00,SAT-55658,203.6298517882674,42.234592964976436,1161.8578957265133,-0.5208912202718387,18243.813901596903,10.5,10500018243.813902,47.655,-122.3035,60.0,3.8833333333333333
2026-01-20T23:03:54+00:00,SAT-55658,203.9376798224319,42.51682977482492,1161.3383935494955,-0.47890782176823016,16773.377696400945,10.5,10500016773.377697,47.655,-122.3035,60.0,3.9
2026-01-20T23:03:55+00:00,SAT-55658,204.24890355634128,42.79825047160049,1160.8607628152522,-0.4368727889859006,15301.13304035139,10.5,10500015301.13304,47.655,-122.3035,60.0,3.9166666666666665
2026-01-20T23:03:56+00:00,SAT-55658,204.5635551306296,43.07881477473898,1160.4250550203703,-0.3947906433820636,13827.238294005607,10.5,10500013827.238295,47.655,-122.3035,60.0,3.933333333333333
2026-01-20T23:03:57+00:00,SAT-55658,204.88166645747776,43.35848211489523,1160.031317152037,-0.3526659366334427,12351.85287633603,10.5,10500012351.852877,47.655,-122.3035,60.0,3.95
2026-01-20T23:03:58+00:00,SAT-55658,205.20326918972864,43.637211648891004,1159.6795916579015,-0.3105032412321726,10875.136935358836,10.5,10500010875.136936,47.655,-122.3035,60.0,3.966666666666667
2026-01-20T23:03:59+00:00,SAT-55658,205.52839468544678,43.91496227214956,1159.3699164253123,-0.2683071454231679,9397.25117081919,10.5,10500009397.251171,47.655,-122.3035,60.0,3.9833333333333334
2026-01-20T23:04:00+00:00,SAT-55658,205.85707396839157,44.19169262940141,1159.1023247656105,-0.22608226344754678,7918.3571929592745,10.5,10500007918.357193,47.655,-122.3035,60.0,4.0
2026-01-20T23:04:01+00:00,SAT-55658,206.18933769467986,44.46736113255501,1158.8768453881987,-0.18383322313012518,6438.617087779821,10.5,10500006438.617088,47.655,-122.3035,60.0,4.016666666666667
2026-01-20T23:04:02+00:00,SAT-55658,206.52521611307012,44.741925974580106,1158.693502386997,-0.14156466223954722,4958.19328955649,10.5,10500004958.193289,47.655,-122.3035,60.0,4.033333333333333
2026-01-20T23:04:03+00:00,SAT-55658,206.86473902106778,45.01534514173653,1158.5523152305234,-0.09928123272734608,3477.2487293097074,10.5,10500003477.24873,47.655,-122.3035,60.0,4.05
2026-01-20T23:04:04+00:00,SAT-55658,207.20793572564065,45.287576431412,1158.45329874775,-0.05698759401995116,1995.9465998623862,10.5,10500001995.9466,47.655,-122.3035,60.0,4.066666666666666
2026-01-20T23:04:05+00:00,SAT-55658,207.55483499816486,45.55857746686924,1158.3964631206475,-0.014688409429132123,514.4502301184885,10.5,10500000514.45023,47.655,-122.3035,60.0,4.083333333333333
2026-01-20T23:04:06+00:00,SAT-55658,207.90546502735103,45.8283057121176,1158.3818138803101,0.02761165050289878,-967.0767977773384,10.5,10499999032.923203,47.655,-122.3035,60.0,4.1
2026-01-20T23:04:07+00:00,SAT-55658,208.25985337712638,46.09671849244926,1158.409351899745,0.06990792026632144,-2448.471077936107,10.5,10499997551.528921,47.655,-122.3035,60.0,4.116666666666666
2026-01-20T23:04:08+00:00,SAT-55658,208.61802692948785,46.36377300480527,1158.4790733988907,0.11219573106516674,-3929.569089373992,10.5,10499996070.43091,47.655,-122.3035,60.0,4.133333333333334
2026-01-20T23:04:09+00:00,SAT-55658,208.98001184214127,46.62942634149013,1158.5909699413396,0.1544704215125474,-5410.207570604554,10.5,10499994589.792429,47.655,-122.3035,60.0,4.15
2026-01-20T23:04:10+00:00,SAT-55658,209.34583349259103,46.89363550491514,1158.745028441728,0.19672733634384562,-6890.223474569127,10.5,10499993109.776525,47.655,-122.3035,60.0,4.166666666666667
2026-01-20T23:04:11+00:00,SAT-55658,209.71551642414923,47.156357425661355,1158.9412311718418,0.2389618301422181,-8369.454099119765,10.5,10499991630.5459,47.655,-122.3035,60.0,4.183333333333334
2026-01-20T23:04:12+00:00,SAT-55658,210.08908429284568,47.41754898274983,1159.179555770437,0.28116926913667745,-9847.737149995657,10.5,10499990152.26285,47.655,-122.3035,60.0,4.2
2026-01-20T23:04:13+00:00,SAT-55658,210.46655980811795,47.67716702097957,1159.4599752548559,0.3233450349664761,-11324.91087266778,10.5,10499988675.089127,47.655,-122.3035,60.0,4.216666666666667
2026-01-20T23:04:14+00:00,SAT-55658,210.84796467726218,47.935168372525915,1159.7824580363956,0.3654845249443641,-12800.814061559291,10.5,10499987199.185938,47.655,-122.3035,60.0,4.233333333333333
2026-01-20T23:04:15+00:00,SAT-55658,211.23331954169694,48.19150987429276,1160.1469679359402,0.4075831578856161,-14275.286264202714,10.5,10499985724.713736,47.655,-122.3035,60.0,4.25
2026-01-20T23:04:16+00:00,SAT-55658,211.6226439200804,48.44614839151125,1160.553464205405,0.449636372337647,-15748.167719233594,10.5,10499984251.832281,47.655,-122.3035,60.0,4.266666666666667
2026-01-20T23:04:17+00:00,SAT-55658,212.01595614194875,48.69904083626411,1161.0019015474163,0.4916396328417884,-17219.299575704397,10.5,10499982780.700424,47.655,-122.3035,60.0,4.283333333333333
2026-01-20T23:04:18+00:00,SAT-55658,212.41327328443018,48.950144189473484,1161.492230141237,0.5335884309682781,-18688.523929334206,10.5,10499981311.47607,47.655,-122.3035,60.0,4.3
2026-01-20T23:04:19+00:00,SAT-55658,212.8146111091263,49.199415524362855,1162.024395669723,0.5754782858801296,-20155.683842257837,10.5,10499979844.316158,47.655,-122.3035,60.0,4.316666666666666
2026-01-20T23:04:20+00:00,SAT-55658,213.21998399127784,49.44681202604775,1162.5983393468407,0.6173047487632841,-21620.62349818848,10.5,10499978379.376501,47.655,-122.3035,60.0,4.333333333333333
2026-01-20T23:04:21+00:00,SAT-55658,213.62940485418724,49.692291015880066,1163.2139979496071,0.6590634063495897,-23083.188325807358,10.5,10499976916.811674,47.655,-122.3035,60.0,4.35
2026-01-20T23:04:22+00:00,SAT-55658,214.04288510126062,49.93580997525949,1163.87130385354,0.7007498764886829,-24543.224843672255,10.5,10499975456.775156,47.655,-122.3035,60.0,4.366666666666666
2026-01-20T23:04:23+00:00,SAT-55658,214.4604345418292,50.177326566743,1164.5701850636913,0.7423598230240891,-26000.58118124151,10.5,10499973999.41882,47.655,-122.3035,60.0,4.383333333333334
2026-01-20T23:04:24+00:00,SAT-55658,214.88206132697124,50.41679866216818,1165.3105652605207,0.7838889408701116,-27455.106556203533,10.5,10499972544.893444,47.655,-122.3035,60.0,4.4
2026-01-20T23:04:25+00:00,SAT-55658,215.30777187048685,50.65418436278617,1166.0923638308816,0.8253329739809578,-28906.651903831607,10.5,10499971093.348097,47.655,-122.3035,60.0,4.416666666666667
2026-01-20T23:04:26+00:00,SAT-55658,215.73757078161114,50.88944202715571,1166.915495916932,0.8666877098955086,-30355.06968591865,10.5,10499969644.930315,47.655,-122.3035,60.0,4.433333333333334
2026-01-20T23:04:27+00:00,SAT-55658,216.17146079204693,51.12253029638214,1167.7798724596012,0.9079489782225686,-31800.213837724266,10.5,10499968199.786161,47.655,-122.3035,60.0,4.45
2026-01-20T23:04:28+00:00,SAT-55658,216.60944267961312,51.35340811807693,1168.6854002405487,0.9491126606698224,-33241.9401192312,10.5,10499966758.059881,47.655,-122.3035,60.0,4.466666666666667
2026-01-20T23:04:29+00:00,SAT-55658,217.05151519800725,51.58203477428964,1169.6319819341231,0.9901746915866109,-34680.1061341557,10.5,10499965319.893866,47.655,-122.3035,60.0,4.483333333333333
2026-01-20T23:04:30+00:00,SAT-55658,217.49767500482332,51.80836990874622,1170.6195161598655,1.031131049615408,-36114.57103754686,10.5,10499963885.428963,47.655,-122.3035,60.0,4.5
2026-01-20T23:04:31+00:00,SAT-55658,217.94791658409363,52.032373551500015,1171.647897526682,1.0719777755041586,-37545.196159650106,10.5,10499962454.80384,47.655,-122.3035,60.0,4.516666666666667
2026-01-20T23:04:32+00:00,SAT-55658,218.40223217826494,52.254006148728784,1172.717016694785,1.1127109589693078,-38971.84454579485,10.5,10499961028.155455,47.655,-122.3035,60.0,4.533333333333333
2026-01-20T23:04:33+00:00,SAT-55658,218.86061171327893,52.47322858900776,1173.8267604245304,1.1533267513639394,-40394.381400086335,10.5,10499959605.6186,47.655,-122.3035,60.0,4.55
2026-01-20T23:04:34+00:00,SAT-55658,219.3230427293812,52.69000223236717,1174.9770116378904,1.193821357343735,-41812.67379351224,10.5,10499958187.326206,47.655,-122.3035,60.0,4.566666666666666
2026-01-20T23:04:35+00:00,SAT-55658,219.78951030878858,52.90428893763649,1176.1676494716148,1.2341910501303384,-43226.59119853027,10.5,10499956773.408802,47.655,-122.3035,60.0,4.583333333333333
2026-01-20T23:04:36+00:00,SAT-55658,220.25999701094412,53.116051093090945,1177.3985493456114,1.2744321572369857,-44636.00498911934,10.5,10499955363.99501,47.655,-122.3035,60.0,4.6
2026-01-20T23:04:37+00:00,SAT-55658,220.73448280185002,53.325251643765874,1178.6695830170956,1.3145410688879304,-46040.78873566349,10.5,10499953959.211264,47.655,-122.3035,60.0,4.616666666666666
2026-01-20T23:04:38+00:00,SAT-55658,221.21294498870517,53.53185412074604,1179.9806186431333,1.354514247210103,-47440.81852688263,10.5,10499952559.181473,47.655,-122.3035,60.0,4.633333333333334
2026-01-20T23:04:39+00:00,SAT-55658,221.69535816042918,53.735822672356605,1181.3315208523509,1.3943482126448423,-48835.97249391392,10.5,10499951164.027506,47.655,-122.3035,60.0,4.65
2026-01-20T23:04:40+00:00,SAT-55658,222.18169412314015,53.93712209210624,1182.7221508030952,1.4340395506225971,-50226.13104408807,10.5,10499949773.868956,47.655,-122.3035,60.0,4.666666666666667
2026-01-20T23:04:41+00:00,SAT-55658,222.67192184202057,54.135717848616295,1184.1523662482496,1.473584924481366,-51611.17731338773,10.5,10499948388.822687,47.655,-122.3035,60.0,4.683333333333334
2026-01-20T23:04:42+00:00,SAT-55658,223.16600738984204,54.33157611707998,1185.6220216129323,1.512981054489672,-52990.99643174331,10.5,10499947009.003569,47.655,-122.3035,60.0,4.7
2026-01-20T23:04:43+00:00,SAT-55658,223.6639138904579,54.52466380733871,1187.1309680512766,1.5522247417542372,-54365.47636038092,10.5,10499945634.52364,47.655,-122.3035,60.0,4.716666666666667
2026-01-20T23:04:44+00:00,SAT-55658,224.16560147461658,54.71494859561209,1188.679053527053,1.5913128447117677,-55734.50706846522,10.5,10499944265.492931,47.655,-122.3035,60.0,4.733333333333333
2026-01-20T23:04:45+00:00,SAT-55658,224.67102723078207,54.90239895266422,1190.2661228708455,1.6302423044461773,-57097.981419815645,10.5,10499942902.01858,47.655,-122.3035,60.0,4.75
2026-01-20T23:04:46+00:00,SAT-55658,225.18014516854387,55.08698417517489,1191.8920178624796,1.6690101334452412,-58455.79477911693,10.5,10499941544.205221,47.655,-122.3035,60.0,4.766666666666667
2026-01-20T23:04:47+00:00,SAT-55658,225.69290618281988,55.26867441556617,1193.5565773022358,1.7076134081452645,-59807.84475080183,10.5,10499940192.155249,47.655,-122.3035,60.0,4.783333333333333
2026-01-20T23:04:48+00:00,SAT-55658,226.20925801912506,55.44744071022543,1195.259637074626,1.7460492842607716,-61154.03171596165,10.5,10499938845.968285,47.655,-122.3035,60.0,4.8
2026-01-20T23:04:49+00:00,SAT-55658,226.72914525016625,55.62325500993815,1197.001030227462,1.7843149927225572,-62494.258690079696,10.5,10499937505.74131,47.655,-122.3035,60.0,4.816666666666666
2026-01-20T23:04:50+00:00,SAT-55658,227.2525092550139,55.7960902088424,1198.7805870468708,1.8224078395331011,-63828.43131796719,10.5,10499936171.568682,47.655,-122.3035,60.0,4.833333333333333
2026-01-20T23:04:51+00:00,SAT-55658,227.77928820451012,55.96592017330487,1200.5981351321652,1.860325197445228,-65156.45758231481,10.5,10499934843.542418,47.655,-122.3035,60.0,4.85
2026-01-20T23:04:52+00:00,SAT-55658,228.3094170492811,56.132719769233155,1202.453499462417,1.8980645254599613,-66478.24848658999,10.5,10499933521.751513,47.655,-122.3035,60.0,4.866666666666666
2026-01-20T23:04:53+00:00,SAT-55658,228.84282752027644,56.29646489101855,1204.346502482476,1.9356233489149801,-67793.71735765044,10.5,10499932206.282642,47.655,-122.3035,60.0,4.883333333333334
2026-01-20T23:04:54+00:00,SAT-55658,229.379448129394,56.457132487845,1206.2769641691273,1.9729992704039758,-69102.78022818621,10.5,10499930897.219772,47.655,-122.3035,60.0,4.9
2026-01-20T23:04:55+00:00,SAT-55658,229.91920417980853,56.61470059033743,1208.2447021081434,2.010189967636537,-70405.35576176383,10.5,10499929594.644238,47.655,-122.3035,60.0,4.916666666666667
2026-01-20T23:04:56+00:00,SAT-55658,230.4620177827598,56.769148336407234,1210.2495315691995,2.047193203657435,-71701.36561074884,10.5,10499928298.63439,47.655,-122.3035,60.0,4.933333333333334
2026-01-20T23:04:57+00:00,SAT-55658,231.00780788410827,56.92045599706674,1212.2912655909804,2.0840068045693143,-72990.73363606032,10.5,10499927009.266363,47.655,-122.3035,60.0,4.95
2026-01-20T23:04:58+00:00,SAT-55658,231.5564902916348,57.068604999484634,1214.369715044071,2.120628675252952,-74273.38645776072,10.5,10499925726.613543,47.655,-122.3035,60.0,4.966666666666667
2026-01-20T23:04:59+00:00,SAT-55658,232.10797771420494,57.21357795046395,1216.4846887095232,2.1570567973107435,-75549.2533830281,10.5,10499924450.746616,47.655,-122.3035,60.0,4.983333333333333
2026-01-20T23:05:00+00:00,SAT-55658,232.66217980799752,57.35535865878666,1218.6359933553745,2.193289231271869,-76818.26648339038,10.5,10499923181.733517,47.655,-122.3035,60.0,5.0
2026-01-20T23:05:01+00:00,SAT-55658,233.2190032307072,57.493932156536964,1220.823433815363,2.229324105925263,-78080.36022112089,10.5,10499921919.639778,47.655,-122.3035,60.0,5.016666666666667
2026-01-20T23:05:02+00:00,SAT-55658,233.77835170048988,57.62928471852045,1223.0468130570057,2.265159637233787,-79335.47211169256,10.5,10499920664.52789,47.655,-122.3035,60.0,5.033333333333333
2026-01-20T23:05:03+00:00,SAT-55658,234.3401260677369,57.761403881772154,1225.3059322685401,2.3007940886709703,-80583.54133460285,10.5,10499919416.458666,47.655,-122.3035,60.0,5.05
2026-01-20T23:05:04+00:00,SAT-55658,234.90422438391704,57.89027846115535,1227.600590906308,2.3362258338344506,-81824.51092636137,10.5,10499918175.489073,47.655,-122.3035,60.0,5.066666666666666
2026-01-20T23:05:05+00:00,SAT-55658,235.47054199475014,58.01589856766321,1229.9305868045856,2.371453292607983,-83058.32554461334,10.5,10499916941.674456,47.655,-122.3035,60.0,5.083333333333333
2026-01-20T23:05:06+00:00,SAT-55658,236.0389716240805,58.138255621200834,1232.2957162217467,2.406474971159856,-84284.93286905333,10.5,10499915715.067131,47.655,-122.3035,60.0,5.1
2026-01-20T23:05:07+00:00,SAT-55658,236.60940347560438,58.257342364348354,1234.6957739263169,2.4412894422074514,-85504.28291020663,10.5,10499914495.71709,47.655,-122.3035,60.0,5.116666666666666
2026-01-20T23:05:08+00:00,SAT-55658,237.1817253370883,58.37315287346322,1237.130553263345,2.4758953449499033,-86716.32800707076,10.5,10499913283.671993,47.655,-122.3035,60.0,5.133333333333334
2026-01-20T23:05:09+00:00,SAT-55658,237.7558226914251,58.48568256811116,1239.5998462207085,2.51029141299147,-87921.02380510997,10.5,10499912078.976194,47.655,-122.3035,60.0,5.15
2026-01-20T23:05:10+00:00,SAT-55658,238.33157884204832,58.594928220386905,1242.1034435232652,2.5444764277847947,-89118.32762564142,10.5,10499910881.672375,47.655,-122.3035,60.0,5.166666666666667
2026-01-20T23:05:11+00:00,SAT-55658,238.90887503291725,58.700887959946094,1244.641134680576,2.5784492440167344,-90308.19935495411,10.5,10499909691.800646,47.655,-122.3035,60.0,5.183333333333334
2026-01-20T23:05:12+00:00,SAT-55658,239.4875905817234,58.803561278781714,1247.2127080599419,2.6122087941482866,-91490.60160331655,10.5,10499908509.398397,47.655,-122.3035,60.0,5.2
2026-01-20T23:05:13+00:00,SAT-55658,240.06760301992267,58.90294903425597,1249.8179509639724,2.645754085236948,-92665.49959368208,10.5,10499907334.500406,47.655,-122.3035,60.0,5.216666666666667
2026-01-20T23:05:14+00:00,SAT-55658,240.64878823799927,58.99905345018155,1252.456649704982,2.679084154773938,-93832.85961492184,10.5,10499906167.140385,47.655,-122.3035,60.0,5.233333333333333
2026-01-20T23:05:15+00:00,SAT-55658,241.23102062511066,59.09187811409217,1255.1285896353434,2.7121981592099886,-94992.65212237221,10.5,10499905007.347878,47.655,-122.3035,60.0,5.25
2026-01-20T23:05:16+00:00,SAT-55658,241.8141732352584,59.18142797646969,1257.8335552661288,2.7450952920679192,-96144.84886979095,10.5,10499903855.15113,47.655,-122.3035,60.0,5.266666666666667
2026-01-20T23:05:17+00:00,SAT-55658,242.3981179380342,59.267709344506514,1260.5713303040845,2.777774809239789,-97289.4237953704,10.5,10499902710.576204,47.655,-122.3035,60.0,5.283333333333333
2026-01-20T23:05:18+00:00,SAT-55658,242.98272557975105,59.350729875164724,1263.3416977138331,2.8102360329502467,-98426.35316055079,10.5,10499901573.64684,47.655,-122.3035,60.0,5.3
2026-01-20T23:05:19+00:00,SAT-55658,243.56786614880497,59.430498566407174,1266.1444397840287,2.8424783639123867,-99555.61597576967,10.5,10499900444.384024,47.655,-122.3035,60.0,5.316666666666666
2026-01-20T23:05:20+00:00,SAT-55658,244.15340894701475,59.507025746947534,1268.9793382056373,2.8745012526514464,-100677.19299609661,10.5,10499899322.807003,47.655,-122.3035,60.0,5.333333333333333
2026-01-20T23:05:21+00:00,SAT-55658,244.7392227564041,59.58032306297304,1271.846174121615,2.9063042076022736,-101791.06700484063,10.5,10499898208.932995,47.655,-122.3035,60.0,5.35
2026-01-20T23:05:22+00:00,SAT-55658,245.32517601049904,59.65040346349975,1274.7447281846637,2.9378868050727203,-102897.22316251052,10.5,10499897102.776838,47.655,-122.3035,60.0,5.366666666666666
2026-01-20T23:05:23+00:00,SAT-55658,245.91113696850186,59.717281183969845,1277.6747806249227,2.9692486753133376,-103995.64851891653,10.5,10499896004.35148,47.655,-122.3035,60.0,5.383333333333334
2026-01-20T23:05:24+00:00,SAT-55658,246.49697388776497,59.78097172774935,1280.6361113037688,3.000389516727204,-105086.3325108587,10.5,10499894913.66749,47.655,-122.3035,60.0,5.4
2026-01-20T23:05:25+00:00,SAT-55658,247.08255519910728,59.84149184609772,1283.6284997817845,3.0313090654026538,-106169.26589503417,10.5,10499893830.734104,47.655,-122.3035,60.0,5.416666666666667
2026-01-20T23:05:26+00:00,SAT-55658,247.66774967561048,59.898859515699606,1286.6517253563463,3.06200714010064,-107244.44232368487,10.5,10499892755.557676,47.655,-122.3035,60.0,5.433333333333334
2026-01-20T23:05:27+00:00,SAT-55658,248.2524266098676,59.95309391555189,1289.7055671440733,3.092483592735579,-108311.85661022726,10.5,10499891688.14339,47.655,-122.3035,60.0,5.45
2026-01-20T23:05:28+00:00,SAT-55658,248.83645597939926,60.004215401047674,1292.789804113895,3.1227383363985863,-109371.50571074459,10.5,10499890628.49429,47.655,-122.3035,60.0,5.466666666666667
2026-01-20T23:05:29+00:00,SAT-55658,249.41970861590153,60.05224547714385,1295.904215148063,3.152771328960785,-110423.38814970537,10.5,10499889576.61185,47.655,-122.3035,60.0,5.483333333333333
2026-01-20T23:05:30+00:00,SAT-55658,250.00205636874003,60.097206769716415,1299.0485790868133,3.1825826005209823,-111467.50498129716,10.5,10499888532.495018,47.655,-122.3035,60.0,5.5
2026-01-20T23:05:31+00:00,SAT-55658,250.58337227061006,60.13912299591325,1302.2226748003995,3.2121722164011732,-112503.85849337249,10.5,10499887496.141506,47.655,-122.3035,60.0,5.516666666666667
2026-01-20T23:05:32+00:00,SAT-55658,251.16353069242706,60.1780189325198,1305.4262812242237,3.2415402885359996,-113532.45260635606,10.5,10499886467.547394,47.655,-122.3035,60.0,5.533333333333333
2026-01-20T23:05:33+00:00,SAT-55658,251.74240749641083,60.213920383286535,1308.6591774053236,3.2706869848926017,-114553.29320316763,10.5,10499885446.706797,47.655,-122.3035,60.0,5.55
2026-01-20T23:05:34+00:00,SAT-55658,252.31988018648434,60.246854145196046,1311.9211425582564,3.2996125207970906,-115566.38782543839,10.5,10499884433.612175,47.655,-122.3035,60.0,5.566666666666666
2026-01-20T23:05:35+00:00,SAT-55658,252.89582805195917,60.27684797347972,1315.2119561123316,3.328317143611207,-116571.74513682286,10.5,10499883428.254864,47.655,-122.3035,60.0,5.583333333333333
2026-01-20T23:05:36+00:00,SAT-55658,253.4701323033388,60.30393054553518,1318.5313977435596,3.356801173003153,-117569.37633345369,10.5,10499882430.623667,47.655,-122.3035,60.0,5.6
2026-01-20T23:05:37+00:00,SAT-55658,254.04267620947715,60.328131424289154,1321.8792474467682,3.385064942230673,-118559.2930874267,10.5,10499881440.706913,47.655,-122.3035,60.0,5.616666666666666
2026-01-20T23:05:38+00:00,SAT-55658,254.6133452182335,60.349481020206746,1325.2552855491529,3.4131088461650245,-119541.50922880374,10.5,10499880458.49077,47.655,-122.3035,60.0,5.633333333333334
2026-01-20T23:05:39+00:00,SAT-55658,255.18202707945696,60.36801055306312,1328.659292771728,3.4409333268598297,-120516.04024017246,10.5,10499879483.95976,47.655,-122.3035,60.0,5.65
2026-01-20T23:05:40+00:00,SAT-55658,255.74861195873643,60.38375201292703,1332.0910502763832,3.4685388333785827,-121482.90184963598,10.5,10499878517.09815,47.655,-122.3035,60.0,5.666666666666667
2026-01-20T23:05:41+00:00,SAT-55658,256.3129925371005,60.39673812036884,1335.5503396728725,3.495925889725596,-122442.11241004188,10.5,10499877557.88759,47.655,-122.3035,60.0,5.683333333333334
2026-01-20T23:05:42+00:00,SAT-55658,256.87506411611605,60.407002286801884,1339.0369430935589,3.523095038886937,-123393.69093905903,10.5,10499876606.309061,47.655,-122.3035,60.0,5.7
2026-01-20T23:05:43+00:00,SAT-55658,257.434724705444,60.41457857404985,1342.5506432123423,3.550046877504226,-124337.65833360082,10.5,10499875662.341667,47.655,-122.3035,60.0,5.716666666666667
2026-01-20T23:05:44+00:00,SAT-55658,257.9918751096252,60.41950165398803,1346.091223298173,3.576782009691443,-125274.03575229416,10.5,10499874725.964249,47.655,-122.3035,60.0,5.733333333333333
2026-01-20T23:05:45+00:00,SAT-55658,258.54641899921427,60.42180676782424,1349.6584672225054,3.6033011026524577,-126202.84656344091,10.5,10499873797.153437,47.655,-122.3035,60.0,5.75
2026-01-20T23:05:46+00:00,SAT-55658,259.0982629843719,60.42152968565086,1353.2521595222172,3.629604837330864,-127124.11461656608,10.5,10499872875.885384,47.655,-122.3035,60.0,5.766666666666667
2026-01-20T23:05:47+00:00,SAT-55658,259.64731667229034,60.41870666584662,1356.8720854133153,3.65569395677725,-128037.86593644436,10.5,10499871962.134064,47.655,-122.3035,60.0,5.783333333333333
2026-01-20T23:05:48+00:00,SAT-55658,260.1934927254313,60.41337441477523,1360.5180308528745,3.68156918788209,-128944.1259818549,10.5,10499871055.874018,47.655,-122.3035,60.0,5.8
2026-01-20T23:05:49+00:00,SAT-55658,260.73670689972545,60.40557004669264,1364.189782522922,3.7072313266453567,-129842.92263208384,10.5,10499870157.077368,47.655,-122.3035,60.0,5.816666666666666
2026-01-20T23:05:50+00:00,SAT-55658,261.276878089232,60.395331044041406,1367.8871278993631,3.732681192987913,-130734.28460422806,10.5,10499869265.715395,47.655,-122.3035,60.0,5.833333333333333
2026-01-20T23:05:51+00:00,SAT-55658,261.8139283561723,60.38269521811051,1371.6098552758365,3.7579196227584832,-131618.2411732455,10.5,10499868381.758827,47.655,-122.3035,60.0,5.85
2026-01-20T23:05:52+00:00,SAT-55658,262.34778295306273,60.367700670277536,1375.357753779601,3.782947479359942,-132494.82257915704,10.5,10499867505.177422,47.655,-122.3035,60.0,5.866666666666666
2026-01-20T23:05:53+00:00,SAT-55658,262.8783703394837,60.35038575378124,1379.130613399016,3.807765664633352,-133364.06040825148,10.5,10499866635.939592,47.655,-122.3035,60.0,5.883333333333334
2026-01-20T23:05:54+00:00,SAT-55658,263.4056221940923,60.33078903613517,1382.9282250218769,3.8323751125288443,-134225.987371413,10.5,10499865774.012629,47.655,-122.3035,60.0,5.9
2026-01-20T23:05:55+00:00,SAT-55658,263.9294734188607,60.30894926219595,1386.750380467439,3.8567767372067276,-135080.63548640252,10.5,10499864919.364513,47.655,-122.3035,60.0,5.916666666666667
2026-01-20T23:05:56+00:00,SAT-55658,264.4498621297389,60.284905318286185,1390.59687246668,3.8809715361750974,-135928.039690173,10.5,10499864071.96031,47.655,-122.3035,60.0,5.933333333333334
2026-01-20T23:05:57+00:00,SAT-55658,264.96672965616756,60.25869619664006,1394.4674947454253,3.904960497972226,-136768.23460551625,10.5,10499863231.765394,47.655,-122.3035,60.0,5.95
2026-01-20T23:05:58+00:00,SAT-55658,265.48002052152935,60.23036096114942,1398.3620420154027,3.9287446200584366,-137601.25516771202,10.5,10499862398.744833,47.655,-122.3035,60.0,5.966666666666667
2026-01-20T23:05:59+00:00,SAT-55658,265.9896824205502,60.199938713958375,1402.280309983141,3.9523249457215,-138427.13791711113,10.5,10499861572.862083,47.655,-122.3035,60.0,5.983333333333333
2026-01-20T23:06:00+00:00,SAT-55658,266.4956661970799,60.16746856282518,1406.222095395674,3.9757025320476074,-139245.91987734352,10.5,10499860754.080122,47.655,-122.3035,60.0,6.0
2026-01-20T23:06:01+00:00,SAT-55658,266.9979258119683,60.13298958960336,1410.1871960543028,3.9988784582876846,-140057.63884834183,10.5,10499859942.36115,47.655,-122.3035,60.0,6.016666666666667
2026-01-20T23:06:02+00:00,SAT-55658,267.4964183077274,60.096540819722755,1414.1754108367018,4.021853788791145,-140862.3321081247,10.5,10499859137.667892,47.655,-122.3035,60.0,6.033333333333333
2026-01-20T23:06:03+00:00,SAT-55658,267.9911037638036,60.058161193020176,1418.186539682056,4.044629657562737,-141660.03937433523,10.5,10499858339.960627,47.655,-122.3035,60.0,6.05
2026-01-20T23:06:04+00:00,SAT-55658,268.48194525921576,60.01788953495344,1422.220383660532,4.067207169008992,-142450.79932796178,10.5,10499857549.200672,47.655,-122.3035,60.0,6.066666666666666
2026-01-20T23:06:05+00:00,SAT-55658,268.96890881798,59.97576452970341,1426.2767449437567,4.089587482670157,-143234.65258100873,10.5,10499856765.34742,47.655,-122.3035,60.0,6.083333333333333
2026-01-20T23:06:06+00:00,SAT-55658,269.45196336257436,59.931824693669355,1430.3554268598068,4.111771739719166,-144011.63910217932,10.5,10499855988.360897,47.655,-122.3035,60.0,6.1
2026-01-20T23:06:07+00:00,SAT-55658,269.9310806543415,59.88610835071594,1434.4562338748865,4.133761111633838,-144781.79992158207,10.5,10499855218.200079,47.655,-122.3035,60.0,6.116666666666666
2026-01-20T23:06:08+00:00,SAT-55658,270.40623523769483,59.838653608116324,1438.578971623556,4.15555678347188,-145545.17654495078,10.5,10499854454.823456,47.655,-122.3035,60.0,6.133333333333334
2026-01-20T23:06:09+00:00,SAT-55658,270.87740437918103,59.78949833372926,1442.723446922272,4.177159938732038,-146301.8104234177,10.5,10499853698.189577,47.655,-122.3035,60.0,6.15
2026-01-20T23:06:10+00:00,SAT-55658,271.34456800277815,59.738680134498644,1446.8894677678343,4.198571793240407,-147051.7441403555,10.5,10499852948.25586,47.655,-122.3035,60.0,6.166666666666667
2026-01-20T23:06:11+00:00,SAT-55658,271.8077086270831,59.68623633566997,1451.0768433696257,4.219793560074628,-147795.02018287464,10.5,10499852204.979816,47.655,-122.3035,60.0,6.183333333333334
2026-01-20T23:06:12+00:00,SAT-55658,272.2668112965685,59.63220396150817,1455.2853841468736,4.2408264624836,-148531.68139432583,10.5,10499851468.318605,47.655,-122.3035,60.0,6.2
2026-01-20T23:06:13+00:00,SAT-55658,272.72186351290657,59.57661971697001,1459.5149017387905,4.2616717543499325,-149261.77169098193,10.5,10499850738.22831,47.655,-122.3035,60.0,6.216666666666667
2026-01-20T23:06:14+00:00,SAT-55658,273.1728551674261,59.51951997019815,1463.765209035129,4.282330645612246,-149985.33345001156,10.5,10499850014.66655,47.655,-122.3035,60.0,6.233333333333333
2026-01-20T23:06:15+00:00,SAT-55658,273.61977846403204,59.46094073703175,1468.0361201323528,4.302804428583204,-150702.4119336706,10.5,10499849297.588066,47.655,-122.3035,60.0,6.25
2026-01-20T23:06:16+00:00,SAT-55658,274.06262785567577,59.400917664940366,1472.327450415793,4.3230943394545385,-151413.05043862262,10.5,10499848586.949562,47.655,-122.3035,60.0,6.266666666666667
2026-01-20T23:06:17+00:00,SAT-55658,274.50139996470136,59.3394860197888,1476.6390165036757,4.343201649727311,-152117.29349821323,10.5,10499847882.706501,47.655,-122.3035,60.0,6.283333333333333
2026-01-20T23:06:18+00:00,SAT-55658,274.9360935130765,59.27668067241453,1480.9706362823372,4.363127640965335,-152815.1859982282,10.5,10499847184.814001,47.655,-122.3035,60.0,6.3
2026-01-20T23:06:19+00:00,SAT-55658,275.3667092495801,59.212536086513154,1485.32212891626,4.382873593322623,-153506.7727750761,10.5,10499846493.227224,47.655,-122.3035,60.0,6.316666666666666
2026-01-20T23:06:20+00:00,SAT-55658,275.7932498759193,59.147086307650284,1489.693314846667,4.402440777676398,-154192.09834025305,10.5,10499845807.901659,47.655,-122.3035,60.0,6.333333333333333
2026-01-20T23:06:21+00:00,SAT-55658,276.21571997211765,59.08036495332897,1494.0840157822697,4.421830509467134,-154871.20876604877,10.5,10499845128.791233,47.655,-122.3035,60.0,6.35
2026-01-20T23:06:22+00:00,SAT-55658,276.63412592804764,59.012405203183235,1498.4940547437116,4.441044057271594,-155544.1484833876,10.5,10499844455.851517,47.655,-122.3035,60.0,6.366666666666666
2026-01-20T23:06:23+00:00,SAT-55658,277.04847586587334,58.943239791391946,1502.9232560168305,4.460082737047368,-156210.9635826708,10.5,10499843789.036417,47.655,-122.3035,60.0,6.383333333333334
2026-01-20T23:06:24+00:00,SAT-55658,277.45877957299854,58.87290099855592,1507.3714451999124,4.478947834853725,-156871.69910713402,10.5,10499843128.300894,47.655,-122.3035,60.0,6.4
2026-01-20T23:06:25+00:00,SAT-55658,277.8650484277408,58.801420645549534,1511.838449173873,4.497640668764227,-157526.40122128883,10.5,10499842473.598778,47.655,-122.3035,60.0,6.416666666666667
2026-01-20T23:06:26+00:00,SAT-55658,278.26729533239086,58.728830087235494,1516.3240961341871,4.516162529323183,-158175.11512545595,10.5,10499841824.884874,47.655,-122.3035,60.0,6.433333333333334
2026-01-20T23:06:27+00:00,SAT-55658,278.6655346411525,58.6551602078566,1520.8282155634324,4.534514734673017,-158817.88698655882,10.5,10499841182.113014,47.655,-122.3035,60.0,6.45
2026-01-20T23:06:28+00:00,SAT-55658,279.05978209483607,58.58044141630973,1525.350638258813,4.55269859311829,-159454.76262695724,10.5,10499840545.237373,47.655,-122.3035,60.0,6.466666666666667
2026-01-20T23:06:29+00:00,SAT-55658,279.45005475283403,58.504703642702886,1529.8911963223495,4.570715405915821,-160085.78762216936,10.5,10499839914.212378,47.655,-122.3035,60.0,6.483333333333333
2026-01-20T23:06:30+00:00,SAT-55658,279.8363709270576,58.42797633556617,1534.4497231538496,4.588566486054433,-160711.00795861764,10.5,10499839288.99204,47.655,-122.3035,60.0,6.5
2026-01-20T23:06:31+00:00,SAT-55658,280.2187501186153,58.350288459387755,1539.0260534626077,4.606253138742863,-161330.46935023318,10.5,10499838669.53065,47.655,-122.3035,60.0,6.516666666666667
2026-01-20T23:06:32+00:00,SAT-55658,280.59721295437157,58.271668493094836,1543.6200232596475,4.623776684042574,-161944.21803115215,10.5,10499838055.78197,47.655,-122.3035,60.0,6.533333333333333
2026-01-20T23:06:33+00:00,SAT-55658,280.97178112681456,58.19214442873726,1548.2314698725324,4.6411384141981245,-162552.29926124527,10.5,10499837447.700739,47.655,-122.3035,60.0,6.55
2026-01-20T23:06:34+00:00,SAT-55658,281.3424773318672,58.111743771456126,1552.860231917626,4.658339647143316,-163154.75920012908,10.5,10499836845.240799,47.655,-122.3035,60.0,6.566666666666666
2026-01-20T23:06:35+00:00,SAT-55658,281.7093252127187,58.030493539069354,1557.5061493257103,4.67538168373144,-163751.6434091885,10.5,10499836248.35659,47.655,-122.3035,60.0,6.583333333333333
2026-01-20T23:06:36+00:00,SAT-55658,282.07234930174945,57.94842026289258,1562.1690633249518,4.69226583455913,-164342.9977910614,10.5,10499835657.002209,47.655,-122.3035,60.0,6.6
2026-01-20T23:06:37+00:00,SAT-55658,282.4315749661039,57.86554998856601,1566.8488164506189,4.708993376565653,-164928.86706956237,10.5,10499835071.13293,47.655,-122.3035,60.0,6.616666666666666
2026-01-20T23:06:38+00:00,SAT-55658,282.7870283515648,57.78190827809828,1571.5452525115136,4.725565630956982,-165509.29751891328,10.5,10499834490.70248,47.655,-122.3035,60.0,6.633333333333334
2026-01-20T23:06:39+00:00,SAT-55658,283.13873633424816,57.69752021095556,1576.2582166341215,4.741983888719833,-166084.3343549298,10.5,10499833915.665646,47.655,-122.3035,60.0,6.65
2026-01-20T23:06:40+00:00,SAT-55658,283.48672646796024,57.612410386858144,1580.9875552324713,4.758249433517475,-166654.0225369295,10.5,10499833345.977463,47.655,-122.3035,60.0,6.666666666666667
2026-01-20T23:06:41+00:00,SAT-55658,283.8310269350394,57.52660292854912,1585.7331160008328,4.774363553315767,-167218.40717492483,10.5,10499832781.592825,47.655,-122.3035,60.0,6.683333333333334
2026-01-20T23:06:42+00:00,SAT-55658,284.1716664997939,57.44012148470279,1590.4947479180062,4.790327544244863,-167777.53366487645,10.5,10499832222.466335,47.655,-122.3035,60.0,6.7
2026-01-20T23:06:43+00:00,SAT-55658,284.5086744638448,57.35298923308202,1595.2723012554666,4.806142678497006,-168331.44656433802,10.5,10499831668.553436,47.655,-122.3035,60.0,6.716666666666667
2026-01-20T23:06:44+00:00,SAT-55658,284.84208062058804,57.2652288845781,1600.0656275534877,4.821810219737523,-168880.19013221475,10.5,10499831119.809868,47.655,-122.3035,60.0,6.733333333333333
2026-01-20T23:06:45+00:00,SAT-55658,285.1719152125066,57.1768626872568,1604.874579612639,4.837331455129034,-169423.80945038603,10.5,10499830576.19055,47.655,-122.3035,60.0,6.75
2026-01-20T23:06:46+00:00,SAT-55658,285.49820889252044,57.0879124300747,1609.6990115172212,4.852707663264044,-169962.34930057003,10.5,10499830037.6507,47.655,-122.3035,60.0,6.766666666666667
2026-01-20T23:06:47+00:00,SAT-55658,285.8209926842503,56.99839944741525,1614.5387786267165,4.867940068962361,-170495.85258113727,10.5,10499829504.147419,47.655,-122.3035,60.0,6.783333333333333
2026-01-20T23:06:48+00:00,SAT-55658,286.1402979409737,56.90834462468277,1619.3937375221615,4.883029960661976,-171024.3644186364,10.5,10499828975.635582,47.655,-122.3035,60.0,6.8
2026-01-20T23:06:49+00:00,SAT-55658,286.45615631421356,56.81776840193373,1624.2637460695953,4.8979785767641095,-171547.92818711654,10.5,10499828452.071814,47.655,-122.3035,60.0,6.816666666666666
2026-01-20T23:06:50+00:00,SAT-55658,286.7685997158841,56.72669077978391,1629.1486633701545,4.912787145664909,-172066.58691020688,10.5,10499827933.41309,47.655,-122.3035,60.0,6.833333333333333
2026-01-20T23:06:51+00:00,SAT-55658,287.07766028474254,56.635131324748556,1634.0483497500977,4.927456947397938,-172580.38542009736,10.5,10499827419.61458,47.655,-122.3035,60.0,6.85
2026-01-20T23:06:52+00:00,SAT-55658,287.38337035843324,56.54310917357668,1638.9626668123026,4.941989169712691,-173089.36531679946,10.5,10499826910.634684,47.655,-122.3035,60.0,6.866666666666666
2026-01-20T23:06:53+00:00,SAT-55658,287.68576243720463,56.45064304040806,1643.8914773442293,4.956385072264899,-173593.5707187852,10.5,10499826406.429281,47.655,-122.3035,60.0,6.883333333333334
2026-01-20T23:06:54+00:00,SAT-55658,287.9848691600325,56.35775122097891,1648.834645389635,4.970645858936727,-174093.04379110044,10.5,10499825906.95621,47.655,-122.3035,60.0,6.9
2026-01-20T23:06:55+00:00,SAT-55658,288.2807232735822,56.264451599323095,1653.7920361929478,4.98477274763899,-174587.82719013366,10.5,10499825412.17281,47.655,-122.3035,60.0,6.916666666666667
2026-01-20T23:06:56+00:00,SAT-55658,288.57335760708077,56.17076165325587,1658.7635162132597,4.998766945514595,-175077.96319513564,10.5,10499824922.036804,47.655,-122.3035,60.0,6.933333333333334
2026-01-20T23:06:57+00:00,SAT-55658,288.8628050468087,56.07669846040235,1663.7489531135861,5.012629652874449,-175563.4938460717,10.5,10499824436.506153,47.655,-122.3035,60.0,6.95
2026-01-20T23:06:58+00:00,SAT-55658,289.14909851214287,55.98227870421735,1668.748215754053,5.026362063076757,-176044.46093939414,10.5,10499823955.53906,47.655,-122.3035,60.0,6.966666666666667
2026-01-20T23:06:59+00:00,SAT-55658,289.4322709326965,55.887518680064375,1673.7611741849616,5.03996536237253,-176520.90602263104,10.5,10499823479.093977,47.655,-122.3035,60.0,6.983333333333333
2026-01-20T23:07:00+00:00,SAT-55658,289.712355226707,55.792434301340855,1678.787699639701,5.053440721406615,-176992.8700967169,10.5,10499823007.129904,47.655,-122.3035,60.0,7.0
2026-01-20T23:07:01+00:00,SAT-55658,289.98938428000463,55.69704110579782,1683.827664519184,5.066789341564299,-177460.39523924625,10.5,10499822539.604761,47.655,-122.3035,60.0,7.016666666666667
2026-01-20T23:07:02+00:00,SAT-55658,290.2633909287447,55.601354261009774,1688.8809424225042,5.080012344845919,-177923.52074741703,10.5,10499822076.479252,47.655,-122.3035,60.0,7.033333333333333
2026-01-20T23:07:03+00:00,SAT-55658,290.5344079368218,55.50538857194291,1693.9474080677637,5.093110930558142,-178382.2886260217,10.5,10499821617.711374,47.655,-122.3035,60.0,7.05
2026-01-20T23:07:04+00:00,SAT-55658,290.8024679833692,55.40915848556355,1699.0269373691738,5.106086205360442,-178836.73763495623,10.5,10499821163.262365,47.655,-122.3035,60.0,7.066666666666666
2026-01-20T23:07:05+00:00,SAT-55658,291.06760364150244,55.3126780986676,1704.1194073446534,5.118939336329708,-179286.90865019005,10.5,10499820713.09135,47.655,-122.3035,60.0,7.083333333333333
2026-01-20T23:07:06+00:00,SAT-55658,291.32984736667265,55.21596116279826,1709.2246961760861,5.13167146590612,-179732.8416848107,10.5,10499820267.158316,47.655,-122.3035,60.0,7.1
2026-01-20T23:07:07+00:00,SAT-55658,291.58923148112194,55.119021090762146,1714.3426831847498,5.144283694271889,-180174.57527185298,10.5,10499819825.424728,47.655,-122.3035,60.0,7.116666666666666
2026-01-20T23:07:08+00:00,SAT-55658,291.84578815830105,55.02187096346181,1719.4732487891704,5.156777152284352,-180612.14901872448,10.5,10499819387.85098,47.655,-122.3035,60.0,7.133333333333334
2026-01-20T23:07:09+00:00,SAT-55658,292.0995494121415,54.92452353531113,1724.6162745357153,5.16915295867422,-181045.6021081068,10.5,10499818954.397892,47.655,-122.3035,60.0,7.15
2026-01-20T23:07:10+00:00,SAT-55658,292.3505470847137,54.826991240435525,1729.7716430864998,5.181412206844054,-181474.97283558268,10.5,10499818525.027164,47.655,-122.3035,60.0,7.166666666666667
2026-01-20T23:07:11+00:00,SAT-55658,292.5988128340773,54.729286199081415,1734.9392381941254,5.193555982000096,-181900.29920966527,10.5,10499818099.70079,47.655,-122.3035,60.0,7.183333333333334
2026-01-20T23:07:12+00:00,SAT-55658,292.8443781237422,54.63142022365945,1740.1189446935068,5.2055853785844715,-182321.6195623472,10.5,10499817678.380438,47.655,-122.3035,60.0,7.2
2026-01-20T23:07:13+00:00,SAT-55658,293.08727421377307,54.53340482440753,1745.3106485110818,5.217501487387745,-182738.97209772805,10.5,10499817261.027903,47.655,-122.3035,60.0,7.216666666666667
2026-01-20T23:07:14+00:00,SAT-55658,293.3275321518463,54.43525121524948,1750.51423666117,5.2293053471265,-183152.39319605648,10.5,10499816847.606804,47.655,-122.3035,60.0,7.233333333333333
2026-01-20T23:07:15+00:00,SAT-55658,293.56518276259567,54.33697032051743,1755.7295971940373,5.240998049627058,-183561.92109770857,10.5,10499816438.078903,47.655,-122.3035,60.0,7.25
2026-01-20T23:07:16+00:00,SAT-55658,293.8002566428147,54.23857277961878,1760.9566192488653,5.252580630222786,-183967.5920644383,10.5,10499816032.407936,47.655,-122.3035,60.0,7.266666666666667
2026-01-20T23:07:17+00:00,SAT-55658,294.03278415186713,54.14006895372003,1766.1951929974077,5.264054146665642,-184369.44314319355,10.5,10499815630.556856,47.655,-122.3035,60.0,7.283333333333333
2026-01-20T23:07:18+00:00,SAT-55658,294.2627954064563,54.041468930875595,1771.4452096663488,5.275419608673959,-184767.50969858142,10.5,10499815232.490301,47.655,-122.3035,60.0,7.3
2026-01-20T23:07:19+00:00,SAT-55658,294.49032027270187,53.942782532415485,1776.7065614893995,5.28667806170789,-185161.8283470388,10.5,10499814838.171654,47.655,-122.3035,60.0,7.316666666666666
2026-01-20T23:07:20+00:00,SAT-55658,294.71538836258185,53.844019317686545,1781.9791417429428,5.297830543118692,-185552.4354209947,10.5,10499814447.564579,47.655,-122.3035,60.0,7.333333333333333
2026-01-20T23:07:21+00:00,SAT-55658,294.9380290288386,53.74518858954999,1787.2628447379468,5.308878046249347,-185939.36571152214,10.5,10499814060.634289,47.655,-122.3035,60.0,7.35
2026-01-20T23:07:22+00:00,SAT-55658,295.15827135868517,53.64629940048542,1792.5575657760726,5.3198215515752185,-186322.65355901577,10.5,10499813677.346441,47.655,-122.3035,60.0,7.366666666666666
2026-01-20T23:07:23+00:00,SAT-55658,295.3761441695843,53.54736055802208,1797.8632011368438,5.330662093480829,-186702.33519199706,10.5,10499813297.664808,47.655,-122.3035,60.0,7.383333333333334
2026-01-20T23:07:24+00:00,SAT-55658,295.59167600816704,53.44838062885598,1803.1796481314084,5.341400644706694,-187078.4446799535,10.5,10499812921.55532,47.655,-122.3035,60.0,7.4
2026-01-20T23:07:25+00:00,SAT-55658,295.8048951446463,53.34936794504733,1808.5068050410625,5.352038164736412,-187451.01562805937,10.5,10499812548.984371,47.655,-122.3035,60.0,7.416666666666667
2026-01-20T23:07:26+00:00,SAT-55658,296.01582956962295,53.25033060924059,1813.8445711040265,5.362575631774879,-187820.08229718785,10.5,10499812179.917704,47.655,-122.3035,60.0,7.433333333333334
2026-01-20T23:07:27+00:00,SAT-55658,296.2245069928037,53.15127649919755,1819.1928465341166,5.373014024545625,-188185.67896637702,10.5,10499811814.321033,47.655,-122.3035,60.0,7.45
2026-01-20T23:07:28+00:00,SAT-55658,296.4309548410484,53.052213272606814,1824.5515325212634,5.383354282132564,-188547.83852631785,10.5,10499811452.161474,47.655,-122.3035,60.0,7.466666666666667
2026-01-20T23:07:29+00:00,SAT-55658,296.6352002552788,52.95314837254816,1829.920531191977,5.39359733940469,-188906.59372007698,10.5,10499811093.40628,47.655,-122.3035,60.0,7.483333333333333
2026-01-20T23:07:30+00:00,SAT-55658,296.83727008905294,52.85408903222603,1835.2997456051432,5.403744145768876,-189261.97779989915,10.5,10499810738.0222,47.655,-122.3035,60.0,7.5
2026-01-20T23:07:31+00:00,SAT-55658,297.0371909083096,52.75504227926746,1840.6890797665235,5.413795624032028,-189614.02308638563,10.5,10499810385.976913,47.655,-122.3035,60.0,7.516666666666667
2026-01-20T23:07:32+00:00,SAT-55658,297.23498898959656,52.65601494071096,1846.0884386022246,5.4237526934305516,-189962.76177508372,10.5,10499810037.238224,47.655,-122.3035,60.0,7.533333333333333
2026-01-20T23:07:33+00:00,SAT-55658,297.4306903196403,52.5570136474794,1851.4977279551395,5.433616269225054,-190308.22592229143,10.5,10499809691.774078,47.655,-122.3035,60.0,7.55
2026-01-20T23:07:34+00:00,SAT-55658,297.6243205949843,52.45804483878999,1856.91685458098,5.443387240376271,-190650.44666317408,10.5,10499809349.553337,47.655,-122.3035,60.0,7.566666666666666
2026-01-20T23:07:35+00:00,SAT-55658,297.81590522116926,52.35911476688626,1862.3457261220485,5.453066510290839,-190989.45563885334,10.5,10499809010.544361,47.655,-122.3035,60.0,7.583333333333333
2026-01-20T23:07:36+00:00,SAT-55658,298.0054693135828,52.26022950094584,1867.7842511216454,5.462654988101245,-191325.2846909947,10.5,10499808674.71531,47.655,-122.3035,60.0,7.6
2026-01-20T23:07:37+00:00,SAT-55658,298.19303769820334,52.16139493107229,1873.2323390297784,5.472153492013111,-191657.96247661996,10.5,10499808342.037523,47.655,-122.3035,60.0,7.616666666666666
2026-01-20T23:07:38+00:00,SAT-55658,298.3786349089818,52.062616773969395,1878.6899001124793,5.481562956327748,-191987.52171891314,10.5,10499808012.478281,47.655,-122.3035,60.0,7.633333333333334
2026-01-20T23:07:39+00:00,SAT-55658,298.562285193067,51.96390057475659,1884.1568455675902,5.490884210457277,-192313.9914673951,10.5,10499807686.008533,47.655,-122.3035,60.0,7.65
2026-01-20T23:07:40+00:00,SAT-55658,298.74401250799275,51.865251712746726,1889.633087420153,5.500118098828411,-192637.4012974613,10.5,10499807362.598703,47.655,-122.3035,60.0,7.666666666666667
2026-01-20T23:07:41+00:00,SAT-55658,298.92384052357244,51.76667540494664,1895.1185385373844,5.509265490048194,-192957.78163140462,10.5,10499807042.218369,47.655,-122.3035,60.0,7.683333333333334
2026-01-20T23:07:42+00:00,SAT-55658,299.10179262409304,51.66817670933095,1900.6131126527926,5.518327203347581,-193275.16116215836,10.5,10499806724.838839,47.655,-122.3035,60.0,7.7
2026-01-20T23:07:43+00:00,SAT-55658,299.27789190819504,51.569760529360764,1906.1167243169311,5.527304105398571,-193589.5702442421,10.5,10499806410.429756,47.655,-122.3035,60.0,7.716666666666667
2026-01-20T23:07:44+00:00,SAT-55658,299.45216119209164,51.4714316166931,1911.6292889447154,5.5361969622662315,-193901.03570849483,10.5,10499806098.96429,47.655,-122.3035,60.0,7.733333333333333
2026-01-20T23:07:45+00:00,SAT-55658,299.624623008014,51.373194576466084,1917.150722715082,5.545006634283792,-194209.58768742546,10.5,10499805790.412313,47.655,-122.3035,60.0,7.75
2026-01-20T23:07:46+00:00,SAT-55658,299.7952996092748,51.27505386901904,1922.680942665008,5.5537338855101215,-194515.2529416076,10.5,10499805484.747059,47.655,-122.3035,60.0,7.766666666666667
2026-01-20T23:07:47+00:00,SAT-55658,299.9642129690805,51.17701381495338,1928.21986659349,5.562379565455908,-194818.06122449896,10.5,10499805181.938776,47.655,-122.3035,60.0,7.783333333333333
2026-01-20T23:07:48+00:00,SAT-55658,300.1313847854283,51.07907859687785,1933.7674131467713,5.570944413310541,-195118.03842563875,10.5,10499804881.961575,47.655,-122.3035,60.0,7.8
2026-01-20T23:07:49+00:00,SAT-55658,300.29683647976606,50.98125226456396,1939.3235017083132,5.579429249156244,-195415.2132677753,10.5,10499804584.786732,47.655,-122.3035,60.0,7.816666666666666
2026-01-20T23:07:50+00:00,SAT-55658,300.46058920181963,50.88353873664366,1944.8880524794715,5.587834820084971,-195709.61191722905,10.5,10499804290.388083,47.655,-122.3035,60.0,7.833333333333333
2026-01-20T23:07:51+00:00,SAT-55658,300.6226638296914,50.785941804956224,1950.4609864067031,5.596161935930437,-196001.26273780238,10.5,10499803998.737263,47.655,-122.3035,60.0,7.85
2026-01-20T23:07:52+00:00,SAT-55658,300.7830809741991,50.6884651364388,1956.0422252441376,5.604411300141731,-196290.19036725792,10.5,10499803709.809633,47.655,-122.3035,60.0,7.866666666666666
2026-01-20T23:07:53+00:00,SAT-55658,300.9418609780929,50.59111227792601,1961.631691447479,5.612583698098051,-196576.42231289734,10.5,10499803423.577686,47.655,-122.3035,60.0,7.883333333333334
2026-01-20T23:07:54+00:00,SAT-55658,301.0990239211245,50.493886657568815,1967.2293082557153,5.620679874907515,-196859.9846715587,10.5,10499803140.01533,47.655,-122.3035,60.0,7.9
2026-01-20T23:07:55+00:00,SAT-55658,301.2545896214237,50.39679158834162,1972.8349996509567,5.6287005633656,-197140.90310883938,10.5,10499802859.096891,47.655,-122.3035,60.0,7.916666666666667
2026-01-20T23:07:56+00:00,SAT-55658,301.4085776377443,50.29983027099493,1978.4486903461532,5.636646498538509,-197419.20336986711,10.5,10499802580.79663,47.655,-122.3035,60.0,7.933333333333334
2026-01-20T23:07:57+00:00,SAT-55658,301.56100727224367,50.20300579668702,1984.0703057873623,5.644518389102879,-197694.91027549544,10.5,10499802305.089724,47.655,-122.3035,60.0,7.95
2026-01-20T23:07:58+00:00,SAT-55658,301.71189757242524,50.106321150056175,1989.6997721274274,5.6523169792992976,-197968.04989217783,10.5,10499802031.950108,47.655,-122.3035,60.0,7.966666666666667
2026-01-20T23:07:59+00:00,SAT-55658,301.86126733492557,50.00977921115944,1995.3370162614485,5.660042929947632,-198238.64536462133,10.5,10499801761.354635,47.655,-122.3035,60.0,7.983333333333333
2026-01-20T23:08:00+00:00,SAT-55658,302.00913510589805,49.913382759407284,2000.9819657435833,5.667696990139174,-198506.72292917164,10.5,10499801493.277071,47.655,-122.3035,60.0,8.0
2026-01-20T23:08:01+00:00,SAT-55658,302.1555191863664,49.817134474477854,2006.634548875082,5.675279825452505,-198772.30589720607,10.5,10499801227.694103,47.655,-122.3035,60.0,8.016666666666667
2026-01-20T23:08:02+00:00,SAT-55658,302.30043763264746,49.7210369401392,2012.2946946209997,5.682792137463673,-199035.41884088548,10.5,10499800964.58116,47.655,-122.3035,60.0,8.033333333333333
2026-01-20T23:08:03+00:00,SAT-55658,302.44390826024505,49.625092645953295,2017.962332646097,5.690234611356602,-199296.0857582492,10.5,10499800703.914242,47.655,-122.3035,60.0,8.05
2026-01-20T23:08:04+00:00,SAT-55658,302.58594864623814,49.529303989830325,2023.63739329849,5.697607896393734,-199554.32938921437,10.5,10499800445.67061,47.655,-122.3035,60.0,8.066666666666666
2026-01-20T23:08:05+00:00,SAT-55658,302.7265761311723,49.43367328085863,2029.3198075738264,5.704912673316139,-199810.17357621272,10.5,10499800189.826424,47.655,-122.3035,60.0,8.083333333333334
2026-01-20T23:08:06+00:00,SAT-55658,302.8658078227906,49.33820274093521,2035.0095071466806,5.712149611632716,-200063.64176827797,10.5,10499799936.358232,47.655,-122.3035,60.0,8.1
2026-01-20T23:08:07+00:00,SAT-55658,303.00366059864257,49.242894507068854,2040.7064243593488,5.7193193496026975,-200314.75631994827,10.5,10499799685.243681,47.655,-122.3035,60.0,8.116666666666667
2026-01-20T23:08:08+00:00,SAT-55658,303.14015110808765,49.147750633978696,2046.410492190686,5.726422533489776,-200563.53986611182,10.5,10499799436.460135,47.655,-122.3035,60.0,8.133333333333333
2026-01-20T23:08:09+00:00,SAT-55658,303.27529577545124,49.052773095968966,2052.121644264086,5.733459822117534,-200810.01548155726,10.5,10499799189.984518,47.655,-122.3035,60.0,8.15
2026-01-20T23:08:10+00:00,SAT-55658,303.4091108031804,48.957963788689845,2057.8398148600118,5.740431819605283,-201054.2043250984,10.5,10499798945.795675,47.655,-122.3035,60.0,8.166666666666666
2026-01-20T23:08:11+00:00,SAT-55658,303.5416121733802,48.863324531969525,2063.5649388614315,5.747339171458708,-201296.12900507468,10.5,10499798703.870995,47.655,-122.3035,60.0,8.183333333333334
2026-01-20T23:08:12+00:00,SAT-55658,303.6728156516672,48.76885707100225,2069.2969517950996,5.754182493043771,-201535.8110742052,10.5,10499798464.188927,47.655,-122.3035,60.0,8.2
2026-01-20T23:08:13+00:00,SAT-55658,303.8027367893445,48.67456307867358,2075.035789801495,5.760962397643497,-201773.27201225562,10.5,10499798226.727987,47.655,-122.3035,60.0,8.216666666666667
2026-01-20T23:08:14+00:00,SAT-55658,303.93139092614047,48.580444157385784,2080.781389632745,5.7676794926661445,-202008.53309323252,10.5,10499797991.466908,47.655,-122.3035,60.0,8.233333333333333
2026-01-20T23:08:15+00:00,SAT-55658,304.0587931929607,48.4865018408904,2086.533688646764,5.774334373822277,-202241.61518143964,10.5,10499797758.384819,47.655,-122.3035,60.0,8.25
2026-01-20T23:08:16+00:00,SAT-55658,304.1849585143826,48.392737596185846,2092.2926247955893,5.780927645748322,-202472.53945380234,10.5,10499797527.460546,47.655,-122.3035,60.0,8.266666666666667
2026-01-20T23:08:17+00:00,SAT-55658,304.30990161173685,48.299152825021636,2098.058136634282,5.787459901547422,-202701.32668330142,10.5,10499797298.673317,47.655,-122.3035,60.0,8.283333333333333
2026-01-20T23:08:18+00:00,SAT-55658,304.4336370055591,48.205748865713325,2103.8301633094256,5.793931694271443,-202927.99624015277,10.5,10499797072.00376,47.655,-122.3035,60.0,8.3
2026-01-20T23:08:19+00:00,SAT-55658,304.55617901749457,48.112526995367276,2109.608644519179,5.800343644108593,-203152.56984597066,10.5,10499796847.430155,47.655,-122.3035,60.0,8.316666666666666
2026-01-20T23:08:20+00:00,SAT-55658,304.6775417745711,48.01948843032816,2115.393520580237,5.806696267280561,-203375.06558102235,10.5,10499796624.93442,47.655,-122.3035,60.0,8.333333333333334
2026-01-20T23:08:21+00:00,SAT-55658,304.79773920957786,47.92663432936866,2121.1847323241377,5.812990181926918,-203595.50509517035,10.5,10499796404.494905,47.655,-122.3035,60.0,8.35
2026-01-20T23:08:22+00:00,SAT-55658,304.91678506608775,47.83396579350098,2126.982221198913,5.819225902294412,-203813.90639951095,10.5,10499796186.093601,47.655,-122.3035,60.0,8.366666666666667
2026-01-20T23:08:23+00:00,SAT-55658,305.0346928988358,47.74148386908084,2132.785929165468,5.825404015008416,-204030.29004014627,10.5,10499795969.709959,47.655,-122.3035,60.0,8.383333333333333
2026-01-20T23:08:24+00:00,SAT-55658,305.1514760779738,47.64918954803831,2138.5957987697698,5.831525052067284,-204244.6746499089,10.5,10499795755.32535,47.655,-122.3035,60.0,8.4
2026-01-20T23:08:25+00:00,SAT-55658,305.2671477905435,47.55708377010938,2144.411773088365,5.837589544373395,-204457.07882324592,10.5,10499795542.921177,47.655,-122.3035,60.0,8.416666666666666
