satellites_20260121_005943/SAT-53504.csv

timestamp,satellite,azimuth_deg,elevation_deg,distance_km,relative_velocity_kms,doppler_shift_hz,tx_freq_ghz,rx_freq_hz,ue_lat,ue_lon,ue_alt_m,time_minutes
2026-01-20T23:11:09+00:00,SAT-53504,295.93688548803914,30.023235288869962,4364.116164053747,-6.656771640561668,233148.30096859043,10.5,10500233148.300968,47.655,-122.3035,60.0,11.15
2026-01-20T23:11:10+00:00,SAT-53504,295.9098484327364,30.069030748657198,4357.477143804226,-6.656906896368669,233153.03819908315,10.5,10500233153.038198,47.655,-122.3035,60.0,11.166666666666666
2026-01-20T23:11:11+00:00,SAT-53504,295.8826882937951,30.114863595217617,4350.837988659581,-6.657034594570617,233157.5107302782,10.5,10500233157.51073,47.655,-122.3035,60.0,11.183333333333334
2026-01-20T23:11:12+00:00,SAT-53504,295.85540438538897,30.160733936404455,4344.198706157264,-6.657154717838233,233161.717955231,10.5,10500233161.717955,47.655,-122.3035,60.0,11.2
2026-01-20T23:11:13+00:00,SAT-53504,295.82799601676425,30.20664188029347,4337.5593038520055,-6.657267177175628,233165.65675692912,10.5,10500233165.656757,47.655,-122.3035,60.0,11.216666666666667
2026-01-20T23:11:14+00:00,SAT-53504,295.8004624924632,30.25258753468597,4330.919789387302,-6.657371998849125,233169.32805533023,10.5,10500233169.328054,47.655,-122.3035,60.0,11.233333333333333
2026-01-20T23:11:15+00:00,SAT-53504,295.7728031118646,30.298571007900666,4324.280170380451,-6.6574691366122485,233172.73023068716,10.5,10500233172.73023,47.655,-122.3035,60.0,11.25
2026-01-20T23:11:16+00:00,SAT-53504,295.7450171694105,30.344592408270813,4317.640454494869,-6.657558530043262,233175.86116677505,10.5,10500233175.861166,47.655,-122.3035,60.0,11.266666666666667
2026-01-20T23:11:17+00:00,SAT-53504,295.7171039545924,30.390651844043227,4311.000649454239,-6.657640158900784,233178.72015465522,10.5,10500233178.720154,47.655,-122.3035,60.0,11.283333333333333
2026-01-20T23:11:18+00:00,SAT-53504,295.6890627517884,30.43674942365233,4304.360763002429,-6.65771399943774,233181.3063626046,10.5,10500233181.306362,47.655,-122.3035,60.0,11.3
2026-01-20T23:11:19+00:00,SAT-53504,295.6608928402146,30.48288525569336,4297.72080290699,-6.657780004981768,233183.61815595962,10.5,10500233183.618156,47.655,-122.3035,60.0,11.316666666666666
2026-01-20T23:11:20+00:00,SAT-53504,295.63259349396924,30.529059448760048,4291.080776982021,-6.657838134283209,233185.6540899828,10.5,10500233185.65409,47.655,-122.3035,60.0,11.333333333333334
2026-01-20T23:11:21+00:00,SAT-53504,295.6041639819657,30.575272111478768,4284.440693082763,-6.657888356650164,233187.41308971398,10.5,10500233187.41309,47.655,-122.3035,60.0,11.35
2026-01-20T23:11:22+00:00,SAT-53504,295.57560356785666,30.621523352578457,4277.800559095063,-6.657930624764832,233188.89349788358,10.5,10500233188.893497,47.655,-122.3035,60.0,11.366666666666667
2026-01-20T23:11:23+00:00,SAT-53504,295.5469115100331,30.66781328077135,4271.1603829519645,-6.657964934914666,233190.09518446258,10.5,10500233190.095184,47.655,-122.3035,60.0,11.383333333333333
2026-01-20T23:11:24+00:00,SAT-53504,295.51808706144084,30.714142005052054,4264.52017259021,-6.65799121730788,233191.01570504732,10.5,10500233191.015705,47.655,-122.3035,60.0,11.4
2026-01-20T23:11:25+00:00,SAT-53504,295.48912946974923,30.760509634235397,4257.879936016148,-6.658009439996253,233191.65394067604,10.5,10500233191.65394,47.655,-122.3035,60.0,11.416666666666666
2026-01-20T23:11:26+00:00,SAT-53504,295.46003797719163,30.806916277214576,4251.239681267992,-6.658019576658067,233192.0089694508,10.5,10500233192.00897,47.655,-122.3035,60.0,11.433333333333334
2026-01-20T23:11:27+00:00,SAT-53504,295.43081182047933,30.853362042997244,4244.599416410205,-6.658021595007137,233192.07966057284,10.5,10500233192.07966,47.655,-122.3035,60.0,11.45
2026-01-20T23:11:28+00:00,SAT-53504,295.40145023077633,30.899847040659314,4237.959149539451,-6.658015418379527,233191.86332894684,10.5,10500233191.863329,47.655,-122.3035,60.0,11.466666666666667
2026-01-20T23:11:29+00:00,SAT-53504,295.3719524338294,30.946371379031806,4231.318888828854,-6.658001069054577,233191.3607548895,10.5,10500233191.360754,47.655,-122.3035,60.0,11.483333333333333
2026-01-20T23:11:30+00:00,SAT-53504,295.3423176495305,30.992935167386438,4224.678642429317,-6.657978453266245,233190.56865431744,10.5,10500233190.568655,47.655,-122.3035,60.0,11.5
2026-01-20T23:11:31+00:00,SAT-53504,295.31254509232133,31.039538514621547,4218.038418585259,-6.657947548671667,233189.486244689,10.5,10500233189.486244,47.655,-122.3035,60.0,11.516666666666667
2026-01-20T23:11:32+00:00,SAT-53504,295.2826339708557,31.086181529755702,4211.398225563384,-6.65790834345321,233188.11311210072,10.5,10500233188.113111,47.655,-122.3035,60.0,11.533333333333333
2026-01-20T23:11:33+00:00,SAT-53504,295.2525834879281,31.132864321997474,4204.75807164218,-6.657860754141873,233186.44633311513,10.5,10500233186.446333,47.655,-122.3035,60.0,11.55
2026-01-20T23:11:34+00:00,SAT-53504,295.2223928406788,31.17958700023914,4198.117965183383,-6.6578047958490645,233184.4864369976,10.5,10500233184.486437,47.655,-122.3035,60.0,11.566666666666666
2026-01-20T23:11:35+00:00,SAT-53504,295.19206122017516,31.226349673742057,4191.477914533656,-6.657740357010379,233182.22951629083,10.5,10500233182.229517,47.655,-122.3035,60.0,11.583333333333334
2026-01-20T23:11:36+00:00,SAT-53504,295.16158781183896,31.27315245124394,4184.837928150931,-6.657667452042997,233179.6760759454,10.5,10500233179.676077,47.655,-122.3035,60.0,11.6
2026-01-20T23:11:37+00:00,SAT-53504,295.1309717949218,31.31999544183668,4178.198014478759,-6.657586018362195,233176.82392397957,10.5,10500233176.823923,47.655,-122.3035,60.0,11.616666666666667
2026-01-20T23:11:38+00:00,SAT-53504,295.1002123427283,31.36687875442166,4171.558182023113,-6.657496042218593,233173.67257883193,10.5,10500233173.672579,47.655,-122.3035,60.0,11.633333333333333
2026-01-20T23:11:39+00:00,SAT-53504,295.0693086223968,31.413802498046905,4164.918439303674,-6.657397443845576,233170.21924673818,10.5,10500233170.219246,47.655,-122.3035,60.0,11.65
2026-01-20T23:11:40+00:00,SAT-53504,295.03825979507906,31.460766781437638,4158.278794919678,-6.657290181438002,233166.46246350542,10.5,10500233166.462463,47.655,-122.3035,60.0,11.666666666666666
2026-01-20T23:11:41+00:00,SAT-53504,295.00706501576036,31.5077717132571,4151.639257512058,-6.657174257070932,233162.40230181103,10.5,10500233162.402302,47.655,-122.3035,60.0,11.683333333333334
2026-01-20T23:11:42+00:00,SAT-53504,294.975723433013,31.55481740241045,4144.999835719673,-6.6570495953021895,233158.0361193509,10.5,10500233158.03612,47.655,-122.3035,60.0,11.7
2026-01-20T23:11:43+00:00,SAT-53504,294.9442341892557,31.601903957492684,4138.360538256624,-6.656916142520183,233153.36203842034,10.5,10500233153.362038,47.655,-122.3035,60.0,11.716666666666667
2026-01-20T23:11:44+00:00,SAT-53504,294.91259642060754,31.64903148693573,4131.721373890484,-6.656773883073265,233148.37951083237,10.5,10500233148.37951,47.655,-122.3035,60.0,11.733333333333333
2026-01-20T23:11:45+00:00,SAT-53504,294.88080925668817,31.696200099270385,4125.082351404432,-6.656622773807477,233143.08702515296,10.5,10500233143.087025,47.655,-122.3035,60.0,11.75
2026-01-20T23:11:46+00:00,SAT-53504,294.8488718206513,31.74340990292687,4118.443479624689,-6.656462737888126,233137.481890306,10.5,10500233137.48189,47.655,-122.3035,60.0,11.766666666666667
2026-01-20T23:11:47+00:00,SAT-53504,294.81678322928684,31.790661005988476,4111.804767454101,-6.65629376437832,233131.5637232354,10.5,10500233131.563723,47.655,-122.3035,60.0,11.783333333333333
2026-01-20T23:11:48+00:00,SAT-53504,294.7845425926728,31.837953516652206,4105.166223806428,-6.656115808858636,233125.33096818492,10.5,10500233125.330969,47.655,-122.3035,60.0,11.8
2026-01-20T23:11:49+00:00,SAT-53504,294.7521490142723,31.88528754298486,4098.527857639726,-6.655928793626844,233118.7809036939,10.5,10500233118.780903,47.655,-122.3035,60.0,11.816666666666666
2026-01-20T23:11:50+00:00,SAT-53504,294.71960159099103,31.93266319267967,4091.8896779895495,-6.655732717647194,233111.91349348598,10.5,10500233111.913494,47.655,-122.3035,60.0,11.833333333333334
2026-01-20T23:11:51+00:00,SAT-53504,294.6868994128197,31.980080573593497,4085.2516938924828,-6.655527491453183,233104.7256040658,10.5,10500233104.725605,47.655,-122.3035,60.0,11.85
2026-01-20T23:11:52+00:00,SAT-53504,294.65404156312536,32.02753979311125,4078.6139144743397,-6.655313107801158,233097.21698172993,10.5,10500233097.216982,47.655,-122.3035,60.0,11.866666666666667
2026-01-20T23:11:53+00:00,SAT-53504,294.621027118254,32.075040958723065,4071.9763488681597,-6.655089504102328,233089.3854343542,10.5,10500233089.385435,47.655,-122.3035,60.0,11.883333333333333
2026-01-20T23:11:54+00:00,SAT-53504,294.58785514769625,32.12258417762315,4065.3390062694016,-6.654856617273406,233081.22875249505,10.5,10500233081.228752,47.655,-122.3035,60.0,11.9
2026-01-20T23:11:55+00:00,SAT-53504,294.5545247140355,32.170169556698,4058.7018959364405,-6.654614428044223,233072.74626122965,10.5,10500233072.746262,47.655,-122.3035,60.0,11.916666666666666
2026-01-20T23:11:56+00:00,SAT-53504,294.5210348726831,32.217797202830646,4052.065027146871,-6.654362889158475,233063.9363054423,10.5,10500233063.936306,47.655,-122.3035,60.0,11.933333333333334
2026-01-20T23:11:57+00:00,SAT-53504,294.4873846719527,32.2654672226936,4045.4284092254175,-6.654101925496195,233054.79625411407,10.5,10500233054.796253,47.655,-122.3035,60.0,11.95
2026-01-20T23:11:58+00:00,SAT-53504,294.4535731530942,32.313179722541115,4038.792051571723,-6.65383151109091,233045.3251977892,10.5,10500233045.325197,47.655,-122.3035,60.0,11.966666666666667
2026-01-20T23:11:59+00:00,SAT-53504,294.41959935003797,32.3609348085515,4032.1559636113275,-6.65355159212164,233035.52125142928,10.5,10500233035.521252,47.655,-122.3035,60.0,11.983333333333333
2026-01-20T23:12:00+00:00,SAT-53504,294.3854622894323,32.408732586619905,4025.520154823452,-6.65326211980437,233025.3827064118,10.5,10500233025.382706,47.655,-122.3035,60.0,12.0
2026-01-20T23:12:01+00:00,SAT-53504,294.35116099056415,32.456573162384956,4018.884634735967,-6.65296303956036,233014.9076511584,10.5,10500233014.907652,47.655,-122.3035,60.0,12.016666666666667
2026-01-20T23:12:02+00:00,SAT-53504,294.3166944653124,32.504456641178436,4012.2494129311785,-6.652654318356342,233004.0949287043,10.5,10500233004.094929,47.655,-122.3035,60.0,12.033333333333333
2026-01-20T23:12:03+00:00,SAT-53504,294.28206171799235,32.552383128170426,4005.614499024338,-6.652335889797981,232992.942213639,10.5,10500232992.942213,47.655,-122.3035,60.0,12.05
2026-01-20T23:12:04+00:00,SAT-53504,294.24726174541985,32.600352728120484,3998.9799026969126,-6.6520077200251295,232981.44832003702,10.5,10500232981.44832,47.655,-122.3035,60.0,12.066666666666666
2026-01-20T23:12:05+00:00,SAT-53504,294.2122935367178,32.64836554560158,3992.345633664141,-6.65166971992857,232969.6101269165,10.5,10500232969.610126,47.655,-122.3035,60.0,12.083333333333334
2026-01-20T23:12:06+00:00,SAT-53504,294.1771560734699,32.6964216845926,3985.711701730132,-6.651321893318933,232957.4277677419,10.5,10500232957.427767,47.655,-122.3035,60.0,12.1
2026-01-20T23:12:07+00:00,SAT-53504,294.1418483292581,32.74452124913717,3979.0781166951956,-6.650964139222099,232944.89770597243,10.5,10500232944.897705,47.655,-122.3035,60.0,12.116666666666667
2026-01-20T23:12:08+00:00,SAT-53504,294.1063692700368,32.79266434257863,3972.444888460345,-6.650596449734741,232932.01966480017,10.5,10500232932.019665,47.655,-122.3035,60.0,12.133333333333333
2026-01-20T23:12:09+00:00,SAT-53504,294.07071785366253,32.84085106822066,3965.8120269344763,-6.650218733984625,232918.79046149508,10.5,10500232918.79046,47.655,-122.3035,60.0,12.15
2026-01-20T23:12:10+00:00,SAT-53504,294.0348930301826,32.88908152871736,3959.179542117115,-6.649830961145172,232905.20901637996,10.5,10500232905.209017,47.655,-122.3035,60.0,12.166666666666666
2026-01-20T23:12:11+00:00,SAT-53504,293.9988937414958,32.93735582649576,3952.5474440385333,-6.649433067139525,232891.27308521222,10.5,10500232891.273085,47.655,-122.3035,60.0,12.183333333333334
2026-01-20T23:12:12+00:00,SAT-53504,293.96271892142454,32.9856740635047,3945.915742792906,-6.6490250257938595,232876.98175127382,10.5,10500232876.98175,47.655,-122.3035,60.0,12.2
2026-01-20T23:12:13+00:00,SAT-53504,293.92636749547256,33.034036341477815,3939.284448500514,-6.648606733553313,232862.33138763547,10.5,10500232862.331388,47.655,-122.3035,60.0,12.216666666666667
2026-01-20T23:12:14+00:00,SAT-53504,293.8898383810948,33.08244276136052,3932.653571384917,-6.648178168978128,232847.32124338613,10.5,10500232847.321243,47.655,-122.3035,60.0,12.233333333333333
2026-01-20T23:12:15+00:00,SAT-53504,293.8531304872572,33.13089342389334,3926.023121691056,-6.647739293613347,232831.94997167055,10.5,10500232831.949972,47.655,-122.3035,60.0,12.25
2026-01-20T23:12:16+00:00,SAT-53504,293.8162427144157,33.17938842947741,3919.393109702226,-6.647289997056864,232816.21370573997,10.5,10500232816.213705,47.655,-122.3035,60.0,12.266666666666667
2026-01-20T23:12:17+00:00,SAT-53504,293.77917395480085,33.22792787763772,3912.763545811828,-6.646830284078325,232800.11261264753,10.5,10500232800.112612,47.655,-122.3035,60.0,12.283333333333333
2026-01-20T23:12:18+00:00,SAT-53504,293.7419230917737,33.276511867849244,3906.134440408507,-6.646360048848074,232783.6429857911,10.5,10500232783.642986,47.655,-122.3035,60.0,12.3
2026-01-20T23:12:19+00:00,SAT-53504,293.7044890002835,33.32514049871771,3899.5058039864557,-6.645879278729229,232766.80438257355,10.5,10500232766.804382,47.655,-122.3035,60.0,12.316666666666666
2026-01-20T23:12:20+00:00,SAT-53504,293.66687054633377,33.37381386864654,3892.8776470524695,-6.645387877887295,232749.59344646553,10.5,10500232749.593447,47.655,-122.3035,60.0,12.333333333333334
2026-01-20T23:12:21+00:00,SAT-53504,293.6290665873144,33.42253207521515,3886.2499802089237,-6.644885816367293,232732.00912831695,10.5,10500232732.009129,47.655,-122.3035,60.0,12.35
2026-01-20T23:12:22+00:00,SAT-53504,293.5910759715777,33.471295215647416,3879.6228140880667,-6.64437301935063,232714.0488076642,10.5,10500232714.048807,47.655,-122.3035,60.0,12.366666666666667
2026-01-20T23:12:23+00:00,SAT-53504,293.5528975386021,33.52010338646852,3872.996159396768,-6.643849428388477,232695.71043738205,10.5,10500232695.710438,47.655,-122.3035,60.0,12.383333333333333
2026-01-20T23:12:24+00:00,SAT-53504,293.5145301188001,33.56895668361063,3866.370026900188,-6.643314989831632,232676.99213844846,10.5,10500232676.992138,47.655,-122.3035,60.0,12.4
2026-01-20T23:12:25+00:00,SAT-53504,293.47597253343554,33.61785520243364,3859.744427416996,-6.642769655198977,232657.8922128497,10.5,10500232657.892212,47.655,-122.3035,60.0,12.416666666666666
2026-01-20T23:12:26+00:00,SAT-53504,293.43722359448697,33.66679903774794,3853.119371814211,-6.642213347875873,232638.40797721694,10.5,10500232638.407978,47.655,-122.3035,60.0,12.433333333333334
2026-01-20T23:12:27+00:00,SAT-53504,293.3982821047239,33.715788283592396,3846.494871035263,-6.641646023919099,232618.53789247273,10.5,10500232618.537893,47.655,-122.3035,60.0,12.45
2026-01-20T23:12:28+00:00,SAT-53504,293.3591468574382,33.764823033459464,3839.8709360674075,-6.641067594637698,232598.27885228462,10.5,10500232598.278852,47.655,-122.3035,60.0,12.466666666666667
2026-01-20T23:12:29+00:00,SAT-53504,293.3198166365947,33.81390337994895,3833.2475779863553,-6.640478015182292,232577.62928583767,10.5,10500232577.629286,47.655,-122.3035,60.0,12.483333333333333
2026-01-20T23:12:30+00:00,SAT-53504,293.2802902165088,33.86302941507505,3826.624807912547,-6.639877234411741,232556.58740195283,10.5,10500232556.587402,47.655,-122.3035,60.0,12.5
2026-01-20T23:12:31+00:00,SAT-53504,293.2405663618002,33.912201230203614,3820.002637017427,-6.6392651733161685,232535.15043337003,10.5,10500232535.150433,47.655,-122.3035,60.0,12.516666666666667
2026-01-20T23:12:32+00:00,SAT-53504,293.2006438274276,33.961418915829505,3813.3810765512394,-6.638641763300136,232513.3159775868,10.5,10500232513.315977,47.655,-122.3035,60.0,12.533333333333333
2026-01-20T23:12:33+00:00,SAT-53504,293.1605213585665,34.01068256163564,3806.7601378326417,-6.638006973795239,232491.0829639684,10.5,10500232491.082964,47.655,-122.3035,60.0,12.55
2026-01-20T23:12:34+00:00,SAT-53504,293.1201976902925,34.059992256757674,3800.1398322107766,-6.637360702190383,232468.44779864018,10.5,10500232468.447798,47.655,-122.3035,60.0,12.566666666666666
2026-01-20T23:12:35+00:00,SAT-53504,293.0796715478872,34.10934808923158,3793.520171137125,-6.6367029168331335,232445.409373,10.5,10500232445.409372,47.655,-122.3035,60.0,12.583333333333334
2026-01-20T23:12:36+00:00,SAT-53504,293.0389416463543,34.15875014650205,3786.901166094737,-6.636033508529422,232421.9638626097,10.5,10500232421.963863,47.655,-122.3035,60.0,12.6
2026-01-20T23:12:37+00:00,SAT-53504,292.99800669074284,34.208198514827984,3780.282828675564,-6.635352466602571,232398.11089352684,10.5,10500232398.110893,47.655,-122.3035,60.0,12.616666666666667
2026-01-20T23:12:38+00:00,SAT-53504,292.95686537552064,34.257693279994925,3773.665170482205,-6.634659686243428,232373.84679489167,10.5,10500232373.846794,47.655,-122.3035,60.0,12.633333333333333
2026-01-20T23:12:39+00:00,SAT-53504,292.9155163849884,34.30723452659634,3767.048203221792,-6.633955106154087,232349.16941979213,10.5,10500232349.16942,47.655,-122.3035,60.0,12.65
2026-01-20T23:12:40+00:00,SAT-53504,292.8739583929327,34.35682233833728,3760.4319386625875,-6.6332386809601775,232324.07717902586,10.5,10500232324.077179,47.655,-122.3035,60.0,12.666666666666666
2026-01-20T23:12:41+00:00,SAT-53504,292.83219006245844,34.4064567981328,3753.81638861811,-6.632510298728837,232298.56615223052,10.5,10500232298.566153,47.655,-122.3035,60.0,12.683333333333334
2026-01-20T23:12:42+00:00,SAT-53504,292.79021004623144,34.45613798759081,3747.2015650135113,-6.631769956897114,232272.63624964072,10.5,10500232272.63625,47.655,-122.3035,60.0,12.7
2026-01-20T23:12:43+00:00,SAT-53504,292.7480169857978,34.50586598780755,3740.5874797764995,-6.631017503989596,232246.28216594682,10.5,10500232246.282166,47.655,-122.3035,60.0,12.716666666666667
2026-01-20T23:12:44+00:00,SAT-53504,292.7056095122785,34.555640878233625,3733.974144985854,-6.630252947239775,232219.50415449624,10.5,10500232219.504154,47.655,-122.3035,60.0,12.733333333333333
2026-01-20T23:12:45+00:00,SAT-53504,292.6629862454112,34.60546273783873,3727.3615727131396,-6.629476166989344,232192.29802434891,10.5,10500232192.298025,47.655,-122.3035,60.0,12.75
2026-01-20T23:12:46+00:00,SAT-53504,292.62014579413085,34.655331644139835,3720.7497751492624,-6.628687125343397,232164.66244826504,10.5,10500232164.662449,47.655,-122.3035,60.0,12.766666666666667
2026-01-20T23:12:47+00:00,SAT-53504,292.57708675601805,34.705247673790794,3714.1387645229197,-6.627885712467516,232136.5935793786,10.5,10500232136.59358,47.655,-122.3035,60.0,12.783333333333333
2026-01-20T23:12:48+00:00,SAT-53504,292.5338077175899,34.75521090201995,3707.528553172352,-6.627071889177956,232108.09004530907,10.5,10500232108.090046,47.655,-122.3035,60.0,12.8
2026-01-20T23:12:49+00:00,SAT-53504,292.4903072538072,34.80522140313579,3700.9191534748784,-6.626245582983772,232079.149307117,10.5,10500232079.149307,47.655,-122.3035,60.0,12.816666666666666
2026-01-20T23:12:50+00:00,SAT-53504,292.4465839281261,34.85527925025441,3694.3105778801164,-6.6254066930297695,232049.76783242685,10.5,10500232049.767832,47.655,-122.3035,60.0,12.833333333333334
2026-01-20T23:12:51+00:00,SAT-53504,292.4026362925844,34.90538451505961,3687.702838938268,-6.624555167574092,232019.94380901993,10.5,10500232019.94381,47.655,-122.3035,60.0,12.85
2026-01-20T23:12:52+00:00,SAT-53504,292.3584628873754,34.955537268149044,3681.0959492511406,-6.623690915510724,231989.67404597817,10.5,10500231989.674046,47.655,-122.3035,60.0,12.866666666666667
2026-01-20T23:12:53+00:00,SAT-53504,292.3140622409927,35.005737578710686,3674.4899215114046,-6.622813905727976,231958.95745363864,10.5,10500231958.957453,47.655,-122.3035,60.0,12.883333333333333
2026-01-20T23:12:54+00:00,SAT-53504,292.2694328697429,35.055985514951175,3667.8847684427587,-6.621923985526136,231927.78868381146,10.5,10500231927.788683,47.655,-122.3035,60.0,12.9
2026-01-20T23:12:55+00:00,SAT-53504,292.2245732783579,35.10628114314879,3661.280502921194,-6.621021149934306,231896.1675623948,10.5,10500231896.167562,47.655,-122.3035,60.0,12.916666666666666
2026-01-20T23:12:56+00:00,SAT-53504,292.17948195900163,35.15662452874511,3654.6771378276594,-6.620105299890796,231864.09061982928,10.5,10500231864.09062,47.655,-122.3035,60.0,12.933333333333334
2026-01-20T23:12:57+00:00,SAT-53504,292.13415739171705,35.207015735604486,3648.0746861419016,-6.619176335757599,231831.5543663703,10.5,10500231831.554367,47.655,-122.3035,60.0,12.95
2026-01-20T23:12:58+00:00,SAT-53504,292.0885980442963,35.25745482598175,3641.473160943039,-6.618234206587713,231798.5570176385,10.5,10500231798.557018,47.655,-122.3035,60.0,12.966666666666667
2026-01-20T23:12:59+00:00,SAT-53504,292.04280237189323,35.307941860862336,3634.872575361003,-6.617278805929428,231765.09484524454,10.5,10500231765.094845,47.655,-122.3035,60.0,12.983333333333333
2026-01-20T23:13:00+00:00,SAT-53504,291.9967688172109,35.35847689951215,3628.2729426318892,-6.616310092385701,231731.166399289,10.5,10500231731.166399,47.655,-122.3035,60.0,13.0
2026-01-20T23:13:01+00:00,SAT-53504,291.95049581001376,35.409059999941995,3621.674276033083,-6.615327941760834,231696.76732991316,10.5,10500231696.76733,47.655,-122.3035,60.0,13.016666666666667
2026-01-20T23:13:02+00:00,SAT-53504,291.9039817674787,35.45969121824733,3615.0765889658337,-6.614332311329301,231661.8961406883,10.5,10500231661.896141,47.655,-122.3035,60.0,13.033333333333333
2026-01-20T23:13:03+00:00,SAT-53504,291.85722509359687,35.510370609197814,3608.479894874001,-6.613323091893983,231626.54900706952,10.5,10500231626.549007,47.655,-122.3035,60.0,13.05
2026-01-20T23:13:04+00:00,SAT-53504,291.81022417944257,35.56109822569899,3601.884207310352,-6.612300228342516,231590.72399878857,10.5,10500231590.723999,47.655,-122.3035,60.0,13.066666666666666
2026-01-20T23:13:05+00:00,SAT-53504,291.7629774027175,35.611874119173166,3595.2895398826186,-6.611263610099998,231554.41724304477,10.5,10500231554.417244,47.655,-122.3035,60.0,13.083333333333334
2026-01-20T23:13:06+00:00,SAT-53504,291.7154831279638,35.66269833910256,3588.695906308812,-6.610213153251213,231517.62580077225,10.5,10500231517.625801,47.655,-122.3035,60.0,13.1
2026-01-20T23:13:07+00:00,SAT-53504,291.66773970627827,35.71357093319923,3582.1033203906363,-6.609148806036012,231480.3478591117,10.5,10500231480.347858,47.655,-122.3035,60.0,13.116666666666667
2026-01-20T23:13:08+00:00,SAT-53504,291.61974547496106,35.764491947618886,3575.5117959814165,-6.6080704446805205,231442.57908297834,10.5,10500231442.579082,47.655,-122.3035,60.0,13.133333333333333
2026-01-20T23:13:09+00:00,SAT-53504,291.5714987578627,35.815461426372494,3568.9213470579216,-6.60697799962063,231404.317035943,10.5,10500231404.317036,47.655,-122.3035,60.0,13.15
2026-01-20T23:13:10+00:00,SAT-53504,291.52299786487833,35.86647941170808,3562.3319876663,-6.6058714003439,231365.5592483616,10.5,10500231365.559248,47.655,-122.3035,60.0,13.166666666666666
2026-01-20T23:13:11+00:00,SAT-53504,291.4742410918483,35.91754594406696,3555.743731923024,-6.604750520950571,231326.30131069204,10.5,10500231326.301311,47.655,-122.3035,60.0,13.183333333333334
2026-01-20T23:13:12+00:00,SAT-53504,291.4252267207544,35.96866106162117,3549.156594070129,-6.603615311414536,231286.54147080856,10.5,10500231286.541471,47.655,-122.3035,60.0,13.2
2026-01-20T23:13:13+00:00,SAT-53504,291.3759530191046,36.01982480082052,3542.5705883995447,-6.602465671643949,231246.27622307115,10.5,10500231246.276222,47.655,-122.3035,60.0,13.216666666666667
2026-01-20T23:13:14+00:00,SAT-53504,291.3264182401142,36.07103719596866,3535.985729303025,-6.6013014843040745,231205.5014579212,10.5,10500231205.501457,47.655,-122.3035,60.0,13.233333333333333
2026-01-20T23:13:15+00:00,SAT-53504,291.2766206226903,36.122298279049886,3529.4020312893463,-6.600122691670298,231164.21515359846,10.5,10500231164.215153,47.655,-122.3035,60.0,13.25
2026-01-20T23:13:16+00:00,SAT-53504,291.2265583908759,36.17360808015193,3522.8195089248534,-6.598929196678233,231122.41391049753,10.5,10500231122.41391,47.655,-122.3035,60.0,13.266666666666667
2026-01-20T23:13:17+00:00,SAT-53504,291.17622975399377,36.224966627120544,3516.2381768727,-6.59772087978036,231080.0935415586,10.5,10500231080.093542,47.655,-122.3035,60.0,13.283333333333333
2026-01-20T23:13:18+00:00,SAT-53504,291.12563290662644,36.27637394534396,3509.658049915265,-6.596497702522738,231037.25269996203,10.5,10500231037.2527,47.655,-122.3035,60.0,13.3
2026-01-20T23:13:19+00:00,SAT-53504,291.07476602795373,36.32783005834074,3503.079142873283,-6.595259516347648,230993.88618258803,10.5,10500230993.886183,47.655,-122.3035,60.0,13.316666666666666
2026-01-20T23:13:20+00:00,SAT-53504,291.0236272823185,36.3793349868621,3496.501470715645,-6.59400626480712,230949.99201238996,10.5,10500230949.992012,47.655,-122.3035,60.0,13.333333333333334
2026-01-20T23:13:21+00:00,SAT-53504,290.97221481847964,36.43088874956428,3489.9250484675445,-6.592737808637754,230905.5653117745,10.5,10500230905.565311,47.655,-122.3035,60.0,13.35
2026-01-20T23:13:22+00:00,SAT-53504,290.9205267700094,36.48249136231957,3483.349891293063,-6.591454100609164,230860.6044265337,10.5,10500230860.604427,47.655,-122.3035,60.0,13.366666666666667
2026-01-20T23:13:23+00:00,SAT-53504,290.868561254526,36.53414283888845,3476.7760144033887,-6.590155027111363,230815.10537756528,10.5,10500230815.105377,47.655,-122.3035,60.0,13.383333333333333
2026-01-20T23:13:24+00:00,SAT-53504,290.8163163739765,36.58584319035706,3470.203433123016,-6.588840457282842,230769.0635815456,10.5,10500230769.063581,47.655,-122.3035,60.0,13.4
2026-01-20T23:13:25+00:00,SAT-53504,290.7637902146282,36.63759242495371,3463.632162906953,-6.587510341300276,230722.4772934511,10.5,10500230722.477293,47.655,-122.3035,60.0,13.416666666666666
2026-01-20T23:13:26+00:00,SAT-53504,290.71098084632496,36.689390548636155,3457.062219259896,-6.586164552043162,230675.34206098408,10.5,10500230675.34206,47.655,-122.3035,60.0,13.433333333333334
2026-01-20T23:13:27+00:00,SAT-53504,290.65788632289104,36.74123756443804,3450.493617813325,-6.584802999726348,230627.65473948864,10.5,10500230627.65474,47.655,-122.3035,60.0,13.45
2026-01-20T23:13:28+00:00,SAT-53504,290.6045046816868,36.79313347271166,3443.9263742882645,-6.583425566353907,230579.41119624837,10.5,10500230579.411196,47.655,-122.3035,60.0,13.466666666666667
2026-01-20T23:13:29+00:00,SAT-53504,290.5508339436731,36.84507827085634,3437.3605045234212,-6.582032165832903,230530.60841592448,10.5,10500230530.608416,47.655,-122.3035,60.0,13.483333333333333
2026-01-20T23:13:30+00:00,SAT-53504,290.4968721130018,36.89707195351779,3430.796024443364,-6.580622700184156,230481.24296687156,10.5,10500230481.242968,47.655,-122.3035,60.0,13.5
2026-01-20T23:13:31+00:00,SAT-53504,290.44261717694707,36.949114512442485,3424.2329500703804,-6.5791970323636635,230431.31004922898,10.5,10500230431.31005,47.655,-122.3035,60.0,13.516666666666667
2026-01-20T23:13:32+00:00,SAT-53504,290.38806710601665,37.00120593611678,3417.671297563436,-6.577755089805774,230380.80712144077,10.5,10500230380.807121,47.655,-122.3035,60.0,13.533333333333333
2026-01-20T23:13:33+00:00,SAT-53504,290.3332198533335,37.053346210220276,3411.11108315387,-6.576296755490854,230329.73008498418,10.5,10500230329.730085,47.655,-122.3035,60.0,13.55
2026-01-20T23:13:34+00:00,SAT-53504,290.27807335476064,37.10553531722122,3404.552323189727,-6.57482193314124,230278.07556780838,10.5,10500230278.075567,47.655,-122.3035,60.0,13.566666666666666
2026-01-20T23:13:35+00:00,SAT-53504,290.22262552861014,37.15777323648348,3397.9950341150743,-6.573330481976502,230225.83863918707,10.5,10500230225.838638,47.655,-122.3035,60.0,13.583333333333334
2026-01-20T23:13:36+00:00,SAT-53504,290.1668742757781,37.21005994385666,3391.4392325143826,-6.571822331085749,230173.01681552097,10.5,10500230173.016815,47.655,-122.3035,60.0,13.6
2026-01-20T23:13:37+00:00,SAT-53504,290.1108174790728,37.262395412171536,3384.8849350428463,-6.5702973377501985,230119.6050981946,10.5,10500230119.605099,47.655,-122.3035,60.0,13.616666666666667
2026-01-20T23:13:38+00:00,SAT-53504,290.054453003555,37.31477961061144,3378.332158497997,-6.568755429126204,230065.60093591528,10.5,10500230065.600935,47.655,-122.3035,60.0,13.633333333333333
2026-01-20T23:13:39+00:00,SAT-53504,289.9977786958503,37.36721250520615,3371.780919750015,-6.567196460485989,230010.99925970414,10.5,10500230010.99926,47.655,-122.3035,60.0,13.65
2026-01-20T23:13:40+00:00,SAT-53504,289.9407923845141,37.41969405819948,3365.231235813424,-6.565620324285166,229955.79630290178,10.5,10500229955.796303,47.655,-122.3035,60.0,13.666666666666666
2026-01-20T23:13:41+00:00,SAT-53504,289.88349187955737,37.472224228281384,3358.6831238100035,-6.564026917388667,229899.98845328193,10.5,10500229899.988453,47.655,-122.3035,60.0,13.683333333333334
2026-01-20T23:13:42+00:00,SAT-53504,289.82587497225103,37.524802970559904,3352.1366009643943,-6.562416124783817,229843.57168261407,10.5,10500229843.571682,47.655,-122.3035,60.0,13.7
2026-01-20T23:13:43+00:00,SAT-53504,289.7679394350092,37.577430236401156,3345.5916846159434,-6.560787824899363,229786.54173295887,10.5,10500229786.541733,47.655,-122.3035,60.0,13.716666666666667
2026-01-20T23:13:44+00:00,SAT-53504,289.7096830212793,37.63010597331073,3339.048392225244,-6.55914188429306,229728.89393060427,10.5,10500229728.89393,47.655,-122.3035,60.0,13.733333333333333
2026-01-20T23:13:45+00:00,SAT-53504,289.65110346543497,37.68283012477051,3332.5067413859756,-6.557478222905047,229670.62547151535,10.5,10500229670.625471,47.655,-122.3035,60.0,13.75
2026-01-20T23:13:46+00:00,SAT-53504,289.59219848216935,37.73560263059809,3325.966749771665,-6.5557966724967915,229611.73046326707,10.5,10500229611.730463,47.655,-122.3035,60.0,13.766666666666667
2026-01-20T23:13:47+00:00,SAT-53504,289.5329657670046,37.78842342616939,3319.428435223628,-6.554097167152699,229552.2065972165,10.5,10500229552.206596,47.655,-122.3035,60.0,13.783333333333333
2026-01-20T23:13:48+00:00,SAT-53504,289.4734029952915,37.84129244316861,3312.8918156489212,-6.552379541962062,229492.04809749298,10.5,10500229492.048098,47.655,-122.3035,60.0,13.8
2026-01-20T23:13:49+00:00,SAT-53504,289.41350782279,37.894209608720416,3306.356909119071,-6.550643706997423,229431.25181445674,10.5,10500229431.251814,47.655,-122.3035,60.0,13.816666666666666
2026-01-20T23:13:50+00:00,SAT-53504,289.35327788489514,37.947174845919214,3299.8237337952924,-6.54888950063321,229369.81208729645,10.5,10500229369.812088,47.655,-122.3035,60.0,13.833333333333334
2026-01-20T23:13:51+00:00,SAT-53504,289.2927107969956,38.00018807317574,3293.292307999994,-6.54711683613206,229307.72587810276,10.5,10500229307.725878,47.655,-122.3035,60.0,13.85
2026-01-20T23:13:52+00:00,SAT-53504,289.2318041536927,38.053249204744176,3286.762650142092,-6.545325565920678,229244.98801823467,10.5,10500229244.988018,47.655,-122.3035,60.0,13.866666666666667
2026-01-20T23:13:53+00:00,SAT-53504,289.1705555290661,38.10635815015383,3280.23477877768,-6.543515568373429,229181.59424784797,10.5,10500229181.594248,47.655,-122.3035,60.0,13.883333333333333
2026-01-20T23:13:54+00:00,SAT-53504,289.10896247628864,38.15951481433836,3273.708712584156,-6.541686715359982,229117.54007927648,10.5,10500229117.54008,47.655,-122.3035,60.0,13.9
2026-01-20T23:13:55+00:00,SAT-53504,289.047022527452,38.21271909750252,3267.1844703667034,-6.539838866620826,229052.82060003883,10.5,10500229052.8206,47.655,-122.3035,60.0,13.916666666666666
2026-01-20T23:13:56+00:00,SAT-53504,288.9847331934833,38.2659708949409,3260.6620710703937,-6.537971929709772,228987.4325722784,10.5,10500228987.432571,47.655,-122.3035,60.0,13.933333333333334
2026-01-20T23:13:57+00:00,SAT-53504,288.92209196350916,38.31927009734263,3254.141533732496,-6.536085729407379,228921.36985906924,10.5,10500228921.36986,47.655,-122.3035,60.0,13.95
2026-01-20T23:13:58+00:00,SAT-53504,288.8590963053746,38.37261659003329,3247.6228775650343,-6.534180138279573,228854.627997131,10.5,10500228854.627996,47.655,-122.3035,60.0,13.966666666666667
2026-01-20T23:13:59+00:00,SAT-53504,288.7957436650015,38.42601025327554,3241.1061219071235,-6.532255049295782,228787.2032378003,10.5,10500228787.203238,47.655,-122.3035,60.0,13.983333333333333
2026-01-20T23:14:00+00:00,SAT-53504,288.7320314660235,38.479450962347116,3234.5912862046252,-6.530310305406439,228719.090080537,10.5,10500228719.09008,47.655,-122.3035,60.0,14.0
2026-01-20T23:14:01+00:00,SAT-53504,288.6679571099743,38.53293858704344,3228.0783900600336,-6.528345775418676,228650.28393041194,10.5,10500228650.28393,47.655,-122.3035,60.0,14.016666666666667
2026-01-20T23:14:02+00:00,SAT-53504,288.60351797587526,38.586472991795674,3221.567453206683,-6.526361321511934,228580.77996036614,10.5,10500228580.77996,47.655,-122.3035,60.0,14.033333333333333
2026-01-20T23:14:03+00:00,SAT-53504,288.53871142005096,38.64005403552354,3215.0584955153613,-6.524356799054488,228510.5731047848,10.5,10500228510.573105,47.655,-122.3035,60.0,14.05
2026-01-20T23:14:04+00:00,SAT-53504,288.47353477599006,38.69368157148352,3208.5515370011044,-6.522332094853092,228439.6593991616,10.5,10500228439.659399,47.655,-122.3035,60.0,14.066666666666666
2026-01-20T23:14:05+00:00,SAT-53504,288.40798535381737,38.74735544743085,3202.0465977918375,-6.5202870075160035,228368.03178990594,10.5,10500228368.03179,47.655,-122.3035,60.0,14.083333333333334
2026-01-20T23:14:06+00:00,SAT-53504,288.3420604408914,38.80107550479528,3195.5436982163415,-6.51822147535602,228295.68811647093,10.5,10500228295.688116,47.655,-122.3035,60.0,14.1
2026-01-20T23:14:07+00:00,SAT-53504,288.27575730028525,38.85484157972945,3189.0428586649195,-6.516135267383697,228222.62028862917,10.5,10500228222.620289,47.655,-122.3035,60.0,14.116666666666667
2026-01-20T23:14:08+00:00,SAT-53504,288.20907317212396,38.908653501613415,3182.544099758249,-6.514028319166421,228148.8260496781,10.5,10500228148.82605,47.655,-122.3035,60.0,14.133333333333333
2026-01-20T23:14:09+00:00,SAT-53504,288.14200527181185,38.96251109432175,3176.0474421812673,-6.511900418726239,228074.29797525296,10.5,10500228074.297976,47.655,-122.3035,60.0,14.15
2026-01-20T23:14:10+00:00,SAT-53504,288.07455079117466,39.016414174901556,3169.5529068303244,-6.509751461038518,227999.03238694696,10.5,10500227999.032387,47.655,-122.3035,60.0,14.166666666666666
2026-01-20T23:14:11+00:00,SAT-53504,288.0067068972196,39.07036255434632,3163.0605147065153,-6.507581269255992,227923.02309082076,10.5,10500227923.02309,47.655,-122.3035,60.0,14.183333333333334
2026-01-20T23:14:12+00:00,SAT-53504,287.9384707325883,39.12435603689296,3156.5702869873103,-6.50538972478202,227846.26593311835,10.5,10500227846.265934,47.655,-122.3035,60.0,14.2
2026-01-20T23:14:13+00:00,SAT-53504,287.86983941474796,39.17839442039223,3150.0822449684615,-6.503176631763952,227768.75405425142,10.5,10500227768.754055,47.655,-122.3035,60.0,14.216666666666667
2026-01-20T23:14:14+00:00,SAT-53504,287.8008100365111,39.232477495553375,3143.5964101410486,-6.5009418525570695,227690.4826333197,10.5,10500227690.482634,47.655,-122.3035,60.0,14.233333333333333
2026-01-20T23:14:15+00:00,SAT-53504,287.7313796652126,39.28660504631129,3137.1128041334314,-6.49868526415694,227611.44736218773,10.5,10500227611.447363,47.655,-122.3035,60.0,14.25
2026-01-20T23:14:16+00:00,SAT-53504,287.6615453423556,39.34077684983021,3130.6314486966457,-6.496406644939598,227531.64047864664,10.5,10500227531.640478,47.655,-122.3035,60.0,14.266666666666667
2026-01-20T23:14:17+00:00,SAT-53504,287.591304084291,39.394992675563245,3124.1523658027595,-6.494105906826999,227451.05889783087,10.5,10500227451.058897,47.655,-122.3035,60.0,14.283333333333333
2026-01-20T23:14:18+00:00,SAT-53504,287.52065288070304,39.44925228624101,3117.675577511684,-6.491782846910367,227369.69551301672,10.5,10500227369.695513,47.655,-122.3035,60.0,14.3
2026-01-20T23:14:19+00:00,SAT-53504,287.44958869544297,39.50355543679161,3111.2011060856985,-6.489437320083811,227287.5452419821,10.5,10500227287.545242,47.655,-122.3035,60.0,14.316666666666666
2026-01-20T23:14:20+00:00,SAT-53504,287.37810846575474,39.55790187469383,3104.728973931802,-6.487069142060744,227204.60163023116,10.5,10500227204.601631,47.655,-122.3035,60.0,14.333333333333334
2026-01-20T23:14:21+00:00,SAT-53504,287.30620910238065,39.6122913395222,3098.2592036407864,-6.484678191712066,227120.86043531055,10.5,10500227120.860435,47.655,-122.3035,60.0,14.35
2026-01-20T23:14:22+00:00,SAT-53504,287.2338874886931,39.666723563342764,3091.7918179242524,-6.482264249263221,227036.31395978553,10.5,10500227036.31396,47.655,-122.3035,60.0,14.366666666666667
2026-01-20T23:14:23+00:00,SAT-53504,287.16114048142333,39.72119826975392,3085.3268397129873,-6.479827185152728,226950.9576658651,10.5,10500226950.957666,47.655,-122.3035,60.0,14.383333333333333
2026-01-20T23:14:24+00:00,SAT-53504,287.08796490950124,39.775715174505045,3078.864292066995,-6.4773668196512055,226864.78525866603,10.5,10500226864.78526,47.655,-122.3035,60.0,14.4
2026-01-20T23:14:25+00:00,SAT-53504,287.01435757428754,39.83027398493848,3072.4041982255294,-6.474882982232625,226777.79076564548,10.5,10500226777.790766,47.655,-122.3035,60.0,14.416666666666666
2026-01-20T23:14:26+00:00,SAT-53504,286.94031524924554,39.88487439992461,3065.946581597916,-6.472375500806151,226689.96815945444,10.5,10500226689.968159,47.655,-122.3035,60.0,14.433333333333334
2026-01-20T23:14:27+00:00,SAT-53504,286.8658346796674,39.93951610970518,3059.491465765112,-6.469844206996032,226601.3115428619,10.5,10500226601.311543,47.655,-122.3035,60.0,14.45
2026-01-20T23:14:28+00:00,SAT-53504,286.7909125823976,39.9941987957785,3053.038874476001,-6.467288909296928,226511.81420854072,10.5,10500226511.814209,47.655,-122.3035,60.0,14.466666666666667
2026-01-20T23:14:29+00:00,SAT-53504,286.71554564578634,40.04892213055521,3046.5888316704627,-6.4647094468511845,226421.47052257546,10.5,10500226421.470522,47.655,-122.3035,60.0,14.483333333333333
2026-01-20T23:14:30+00:00,SAT-53504,286.63973052912,40.103685777465415,3040.141361448803,-6.462105646342138,226330.27441468343,10.5,10500226330.274414,47.655,-122.3035,60.0,14.5
2026-01-20T23:14:31+00:00,SAT-53504,286.5634638624654,40.158489390699486,3033.6964880841847,-6.459477295116916,226238.21843686147,10.5,10500226238.218437,47.655,-122.3035,60.0,14.516666666666667
2026-01-20T23:14:32+00:00,SAT-53504,286.4867422468361,40.21333261471836,3027.2542360618545,-6.4568242433894305,226145.29734296724,10.5,10500226145.297342,47.655,-122.3035,60.0,14.533333333333333
2026-01-20T23:14:33+00:00,SAT-53504,286.4095622532296,40.26821508462521,3020.8146300164476,-6.45414629660553,226051.50431889138,10.5,10500226051.504318,47.655,-122.3035,60.0,14.55
2026-01-20T23:14:34+00:00,SAT-53504,286.33192042285623,40.323136425624554,3014.377694776633,-6.451443269250768,225956.83286713326,10.5,10500225956.832867,47.655,-122.3035,60.0,14.566666666666666
2026-01-20T23:14:35+00:00,SAT-53504,286.2538132667381,40.37809625293283,3007.9434553561,-6.4487149847264025,225861.27680245787,10.5,10500225861.276802,47.655,-122.3035,60.0,14.583333333333334
2026-01-20T23:14:36+00:00,SAT-53504,286.1752372653722,40.433094171685916,3001.511936944666,-6.4459612218318085,225764.8283774837,10.5,10500225764.828377,47.655,-122.3035,60.0,14.6
2026-01-20T23:14:37+00:00,SAT-53504,286.096188868896,40.488129776388604,2995.083164952759,-6.443181827232001,225667.48222177094,10.5,10500225667.482222,47.655,-122.3035,60.0,14.616666666666667
2026-01-20T23:14:38+00:00,SAT-53504,286.01666449611025,40.543202651317024,2988.6571649437333,-6.440376586855158,225569.23083761884,10.5,10500225569.230837,47.655,-122.3035,60.0,14.633333333333333
2026-01-20T23:14:39+00:00,SAT-53504,285.9366605348269,40.598312369824754,2982.233962694443,-6.437545306181177,225470.06741211071,10.5,10500225470.067411,47.655,-122.3035,60.0,14.65
2026-01-20T23:14:40+00:00,SAT-53504,285.85617334139715,40.653458494327914,2975.813584175745,-6.434687799621924,225369.98544516484,10.5,10500225369.985445,47.655,-122.3035,60.0,14.666666666666666
2026-01-20T23:14:41+00:00,SAT-53504,285.7751992403139,40.70864057619846,2969.396055543589,-6.431803858233512,225268.9776186827,10.5,10500225268.97762,47.655,-122.3035,60.0,14.683333333333334
2026-01-20T23:14:42+00:00,SAT-53504,285.69373452420655,40.763858155376916,2962.9814031623105,-6.428893308718081,225167.03786304008,10.5,10500225167.037863,47.655,-122.3035,60.0,14.7
2026-01-20T23:14:43+00:00,SAT-53504,285.61177545312,40.81911076048771,2956.569653569082,-6.425955906244825,225064.15760322651,10.5,10500225064.157602,47.655,-122.3035,60.0,14.716666666666667
2026-01-20T23:14:44+00:00,SAT-53504,285.5293182550792,40.87439790803222,2950.1608335452543,-6.4229914736823845,224960.33063535253,10.5,10500224960.330635,47.655,-122.3035,60.0,14.733333333333333
2026-01-20T23:14:45+00:00,SAT-53504,285.4463591249955,40.92971910277219,2943.754970048835,-6.419999794455444,224855.5493740345,10.5,10500224855.549374,47.655,-122.3035,60.0,14.75
2026-01-20T23:14:46+00:00,SAT-53504,285.3628942248593,40.98507383719041,2937.352090253831,-6.4169806714560504,224749.80691571807,10.5,10500224749.806915,47.655,-122.3035,60.0,14.766666666666667
2026-01-20T23:14:47+00:00,SAT-53504,285.2789196831958,41.0404615914549,2930.952221530833,-6.413933894851948,224643.09591119018,10.5,10500224643.095911,47.655,-122.3035,60.0,14.783333333333333
2026-01-20T23:14:48+00:00,SAT-53504,285.1944315949474,41.09588183310116,2924.5553914597003,-6.4108592314780095,224535.40819402167,10.5,10500224535.408194,47.655,-122.3035,60.0,14.8
2026-01-20T23:14:49+00:00,SAT-53504,285.10942602143564,41.15133401661991,2918.1616278528395,-6.407756520881626,224426.7381444835,10.5,10500224426.738144,47.655,-122.3035,60.0,14.816666666666666
2026-01-20T23:14:50+00:00,SAT-53504,285.02389898922,41.20681758387041,2911.77095868268,-6.40462545646957,224317.075024384,10.5,10500224317.075024,47.655,-122.3035,60.0,14.833333333333334
2026-01-20T23:14:51+00:00,SAT-53504,284.9378464915377,41.26233196259805,2905.383412227428,-6.401465916324492,224206.4145636618,10.5,10500224206.414564,47.655,-122.3035,60.0,14.85
2026-01-20T23:14:52+00:00,SAT-53504,284.851264485806,41.31787656780998,2898.9990168868803,-6.398277605748552,224094.74644075197,10.5,10500224094.74644,47.655,-122.3035,60.0,14.866666666666667
2026-01-20T23:14:53+00:00,SAT-53504,284.76414889539774,41.37345080005295,2892.6178013547474,-6.3950603612408425,223982.06492916125,10.5,10500223982.06493,47.655,-122.3035,60.0,14.883333333333333
2026-01-20T23:14:54+00:00,SAT-53504,284.6764956077668,41.4290540463198,2886.2397944878026,-6.391813921225733,223868.36086740447,10.5,10500223868.360867,47.655,-122.3035,60.0,14.9
2026-01-20T23:14:55+00:00,SAT-53504,284.5883004753306,41.48468567896526,2879.8650254037,-6.388538064598655,223753.62651146442,10.5,10500223753.62651,47.655,-122.3035,60.0,14.916666666666666
2026-01-20T23:14:56+00:00,SAT-53504,284.4995593147064,41.54034505581841,2873.4935234406075,-6.385232578755525,223637.85441504672,10.5,10500223637.854416,47.655,-122.3035,60.0,14.933333333333334
2026-01-20T23:14:57+00:00,SAT-53504,284.41026790626984,41.5960315200146,2867.1253181487286,-6.381897216922101,223521.03593507365,10.5,10500223521.035934,47.655,-122.3035,60.0,14.95
2026-01-20T23:14:58+00:00,SAT-53504,284.3204219943215,41.65174439945187,2860.760439324385,-6.378531751414404,223403.16309708916,10.5,10500223403.163097,47.655,-122.3035,60.0,14.966666666666667
2026-01-20T23:14:59+00:00,SAT-53504,284.23001728651695,41.70748300670629,2854.3989169909746,-6.375135941656951,223284.22747512208,10.5,10500223284.227474,47.655,-122.3035,60.0,14.983333333333333
