satellites_20260121_005943/SAT-64024.csv

timestamp,satellite,azimuth_deg,elevation_deg,distance_km,relative_velocity_kms,doppler_shift_hz,tx_freq_ghz,rx_freq_hz,ue_lat,ue_lon,ue_alt_m,time_minutes
2026-01-20T23:00:00+00:00,SAT-64024,263.3079389011966,38.46314556897164,2949.4578497450048,-3.816993348723622,133687.25293815773,10.5,10500133687.252937,47.655,-122.3035,60.0,0.0
2026-01-20T23:00:01+00:00,SAT-64024,263.4388464254625,38.5267908351341,2945.6510350452113,-3.807201652067351,133344.30630241934,10.5,10500133344.306303,47.655,-122.3035,60.0,0.016666666666666666
2026-01-20T23:00:02+00:00,SAT-64024,263.57037570609134,38.5903125204971,2941.8539859308826,-3.79736761177648,132999.87661348385,10.5,10500132999.876614,47.655,-122.3035,60.0,0.03333333333333333
2026-01-20T23:00:03+00:00,SAT-64024,263.70252892159584,38.653708378364335,2938.066744632737,-3.787491152392062,132653.96122845975,10.5,10500132653.96123,47.655,-122.3035,60.0,0.05
2026-01-20T23:00:04+00:00,SAT-64024,263.8353082382747,38.71697614249793,2934.289353456752,-3.7775721576202,132306.55607424286,10.5,10500132306.556074,47.655,-122.3035,60.0,0.06666666666666667
2026-01-20T23:00:05+00:00,SAT-64024,263.9687158082172,38.78011352637386,2930.5218548248854,-3.76761052747272,131957.6576488244,10.5,10500131957.657648,47.655,-122.3035,60.0,0.08333333333333333
2026-01-20T23:00:06+00:00,SAT-64024,264.1027537693292,38.843118223392516,2926.764291258819,-3.75760615998905,131607.26238111375,10.5,10500131607.26238,47.655,-122.3035,60.0,0.1
2026-01-20T23:00:07+00:00,SAT-64024,264.2374242446998,38.90598790678565,2923.016705381923,-3.7475589537437672,131255.36671876366,10.5,10500131255.366718,47.655,-122.3035,60.0,0.11666666666666667
2026-01-20T23:00:08+00:00,SAT-64024,264.37272934203395,38.96872022956948,2919.2791399187226,-3.7374688051469467,130901.96703361676,10.5,10500130901.967033,47.655,-122.3035,60.0,0.13333333333333333
2026-01-20T23:00:09+00:00,SAT-64024,264.5086711530031,39.03131282445375,2915.5516376970563,-3.7273356240282034,130547.06016752473,10.5,10500130547.060167,47.655,-122.3035,60.0,0.15
2026-01-20T23:00:10+00:00,SAT-64024,264.64525175313406,39.09376330401607,2911.8342416346923,-3.717159298917155,130190.64221632328,10.5,10500130190.642216,47.655,-122.3035,60.0,0.16666666666666666
2026-01-20T23:00:11+00:00,SAT-64024,264.78247320042624,39.15606926029644,2908.126994760572,-3.7069397508450885,129832.71041419404,10.5,10500129832.710415,47.655,-122.3035,60.0,0.18333333333333332
2026-01-20T23:00:12+00:00,SAT-64024,264.9203375359534,39.21822826529646,2904.4299401823964,-3.6966768480189303,129473.26014518605,10.5,10500129473.260145,47.655,-122.3035,60.0,0.2
2026-01-20T23:00:13+00:00,SAT-64024,265.05884678123215,39.28023787005218,2900.743121139305,-3.686370541705993,129112.28970247453,10.5,10500129112.289703,47.655,-122.3035,60.0,0.21666666666666667
2026-01-20T23:00:14+00:00,SAT-64024,265.1980029407725,39.34209560598665,2897.0665809190436,-3.6760206957104957,128749.79431590706,10.5,10500128749.794315,47.655,-122.3035,60.0,0.23333333333333334
2026-01-20T23:00:15+00:00,SAT-64024,265.33780799807886,39.403798983408066,2893.400362945188,-3.6656272283889644,128385.77112598384,10.5,10500128385.771126,47.655,-122.3035,60.0,0.25
2026-01-20T23:00:16+00:00,SAT-64024,265.4782639170823,39.4653454923914,2889.744510722742,-3.6551900622968385,128020.2174202688,10.5,10500128020.21742,47.655,-122.3035,60.0,0.26666666666666666
2026-01-20T23:00:17+00:00,SAT-64024,265.6193726416838,39.526732602820154,2886.0990678339444,-3.644709089261065,127653.12941008403,10.5,10500127653.12941,47.655,-122.3035,60.0,0.2833333333333333
2026-01-20T23:00:18+00:00,SAT-64024,265.76113609385493,39.58795776384473,2882.4640779689216,-3.6341842119997385,127284.50368820572,10.5,10500127284.503689,47.655,-122.3035,60.0,0.3
2026-01-20T23:00:19+00:00,SAT-64024,265.9035561733944,39.64901840404255,2878.83958491482,-3.6236153557217166,126914.33763513164,10.5,10500126914.337635,47.655,-122.3035,60.0,0.31666666666666665
2026-01-20T23:00:20+00:00,SAT-64024,266.0466347581266,39.70991193177778,2875.2256325333806,-3.6130024220808807,126542.62780636479,10.5,10500126542.627806,47.655,-122.3035,60.0,0.3333333333333333
2026-01-20T23:00:21+00:00,SAT-64024,266.1903737022763,39.77063573478993,2871.622264784425,-3.6023453411533084,126169.37175287356,10.5,10500126169.371754,47.655,-122.3035,60.0,0.35
2026-01-20T23:00:22+00:00,SAT-64024,266.33477483691036,39.83118718066093,2868.029525697515,-3.5916439892154357,125794.56514133546,10.5,10500125794.565142,47.655,-122.3035,60.0,0.36666666666666664
2026-01-20T23:00:23+00:00,SAT-64024,266.47983996701026,39.891563615903955,2864.447459425604,-3.5808983110329233,125418.20603721023,10.5,10500125418.206038,47.655,-122.3035,60.0,0.38333333333333336
2026-01-20T23:00:24+00:00,SAT-64024,266.6255708735613,39.95176236711058,2860.876110176734,-3.5701082186695206,125040.29136059844,10.5,10500125040.29136,47.655,-122.3035,60.0,0.4
2026-01-20T23:00:25+00:00,SAT-64024,266.7719693114865,40.01178074040252,2857.3155222466476,-3.5592736161514833,124660.81775009353,10.5,10500124660.81775,47.655,-122.3035,60.0,0.4166666666666667
2026-01-20T23:00:26+00:00,SAT-64024,266.9190370085385,40.07161602130193,2853.765740026806,-3.548394421182273,124279.78232332271,10.5,10500124279.782324,47.655,-122.3035,60.0,0.43333333333333335
2026-01-20T23:00:27+00:00,SAT-64024,267.0667756651296,40.131265474969666,2850.2268079907467,-3.5374705705149583,123897.18286511085,10.5,10500123897.182865,47.655,-122.3035,60.0,0.45
2026-01-20T23:00:28+00:00,SAT-64024,267.2151869543719,40.19072634654039,2846.6987706750865,-3.5265019599111227,123513.01572458768,10.5,10500123513.015724,47.655,-122.3035,60.0,0.4666666666666667
2026-01-20T23:00:29+00:00,SAT-64024,267.364272519561,40.24999586045085,2843.1816727204014,-3.5154885375765654,123127.27908770119,10.5,10500123127.279087,47.655,-122.3035,60.0,0.48333333333333334
2026-01-20T23:00:30+00:00,SAT-64024,267.5140339756447,40.30907122134487,2839.6755588189253,-3.5044301929485853,122739.9690820779,10.5,10500122739.969082,47.655,-122.3035,60.0,0.5
2026-01-20T23:00:31+00:00,SAT-64024,267.664472905876,40.36794961311242,2836.180473773158,-3.4933268794783148,122351.08407737964,10.5,10500122351.084078,47.655,-122.3035,60.0,0.5166666666666667
2026-01-20T23:00:32+00:00,SAT-64024,267.8155908638129,40.426628199998085,2832.696462432025,-3.4821785101935974,121960.62102747352,10.5,10500121960.621027,47.655,-122.3035,60.0,0.5333333333333333
2026-01-20T23:00:33+00:00,SAT-64024,267.9673893707311,40.48510412595858,2829.2235697311917,-3.47098500542133,121568.57714187047,10.5,10500121568.577143,47.655,-122.3035,60.0,0.55
2026-01-20T23:00:34+00:00,SAT-64024,268.1198699151272,40.54337451482758,2825.7618406857846,-3.4597463074150396,121174.95039804475,10.5,10500121174.950397,47.655,-122.3035,60.0,0.5666666666666667
2026-01-20T23:00:35+00:00,SAT-64024,268.2730339528601,40.60143647073098,2822.3113203685234,-3.448462324686528,120779.73759169267,10.5,10500120779.73759,47.655,-122.3035,60.0,0.5833333333333334
2026-01-20T23:00:36+00:00,SAT-64024,268.4268829048029,40.659287077572465,2818.872053943369,-3.4371330079491518,120382.93699658746,10.5,10500120382.936996,47.655,-122.3035,60.0,0.6
2026-01-20T23:00:37+00:00,SAT-64024,268.58141815790117,40.716923399799676,2815.444086623441,-3.425758277249776,119984.54581243217,10.5,10500119984.545813,47.655,-122.3035,60.0,0.6166666666666667
2026-01-20T23:00:38+00:00,SAT-64024,268.7366410629248,40.77434248195185,2812.0274637015973,-3.414338065642643,119584.5616945032,10.5,10500119584.561695,47.655,-122.3035,60.0,0.6333333333333333
2026-01-20T23:00:39+00:00,SAT-64024,268.8925529341908,40.831541348947425,2808.622230537463,-3.4028723136274177,119182.98255884704,10.5,10500119182.98256,47.655,-122.3035,60.0,0.65
2026-01-20T23:00:40+00:00,SAT-64024,269.0491550490477,40.888517006281134,2805.228432550005,-3.3913609599061862,118779.80625855156,10.5,10500118779.80626,47.655,-122.3035,60.0,0.6666666666666666
2026-01-20T23:00:41+00:00,SAT-64024,269.2064486469027,40.94526644007446,2801.8461152193254,-3.379803924930359,118375.0300074886,10.5,10500118375.030008,47.655,-122.3035,60.0,0.6833333333333333
2026-01-20T23:00:42+00:00,SAT-64024,269.3644349274741,41.00178661685493,2798.475324104862,-3.368201170544827,117968.6524693049,10.5,10500117968.65247,47.655,-122.3035,60.0,0.7
2026-01-20T23:00:43+00:00,SAT-64024,269.5231150518496,41.05807448433979,2795.116104804105,-3.3565526172294624,117560.67085886917,10.5,10500117560.670858,47.655,-122.3035,60.0,0.7166666666666667
2026-01-20T23:00:44+00:00,SAT-64024,269.68249013961366,41.11412697084141,2791.768502993855,-3.344858221351055,117151.08364796183,10.5,10500117151.083649,47.655,-122.3035,60.0,0.7333333333333333
2026-01-20T23:00:45+00:00,SAT-64024,269.84256126965016,41.16994098597006,2788.4325643944276,-3.3331179124286714,116739.88836804243,10.5,10500116739.888369,47.655,-122.3035,60.0,0.75
2026-01-20T23:00:46+00:00,SAT-64024,270.0033294779165,41.22551342029484,2785.108334796432,-3.3213316555293178,116327.08379560981,10.5,10500116327.083796,47.655,-122.3035,60.0,0.7666666666666667
2026-01-20T23:00:47+00:00,SAT-64024,270.1647957582641,41.28084114605236,2781.7958600253173,-3.30949938049732,115912.6674735155,10.5,10500115912.667473,47.655,-122.3035,60.0,0.7833333333333333
2026-01-20T23:00:48+00:00,SAT-64024,270.32696105976135,41.33592101668062,2778.495185976501,-3.297621041602048,115496.63780007936,10.5,10500115496.6378,47.655,-122.3035,60.0,0.8
2026-01-20T23:00:49+00:00,SAT-64024,270.48982628694546,41.39074986735505,2775.2063585910105,-3.2856965861558494,115078.99292995696,10.5,10500115078.99293,47.655,-122.3035,60.0,0.8166666666666667
2026-01-20T23:00:50+00:00,SAT-64024,270.65339229854,41.44532451500731,2771.929423862417,-3.273725971620222,114659.73137327001,10.5,10500114659.731373,47.655,-122.3035,60.0,0.8333333333333334
2026-01-20T23:00:51+00:00,SAT-64024,270.8176599069919,41.49964175863502,2768.6644278267213,-3.261709154360432,114238.85160174555,10.5,10500114238.851603,47.655,-122.3035,60.0,0.85
2026-01-20T23:00:52+00:00,SAT-64024,270.98262987748046,41.55369837943197,2765.411416563439,-3.2496460729474497,113816.35146387912,10.5,10500113816.351463,47.655,-122.3035,60.0,0.8666666666666667
2026-01-20T23:00:53+00:00,SAT-64024,271.14830292598697,41.607491140647525,2762.1704362133532,-3.2375367039421765,113392.23013873436,10.5,10500113392.230139,47.655,-122.3035,60.0,0.8833333333333333
2026-01-20T23:00:54+00:00,SAT-64024,271.31467972031794,41.661016788379015,2758.9415329406215,-3.2253809950223733,112966.4857937651,10.5,10500112966.485794,47.655,-122.3035,60.0,0.9
2026-01-20T23:00:55+00:00,SAT-64024,271.48176087759566,41.71427205126129,2755.7247529615856,-3.2131789096760057,112539.11715016548,10.5,10500112539.11715,47.655,-122.3035,60.0,0.9166666666666666
2026-01-20T23:00:56+00:00,SAT-64024,271.64954696410314,41.76725364090519,2752.5201425290024,-3.2009304102109555,112110.12288779803,10.5,10500112110.122889,47.655,-122.3035,60.0,0.9333333333333333
2026-01-20T23:00:57+00:00,SAT-64024,271.8180384942205,41.81995825206032,2749.3277479332182,-3.1886354611402687,111679.50176375959,10.5,10500111679.501764,47.655,-122.3035,60.0,0.95
2026-01-20T23:00:58+00:00,SAT-64024,271.98723592955264,41.87238256284271,2746.1476154999746,-3.176294028421861,111247.2525857523,10.5,10500111247.252586,47.655,-122.3035,60.0,0.9666666666666667
2026-01-20T23:00:59+00:00,SAT-64024,272.15713967797967,41.9245232349557,2742.9797915889617,-3.1639060803316372,110813.37424266421,10.5,10500110813.374243,47.655,-122.3035,60.0,0.9833333333333333
2026-01-20T23:01:00+00:00,SAT-64024,272.3277500927966,41.97637691393417,2739.824322591511,-3.151471589279364,110377.86576816859,10.5,10500110377.865768,47.655,-122.3035,60.0,1.0
2026-01-20T23:01:01+00:00,SAT-64024,272.49906747189914,42.02794022942409,2736.6812549264696,-3.1389905167567194,109940.72581354117,10.5,10500109940.725813,47.655,-122.3035,60.0,1.0166666666666666
2026-01-20T23:01:02+00:00,SAT-64024,272.6710920561746,42.07920979522541,2733.5506350510914,-3.1264628577887414,109501.95420453767,10.5,10500109501.954205,47.655,-122.3035,60.0,1.0333333333333334
2026-01-20T23:01:03+00:00,SAT-64024,272.8438240303449,42.13018221006811,2730.43250942759,-3.1138885643552685,109061.54925928898,10.5,10500109061.54926,47.655,-122.3035,60.0,1.05
2026-01-20T23:01:04+00:00,SAT-64024,273.0172635195149,42.18085405714431,2727.326924566073,-3.1012676223491367,108619.51048370247,10.5,10500108619.510483,47.655,-122.3035,60.0,1.0666666666666667
2026-01-20T23:01:05+00:00,SAT-64024,273.19141059004846,42.23122190490704,2724.2339269907166,-3.08860002485754,108175.83763566251,10.5,10500108175.837635,47.655,-122.3035,60.0,1.0833333333333333
2026-01-20T23:01:06+00:00,SAT-64024,273.3662652489784,42.28128230743818,2721.1535632325918,-3.0758857405040065,107730.52961623228,10.5,10500107730.529615,47.655,-122.3035,60.0,1.1
2026-01-20T23:01:07+00:00,SAT-64024,273.5418274415355,42.33103180430935,2718.0858798540626,-3.0631247484042614,107283.58569395613,10.5,10500107283.585693,47.655,-122.3035,60.0,1.1166666666666667
2026-01-20T23:01:08+00:00,SAT-64024,273.7180970507251,42.38046692102167,2715.0309234383208,-3.050317047570834,106835.0058342487,10.5,10500106835.005835,47.655,-122.3035,60.0,1.1333333333333333
2026-01-20T23:01:09+00:00,SAT-64024,273.895073897437,42.42958416960428,2711.9887405695436,-3.037462621128795,106384.78944607855,10.5,10500106384.789446,47.655,-122.3035,60.0,1.15
2026-01-20T23:01:10+00:00,SAT-64024,274.07275773849506,42.47838004863996,2708.959377848738,-3.0245614645509216,105932.93637088322,10.5,10500105932.93637,47.655,-122.3035,60.0,1.1666666666666667
2026-01-20T23:01:11+00:00,SAT-64024,274.2511482663281,42.526851043757546,2705.942881881426,-3.011613557644119,105479.44590141508,10.5,10500105479.445902,47.655,-122.3035,60.0,1.1833333333333333
2026-01-20T23:01:12+00:00,SAT-64024,274.4302451069916,42.57499362768093,2702.9392992932685,-2.9986189028615646,105024.31812359477,10.5,10500105024.318123,47.655,-122.3035,60.0,1.2
2026-01-20T23:01:13+00:00,SAT-64024,274.6100478204761,42.62280426090235,2699.9486767074814,-2.9855775074382733,104567.55329082317,10.5,10500104567.553291,47.655,-122.3035,60.0,1.2166666666666666
2026-01-20T23:01:14+00:00,SAT-64024,274.7905558999898,42.67027939207546,2696.971060740063,-2.9724893476469902,104109.1505720714,10.5,10500104109.150572,47.655,-122.3035,60.0,1.2333333333333334
2026-01-20T23:01:15+00:00,SAT-64024,274.9717687689733,42.71741545784718,2694.006498030676,-2.9593544428722325,103649.11064626729,10.5,10500103649.110647,47.655,-122.3035,60.0,1.25
2026-01-20T23:01:16+00:00,SAT-64024,275.1536857827503,42.76420888388102,2691.0550351996517,-2.946172791702166,103187.4334639624,10.5,10500103187.433464,47.655,-122.3035,60.0,1.2666666666666666
2026-01-20T23:01:17+00:00,SAT-64024,275.336306226175,42.81065608486781,2688.1167188687273,-2.932944405306445,102724.11941636528,10.5,10500102724.119417,47.655,-122.3035,60.0,1.2833333333333334
2026-01-20T23:01:18+00:00,SAT-64024,275.5196293134148,42.85675346507771,2685.1915956485013,-2.919669274663661,102259.16818750802,10.5,10500102259.168188,47.655,-122.3035,60.0,1.3
2026-01-20T23:01:19+00:00,SAT-64024,275.70365418557753,42.90249741840249,2682.2797121585704,-2.9063474304941734,101792.58085334762,10.5,10500101792.580853,47.655,-122.3035,60.0,1.3166666666666667
2026-01-20T23:01:20+00:00,SAT-64024,275.8883799122676,42.947884329351666,2679.381114987891,-2.89297888338725,101324.35778476497,10.5,10500101324.357784,47.655,-122.3035,60.0,1.3333333333333333
2026-01-20T23:01:21+00:00,SAT-64024,276.07380548925164,42.992910573111914,2676.4958507148594,-2.879563639056805,100854.49918188552,10.5,10500100854.499182,47.655,-122.3035,60.0,1.35
2026-01-20T23:01:22+00:00,SAT-64024,276.2599298371021,43.03757251585915,2673.6239659121734,-2.866101720407287,100383.00584691999,10.5,10500100383.005846,47.655,-122.3035,60.0,1.3666666666666667
2026-01-20T23:01:23+00:00,SAT-64024,276.4467518012983,43.0818665154233,2670.765507129687,-2.8525931479143627,99909.87849701279,10.5,10500099909.878496,47.655,-122.3035,60.0,1.3833333333333333
2026-01-20T23:01:24+00:00,SAT-64024,276.63427015106447,43.12578892165467,2667.9205208968338,-2.8390379420547154,99435.117849344,10.5,10500099435.11785,47.655,-122.3035,60.0,1.4
2026-01-20T23:01:25+00:00,SAT-64024,276.82248357833305,43.169336076836835,2665.0890537226246,-2.8254361378243567,98958.72512962199,10.5,10500098958.72513,47.655,-122.3035,60.0,1.4166666666666667
2026-01-20T23:01:26+00:00,SAT-64024,277.0113906977592,43.212504316333806,2662.2711520811677,-2.811787748768869,98480.70081227034,10.5,10500098480.700811,47.655,-122.3035,60.0,1.4333333333333333
2026-01-20T23:01:27+00:00,SAT-64024,277.2009900442194,43.25528996868988,2659.4668624330625,-2.79809281485313,98001.04629702814,10.5,10500098001.046297,47.655,-122.3035,60.0,1.45
2026-01-20T23:01:28+00:00,SAT-64024,277.39128007365645,43.29768935647625,2656.6762311990487,-2.7843513620232834,97519.76249263909,10.5,10500097519.762493,47.655,-122.3035,60.0,1.4666666666666666
2026-01-20T23:01:29+00:00,SAT-64024,277.5822591611001,43.33969879652549,2653.899304773991,-2.770563442313919,97036.85122157459,10.5,10500097036.851221,47.655,-122.3035,60.0,1.4833333333333334
2026-01-20T23:01:30+00:00,SAT-64024,277.7739256015594,43.381314600784265,2651.1361295008564,-2.7567290750246825,96552.31315978992,10.5,10500096552.31316,47.655,-122.3035,60.0,1.5
2026-01-20T23:01:31+00:00,SAT-64024,277.9662776067069,43.42253307628386,2648.3867517033655,-2.742848303440651,96066.14982331154,10.5,10500096066.149824,47.655,-122.3035,60.0,1.5166666666666666
2026-01-20T23:01:32+00:00,SAT-64024,278.1593133056277,43.463350525980744,2645.651217662067,-2.7289211848940966,95578.36322015818,10.5,10500095578.36322,47.655,-122.3035,60.0,1.5333333333333334
2026-01-20T23:01:33+00:00,SAT-64024,278.3530307448905,43.50376324944816,2642.929573600333,-2.7149477538387625,95088.95455704561,10.5,10500095088.954557,47.655,-122.3035,60.0,1.55
2026-01-20T23:01:34+00:00,SAT-64024,278.54742788596707,43.54376754302688,2640.221865707171,-2.7009280522851107,94597.92530535796,10.5,10500094597.925304,47.655,-122.3035,60.0,1.5666666666666667
2026-01-20T23:01:35+00:00,SAT-64024,278.742502604803,43.58335970044193,2637.528140129692,-2.6868621500345857,94105.27790983704,10.5,10500094105.27791,47.655,-122.3035,60.0,1.5833333333333333
2026-01-20T23:01:36+00:00,SAT-64024,278.9382526930085,43.62253601372293,2634.848442945391,-2.672750094358741,93611.01402613265,10.5,10500093611.014027,47.655,-122.3035,60.0,1.6
2026-01-20T23:01:37+00:00,SAT-64024,279.1346758552589,43.66129277338777,2632.182820184617,-2.6585919309643216,93115.13525508829,10.5,10500093115.135256,47.655,-122.3035,60.0,1.6166666666666667
2026-01-20T23:01:38+00:00,SAT-64024,279.3317697082786,43.699626268951484,2629.5313178321353,-2.6443877309040076,92617.64408526942,10.5,10500092617.644085,47.655,-122.3035,60.0,1.6333333333333333
2026-01-20T23:01:39+00:00,SAT-64024,279.5295317818744,43.73753278983101,2626.893981801847,-2.630137561122033,92118.54286134624,10.5,10500092118.542862,47.655,-122.3035,60.0,1.65
2026-01-20T23:01:40+00:00,SAT-64024,279.72795951779665,43.77500862582747,2624.270857940888,-2.6158414801383785,91617.83363293606,10.5,10500091617.833633,47.655,-122.3035,60.0,1.6666666666666667
2026-01-20T23:01:41+00:00,SAT-64024,279.9270502682185,43.812050067556754,2621.66199203803,-2.6014995451989193,91115.51840503156,10.5,10500091115.518406,47.655,-122.3035,60.0,1.6833333333333333
2026-01-20T23:01:42+00:00,SAT-64024,280.12680129478963,43.84865340699764,2619.0674298249514,-2.5871118470960996,90611.6003575682,10.5,10500090611.600357,47.655,-122.3035,60.0,1.7
2026-01-20T23:01:43+00:00,SAT-64024,280.32720977045483,43.8848149385352,2616.4872169427813,-2.572678450875953,90106.08176873317,10.5,10500090106.081768,47.655,-122.3035,60.0,1.7166666666666666
2026-01-20T23:01:44+00:00,SAT-64024,280.5282727766519,43.92053095917283,2613.921398967774,-2.5581994267947783,89598.9650991993,10.5,10500089598.9651,47.655,-122.3035,60.0,1.7333333333333334
2026-01-20T23:01:45+00:00,SAT-64024,280.7299873028897,43.95579776919339,2611.3700214061173,-2.5436748696853693,89090.25367041213,10.5,10500089090.25367,47.655,-122.3035,60.0,1.75
2026-01-20T23:01:46+00:00,SAT-64024,280.9323502480211,43.990611673094776,2608.833129669418,-2.529104846952913,88579.94984318646,10.5,10500088579.949842,47.655,-122.3035,60.0,1.7666666666666666
2026-01-20T23:01:47+00:00,SAT-64024,281.13535841721466,44.024968979809714,2606.310769102057,-2.5144894548796453,88068.05698973345,10.5,10500088068.05699,47.655,-122.3035,60.0,1.7833333333333334
2026-01-20T23:01:48+00:00,SAT-64024,281.3390085236354,44.058866003713845,2603.80298495239,-2.499828771300947,87554.5778361774,10.5,10500087554.577837,47.655,-122.3035,60.0,1.8
2026-01-20T23:01:49+00:00,SAT-64024,281.54329718617623,44.0922990649907,2601.3098223911456,-2.4851229003525748,87039.51602979295,10.5,10500087039.51603,47.655,-122.3035,60.0,1.8166666666666667
2026-01-20T23:01:50+00:00,SAT-64024,281.7482209309997,44.12526449061045,2598.831326485194,-2.47037193003888,86522.8746528648,10.5,10500086522.874653,47.655,-122.3035,60.0,1.8333333333333333
2026-01-20T23:01:51+00:00,SAT-64024,281.95377618949215,44.1577586147439,2596.3675422136357,-2.455575955827929,86004.65704908843,10.5,10500086004.65705,47.655,-122.3035,60.0,1.85
2026-01-20T23:01:52+00:00,SAT-64024,282.15995929827807,44.18977777950258,2593.9185144603566,-2.4407350781607184,85484.86673633245,10.5,10500085484.866735,47.655,-122.3035,60.0,1.8666666666666667
2026-01-20T23:01:53+00:00,SAT-64024,282.36676649897663,44.22131833565,2591.484288009071,-2.425849408775465,84963.5076281418,10.5,10500084963.507627,47.655,-122.3035,60.0,1.8833333333333333
2026-01-20T23:01:54+00:00,SAT-64024,282.5741939386421,44.2523766434007,2589.064907532052,-2.410919039918121,84440.58295535998,10.5,10500084440.582954,47.655,-122.3035,60.0,1.9
2026-01-20T23:01:55+00:00,SAT-64024,282.78223766742497,44.28294907282771,2586.660417609574,-2.3959440954946998,83916.09705769966,10.5,10500083916.097057,47.655,-122.3035,60.0,1.9166666666666667
2026-01-20T23:01:56+00:00,SAT-64024,282.99089364086126,44.313032004935884,2584.270862698334,-2.380924680084124,83390.0535979571,10.5,10500083390.053598,47.655,-122.3035,60.0,1.9333333333333333
2026-01-20T23:01:57+00:00,SAT-64024,283.2001577175986,44.34262183208584,2581.89628715073,-2.36586090961488,82862.45663643826,10.5,10500082862.456636,47.655,-122.3035,60.0,1.95
2026-01-20T23:01:58+00:00,SAT-64024,283.41002565992113,44.37171495881822,2579.536735203541,-2.3507529069836557,82333.31047750502,10.5,10500082333.310478,47.655,-122.3035,60.0,1.9666666666666666
2026-01-20T23:01:59+00:00,SAT-64024,283.6204931339027,44.40030780262367,2577.1922509709757,-2.3356007981450975,81802.61953262187,10.5,10500081802.619534,47.655,-122.3035,60.0,1.9833333333333334
2026-01-20T23:02:00+00:00,SAT-64024,283.8315557092682,44.42839679466828,2574.8628784416255,-2.320404692647501,81270.38763863353,10.5,10500081270.387638,47.655,-122.3035,60.0,2.0
2026-01-20T23:02:01+00:00,SAT-64024,284.0432088573962,44.45597838029263,2572.548661494825,-2.3051647307305543,80736.61970732706,10.5,10500080736.619707,47.655,-122.3035,60.0,2.0166666666666666
2026-01-20T23:02:02+00:00,SAT-64024,284.2554479538261,44.483049020086064,2570.249643870043,-2.289881049612577,80201.32054466847,10.5,10500080201.320545,47.655,-122.3035,60.0,2.033333333333333
2026-01-20T23:02:03+00:00,SAT-64024,284.46826827761015,44.509605190549834,2567.9658691698965,-2.274553766771112,79664.49426521822,10.5,10500079664.494265,47.655,-122.3035,60.0,2.05
2026-01-20T23:02:04+00:00,SAT-64024,284.6816650090835,44.53564338458041,2565.6973808798366,-2.2591830317320367,79126.14610600506,10.5,10500079126.146107,47.655,-122.3035,60.0,2.066666666666667
2026-01-20T23:02:05+00:00,SAT-64024,284.8956332326163,44.56116011256107,2563.4442223361893,-2.24376898935374,78586.28114058249,10.5,10500078586.281141,47.655,-122.3035,60.0,2.0833333333333335
2026-01-20T23:02:06+00:00,SAT-64024,285.1101679359317,44.58615190302234,2561.206436730807,-2.2283117764342455,78044.90416019598,10.5,10500078044.90416,47.655,-122.3035,60.0,2.1
2026-01-20T23:02:07+00:00,SAT-64024,285.3252640090285,44.610615303277875,2558.98406711911,-2.2128115351033104,77502.0201428308,10.5,10500077502.020144,47.655,-122.3035,60.0,2.1166666666666667
2026-01-20T23:02:08+00:00,SAT-64024,285.5409162444819,44.634546880217975,2556.777156414767,-2.1972684311081716,76957.63489365633,10.5,10500076957.634893,47.655,-122.3035,60.0,2.1333333333333333
2026-01-20T23:02:09+00:00,SAT-64024,285.7571193396244,44.65794322129799,2554.5857473661417,-2.1816826110966603,76411.75354889993,10.5,10500076411.75355,47.655,-122.3035,60.0,2.15
2026-01-20T23:02:10+00:00,SAT-64024,285.9738678944948,44.680800935064724,2552.4098825753417,-2.1660542324364864,75864.38162024446,10.5,10500075864.38162,47.655,-122.3035,60.0,2.1666666666666665
2026-01-20T23:02:11+00:00,SAT-64024,286.1911564127585,44.70311665201316,2550.2496044875247,-2.1503834504507924,75315.52454776337,10.5,10500075315.524548,47.655,-122.3035,60.0,2.183333333333333
2026-01-20T23:02:12+00:00,SAT-64024,286.408979301419,44.72488702530986,2548.104955392942,-2.1346704381116672,74765.18838967092,10.5,10500074765.188389,47.655,-122.3035,60.0,2.2
2026-01-20T23:02:13+00:00,SAT-64024,286.62733087257925,44.746108731718316,2545.975977409332,-2.1189153643290015,74213.37906190594,10.5,10500074213.379063,47.655,-122.3035,60.0,2.216666666666667
2026-01-20T23:02:14+00:00,SAT-64024,286.8462053430406,44.76677847230015,2543.862712485974,-2.103118385488624,73660.10204176167,10.5,10500073660.102041,47.655,-122.3035,60.0,2.2333333333333334
2026-01-20T23:02:15+00:00,SAT-64024,287.0655968329057,44.78689297304604,2541.7652024161803,-2.087279687867818,73105.36385345654,10.5,10500073105.363853,47.655,-122.3035,60.0,2.25
2026-01-20T23:02:16+00:00,SAT-64024,287.2854993688558,44.80644898591919,2539.6834888074804,-2.0713994433592156,72549.17051739762,10.5,10500072549.170517,47.655,-122.3035,60.0,2.2666666666666666
2026-01-20T23:02:17+00:00,SAT-64024,287.50590688265834,44.825443289467266,2537.61761309597,-2.0554778393281983,71991.52859591311,10.5,10500071991.528595,47.655,-122.3035,60.0,2.283333333333333
2026-01-20T23:02:18+00:00,SAT-64024,287.72681321300036,44.84387268972022,2535.56761653088,-2.0395150492860763,71432.44416610307,10.5,10500071432.444166,47.655,-122.3035,60.0,2.3
2026-01-20T23:02:19+00:00,SAT-64024,287.94821210403256,44.86173402082033,2533.5335401883917,-2.023511265577262,70871.92396468243,10.5,10500070871.923965,47.655,-122.3035,60.0,2.316666666666667
2026-01-20T23:02:20+00:00,SAT-64024,288.1700972076968,44.87902414594808,2531.5154249528564,-2.0074666853513836,70309.97489666511,10.5,10500070309.974897,47.655,-122.3035,60.0,2.3333333333333335
2026-01-20T23:02:21+00:00,SAT-64024,288.3924620844714,44.895739958114035,2529.513311511999,-1.9913814873783033,69746.60322332787,10.5,10500069746.603224,47.655,-122.3035,60.0,2.35
2026-01-20T23:02:22+00:00,SAT-64024,288.61530020150224,44.911878380762,2527.5272403752538,-1.9752558805754772,69181.81626184376,10.5,10500069181.816261,47.655,-122.3035,60.0,2.3666666666666667
2026-01-20T23:02:23+00:00,SAT-64024,288.8386049363508,44.9274363687762,2525.5572518436934,-1.959090062103208,68615.62091760055,10.5,10500068615.620918,47.655,-122.3035,60.0,2.3833333333333333
2026-01-20T23:02:24+00:00,SAT-64024,289.0623695759749,44.942410909135944,2523.603386021756,-1.94288423908697,68048.0244450085,10.5,10500068048.024445,47.655,-122.3035,60.0,2.4
2026-01-20T23:02:25+00:00,SAT-64024,289.2865873182258,44.956799021746946,2521.6656828073064,-1.926638610680302,67479.03381926697,10.5,10500067479.03382,47.655,-122.3035,60.0,2.4166666666666665
2026-01-20T23:02:26+00:00,SAT-64024,289.511251271291,44.97059776013545,2519.7441818995876,-1.910353393987068,66908.6566442716,10.5,10500066908.656645,47.655,-122.3035,60.0,2.433333333333333
2026-01-20T23:02:27+00:00,SAT-64024,289.7363544562464,44.983804212331236,2517.838922781318,-1.89402879977007,66336.90030182725,10.5,10500066336.900301,47.655,-122.3035,60.0,2.45
2026-01-20T23:02:28+00:00,SAT-64024,289.96188980678045,44.99641550156854,2515.9499447250137,-1.8776650485402748,65763.77251516076,10.5,10500065763.772514,47.655,-122.3035,60.0,2.466666666666667
2026-01-20T23:02:29+00:00,SAT-64024,290.18785017084406,45.00842878709825,2514.0772867832698,-1.8612623624181825,65189.28106387159,10.5,10500065189.281063,47.655,-122.3035,60.0,2.4833333333333334
2026-01-20T23:02:30+00:00,SAT-64024,290.4142283114502,45.0198412649371,2512.2209877871514,-1.8448209577712442,64613.4335260631,10.5,10500064613.433527,47.655,-122.3035,60.0,2.5
2026-01-20T23:02:31+00:00,SAT-64024,290.6410169064083,45.03065016857683,2510.381086351934,-1.82834106668564,64036.23803037506,10.5,10500064036.23803,47.655,-122.3035,60.0,2.5166666666666666
2026-01-20T23:02:32+00:00,SAT-64024,290.868208550977,45.040852769815665,2508.5576208614266,-1.8118229244071526,63457.70281610988,10.5,10500063457.702816,47.655,-122.3035,60.0,2.533333333333333
2026-01-20T23:02:33+00:00,SAT-64024,291.0957957589003,45.05044637950204,2506.750629464818,-1.7952667574823677,62877.83581788725,10.5,10500062877.835817,47.655,-122.3035,60.0,2.55
2026-01-20T23:02:34+00:00,SAT-64024,291.32377096193875,45.05942834821757,2504.960150085355,-1.778672804999717,62296.64540959542,10.5,10500062296.64541,47.655,-122.3035,60.0,2.566666666666667
2026-01-20T23:02:35+00:00,SAT-64024,291.5521265121766,45.067796067070184,2503.186220407835,-1.7620413106678594,61714.1401269425,10.5,10500061714.140127,47.655,-122.3035,60.0,2.5833333333333335
2026-01-20T23:02:36+00:00,SAT-64024,291.78085468343784,45.07554696842921,2501.4288778739956,-1.7453725186914757,61130.3285230094,10.5,10500061130.328524,47.655,-122.3035,60.0,2.6
2026-01-20T23:02:37+00:00,SAT-64024,292.0099476720492,45.082678526641104,2499.688159682021,-1.7286666735994913,60545.21916223343,10.5,10500060545.219162,47.655,-122.3035,60.0,2.6166666666666667
2026-01-20T23:02:38+00:00,SAT-64024,292.2393975977594,45.08918825873772,2497.9641027862176,-1.7119240249766015,59958.820786126365,10.5,10500059958.820786,47.655,-122.3035,60.0,2.6333333333333333
2026-01-20T23:02:39+00:00,SAT-64024,292.46919650516605,45.09507372516378,2496.2567438919746,-1.695144835376253,59371.142590420524,10.5,10500059371.14259,47.655,-122.3035,60.0,2.65
2026-01-20T23:02:40+00:00,SAT-64024,292.69933636651194,45.10033253050834,2494.5661194428258,-1.6783293552776086,58782.193347955705,10.5,10500058782.193348,47.655,-122.3035,60.0,2.6666666666666665
2026-01-20T23:02:41+00:00,SAT-64024,292.92980908078755,45.104962324157114,2492.8922656324958,-1.6614778427394197,58191.98209704097,10.5,10500058191.982098,47.655,-122.3035,60.0,2.683333333333333
2026-01-20T23:02:42+00:00,SAT-64024,293.16060647578854,45.108960800999476,2491.235218397337,-1.64459057020255,57600.51837970779,10.5,10500057600.51838,47.655,-122.3035,60.0,2.7
2026-01-20T23:02:43+00:00,SAT-64024,293.3917203111261,45.112325702136104,2489.5950134019886,-1.627667799623796,57007.811370791256,10.5,10500057007.81137,47.655,-122.3035,60.0,2.716666666666667
2026-01-20T23:02:44+00:00,SAT-64024,293.6231422776907,45.115054815520025,2487.97168604983,-1.610709804359325,56413.87064438064,10.5,10500056413.870644,47.655,-122.3035,60.0,2.7333333333333334
2026-01-20T23:02:45+00:00,SAT-64024,293.85486400040844,45.11714597663384,2486.365271471616,-1.5937168531725217,55818.70561370653,10.5,10500055818.705614,47.655,-122.3035,60.0,2.75
2026-01-20T23:02:46+00:00,SAT-64024,294.08687703852513,45.11859706913899,2484.7758045300516,-1.5766892299569815,55222.326221923526,10.5,10500055222.326221,47.655,-122.3035,60.0,2.7666666666666666
2026-01-20T23:02:47+00:00,SAT-64024,294.3191728890436,45.11940602552627,2483.203319804708,-1.559627216398085,54624.74233484517,10.5,10500054624.742334,47.655,-122.3035,60.0,2.783333333333333
2026-01-20T23:02:48+00:00,SAT-64024,294.5517429874991,45.119570827739636,2481.6478515942204,-1.5425310835060568,54025.96344439591,10.5,10500054025.963444,47.655,-122.3035,60.0,2.8
2026-01-20T23:02:49+00:00,SAT-64024,294.78457870739885,45.11908950780714,2480.1094339269366,-1.5254011361548205,53426.00022855016,10.5,10500053426.000229,47.655,-122.3035,60.0,2.816666666666667
2026-01-20T23:02:50+00:00,SAT-64024,295.01767136673305,45.117960148438996,2478.588100527145,-1.5082376506588904,52824.862365011024,10.5,10500052824.862366,47.655,-122.3035,60.0,2.8333333333333335
2026-01-20T23:02:51+00:00,SAT-64024,295.25101222464366,45.116180883644525,2477.0838848435546,-1.491040929213872,52222.56043794689,10.5,10500052222.560438,47.655,-122.3035,60.0,2.85
2026-01-20T23:02:52+00:00,SAT-64024,295.48459248678233,45.113749899299094,2475.5968200234856,-1.4738112598990591,51619.104537113206,10.5,10500051619.104538,47.655,-122.3035,60.0,2.8666666666666667
2026-01-20T23:02:53+00:00,SAT-64024,295.7184033042661,45.11066543374703,2474.126938926946,-1.4565489499165303,51014.505422026225,10.5,10500051014.505423,47.655,-122.3035,60.0,2.8833333333333333
2026-01-20T23:02:54+00:00,SAT-64024,295.9524357780819,45.106925778332304,2472.6742741075623,-1.4392542997781592,50408.773617882915,10.5,10500050408.773619,47.655,-122.3035,60.0,2.9
2026-01-20T23:02:55+00:00,SAT-64024,296.186680959317,45.10252927796615,2471.2388578192504,-1.4219276179794442,49801.919929500575,10.5,10500049801.91993,47.655,-122.3035,60.0,2.9166666666666665
2026-01-20T23:02:56+00:00,SAT-64024,296.4211298517946,45.09747433165074,2469.8207220082527,-1.404569205708699,49193.954905767976,10.5,10500049193.954906,47.655,-122.3035,60.0,2.933333333333333
2026-01-20T23:02:57+00:00,SAT-64024,296.655773412132,45.09175939304534,2468.419898320425,-1.387179388019222,48584.889931426595,10.5,10500048584.88993,47.655,-122.3035,60.0,2.95
2026-01-20T23:02:58+00:00,SAT-64024,296.8906025553044,45.08538297088263,2467.036418077441,-1.369758467884195,47974.73561787884,10.5,10500047974.735619,47.655,-122.3035,60.0,2.966666666666667
2026-01-20T23:02:59+00:00,SAT-64024,297.1256081520956,45.078343629582434,2465.6703122988047,-1.3523067740186399,47363.50347811524,10.5,10500047363.503479,47.655,-122.3035,60.0,2.9833333333333334
2026-01-20T23:03:00+00:00,SAT-64024,297.3607810351018,45.07063998961521,2464.3216116761832,-1.3348246191632138,46751.2044656365,10.5,10500046751.204466,47.655,-122.3035,60.0,3.0
2026-01-20T23:03:01+00:00,SAT-64024,297.59611199726885,45.06227072807526,2462.990346589338,-1.317312336790384,46137.85026005902,10.5,10500046137.85026,47.655,-122.3035,60.0,3.0166666666666666
2026-01-20T23:03:02+00:00,SAT-64024,297.83159179711373,45.05323457901934,2461.6765470854452,-1.2997702469896661,45523.4520722716,10.5,10500045523.452072,47.655,-122.3035,60.0,3.033333333333333
2026-01-20T23:03:03+00:00,SAT-64024,298.06721115770495,45.04353033401349,2460.3802428924478,-1.2821986837691903,44908.02160065181,10.5,10500044908.0216,47.655,-122.3035,60.0,3.05
2026-01-20T23:03:04+00:00,SAT-64024,298.3029607707102,45.03315684247639,2459.1014634051685,-1.2645979847916953,44291.57067157707,10.5,10500044291.570671,47.655,-122.3035,60.0,3.066666666666667
2026-01-20T23:03:05+00:00,SAT-64024,298.53883129867535,45.02211301206182,2457.84023768167,-1.2469684765792346,43674.1107212309,10.5,10500043674.110722,47.655,-122.3035,60.0,3.0833333333333335
2026-01-20T23:03:06+00:00,SAT-64024,298.7748133741958,45.010397809190145,2456.5965944543614,-1.2293105087102671,43055.65399332964,10.5,10500043055.653994,47.655,-122.3035,60.0,3.1
2026-01-20T23:03:07+00:00,SAT-64024,299.010897606131,44.998010259212805,2455.370562107008,-1.2116244186457694,42436.21230718412,10.5,10500042436.212307,47.655,-122.3035,60.0,3.1166666666666667
2026-01-20T23:03:08+00:00,SAT-64024,299.24707457859347,44.984949446923515,2454.162168686812,-1.1939105536517995,41815.79782552066,10.5,10500041815.797825,47.655,-122.3035,60.0,3.1333333333333333
2026-01-20T23:03:09+00:00,SAT-64024,299.48333485451764,44.97121451681878,2452.9714418946364,-1.1761692590957091,41194.42264456481,10.5,10500041194.422644,47.655,-122.3035,60.0,3.15
2026-01-20T23:03:10+00:00,SAT-64024,299.71966897673076,44.95680467348069,2451.798409086898,-1.1584008906332488,40572.09922088537,10.5,10500040572.09922,47.655,-122.3035,60.0,3.1666666666666665
2026-01-20T23:03:11+00:00,SAT-64024,299.95606747176083,44.94171918177547,2450.6430972653066,-1.1406057974444344,39948.83978424354,10.5,10500039948.839785,47.655,-122.3035,60.0,3.183333333333333
2026-01-20T23:03:12+00:00,SAT-64024,300.19252084988983,44.92595736727158,2449.505533083322,-1.1227843353090223,39324.656795551324,10.5,10500039324.656796,47.655,-122.3035,60.0,3.2
2026-01-20T23:03:13+00:00,SAT-64024,300.42901960815664,44.90951861646025,2448.385742839574,-1.1049368707373222,38699.563091550095,10.5,10500038699.563091,47.655,-122.3035,60.0,3.216666666666667
2026-01-20T23:03:14+00:00,SAT-64024,300.6655542343502,44.89240237686994,2447.283752467158,-1.0870637602394029,38073.57115873052,10.5,10500038073.57116,47.655,-122.3035,60.0,3.2333333333333334
2026-01-20T23:03:15+00:00,SAT-64024,300.9021152063074,44.874608157499516,2446.199587543613,-1.0691653662445688,37446.6936908999,10.5,10500037446.693691,47.655,-122.3035,60.0,3.25
2026-01-20T23:03:16+00:00,SAT-64024,301.13869299467603,44.856135529005435,2445.133273285012,-1.051242062879819,36818.943791568294,10.5,10500036818.943792,47.655,-122.3035,60.0,3.2666666666666666
2026-01-20T23:03:17+00:00,SAT-64024,301.37527806738575,44.83698412371035,2444.0848345342997,-1.0332942167189896,36190.334299702066,10.5,10500036190.3343,47.655,-122.3035,60.0,3.283333333333333
2026-01-20T23:03:18+00:00,SAT-64024,301.6118608893226,44.81715363597594,2443.0542957688253,-1.0153222010916834,35560.878290883076,10.5,10500035560.87829,47.655,-122.3035,60.0,3.3
2026-01-20T23:03:19+00:00,SAT-64024,301.84843192556707,44.79664382228068,2442.0416810936035,-0.9973263873403632,34930.58877109514,10.5,10500034930.588772,47.655,-122.3035,60.0,3.316666666666667
2026-01-20T23:03:20+00:00,SAT-64024,302.08498164230105,44.77545450147485,2441.047014243296,-0.9793071570760714,34299.47910597121,10.5,10500034299.479107,47.655,-122.3035,60.0,3.3333333333333335
2026-01-20T23:03:21+00:00,SAT-64024,302.32150051108545,44.753585554716736,2440.0703185719717,-0.9612648935310737,33667.56271792626,10.5,10500033667.562717,47.655,-122.3035,60.0,3.35
2026-01-20T23:03:22+00:00,SAT-64024,302.55797901078057,44.73103692558778,2439.11161705149,-0.9431999695003236,33034.852663816506,10.5,10500033034.852663,47.655,-122.3035,60.0,3.3666666666666667
2026-01-20T23:03:23+00:00,SAT-64024,302.79440762626064,44.707808620517014,2438.170932281909,-0.9251127806161403,32401.362800359282,10.5,10500032401.3628,47.655,-122.3035,60.0,3.3833333333333333
2026-01-20T23:03:24+00:00,SAT-64024,303.0307768561039,44.68390070830843,2437.2482864687076,-0.9070037069481361,31767.106439200114,10.5,10500031767.10644,47.655,-122.3035,60.0,3.4
2026-01-20T23:03:25+00:00,SAT-64024,303.26707720983364,44.65931332067608,2436.343701438311,-0.8888731440976284,31132.097435970514,10.5,10500031132.097437,47.655,-122.3035,60.0,3.4166666666666665
2026-01-20T23:03:26+00:00,SAT-64024,303.50329921375686,44.63404665189613,2435.457198622598,-0.8707214799145656,30496.34937481629,10.5,10500030496.349375,47.655,-122.3035,60.0,3.433333333333333
2026-01-20T23:03:27+00:00,SAT-64024,303.7394334102482,44.60810095911726,2434.5887990666297,-0.8525491090514191,29859.876078136364,10.5,10500029859.876078,47.655,-122.3035,60.0,3.45
2026-01-20T23:03:28+00:00,SAT-64024,303.9754703610897,44.58147656222952,2433.738523421869,-0.8343564319914648,29222.691572549098,10.5,10500029222.691572,47.655,-122.3035,60.0,3.466666666666667
2026-01-20T23:03:29+00:00,SAT-64024,304.2114006508413,44.55417384368889,2432.906391940363,-0.816143843927919,28584.809699392605,10.5,10500028584.8097,47.655,-122.3035,60.0,3.4833333333333334
2026-01-20T23:03:30+00:00,SAT-64024,304.4472148865205,44.526193248750104,2432.0924244800185,-0.7979117463955647,27946.244522113462,10.5,10500027946.244522,47.655,-122.3035,60.0,3.5
2026-01-20T23:03:31+00:00,SAT-64024,304.6829037010597,44.49753528524893,2431.29664049828,-0.7796605446214016,27307.010233475306,10.5,10500027307.010233,47.655,-122.3035,60.0,3.5166666666666666
2026-01-20T23:03:32+00:00,SAT-64024,304.9184577558449,44.4682005234596,2430.5190590484444,-0.7613906423901008,26667.12097572534,10.5,10500026667.120975,47.655,-122.3035,60.0,3.533333333333333
2026-01-20T23:03:33+00:00,SAT-64024,305.15386774177114,44.438189596111414,2429.7596987811007,-0.7431024462668047,26026.590988494612,10.5,10500026026.590988,47.655,-122.3035,60.0,3.55
2026-01-20T23:03:34+00:00,SAT-64024,305.38912438125016,44.407503198287166,2429.0185779413573,-0.7247963670653725,25385.434660222214,10.5,10500025385.43466,47.655,-122.3035,60.0,3.566666666666667
2026-01-20T23:03:35+00:00,SAT-64024,305.62421843131415,44.3761420871362,2428.295714364604,-0.7064728157922793,24743.666386093446,10.5,10500024743.666386,47.655,-122.3035,60.0,3.5833333333333335
2026-01-20T23:03:36+00:00,SAT-64024,305.859140684754,44.34410708183609,2427.591125476321,-0.6881322054289409,24101.300630464422,10.5,10500024101.30063,47.655,-122.3035,60.0,3.6
2026-01-20T23:03:37+00:00,SAT-64024,306.09388197237945,44.31139906337714,2426.9048282901063,-0.6697749519598453,23458.35196287151,10.5,10500023458.351963,47.655,-122.3035,60.0,3.6166666666666667
2026-01-20T23:03:38+00:00,SAT-64024,306.3284331651269,44.27801897435395,2426.236839404685,-0.6514014705700496,22814.834924851646,10.5,10500022814.834925,47.655,-122.3035,60.0,3.6333333333333333
2026-01-20T23:03:39+00:00,SAT-64024,306.56278517525755,44.2439678188571,2425.587175004703,-0.6330121822347595,22170.764260737255,10.5,10500022170.764261,47.655,-122.3035,60.0,3.65
2026-01-20T23:03:40+00:00,SAT-64024,306.7969289596578,44.209246662048024,2424.9558508549544,-0.6146075054978568,21526.154629705514,10.5,10500021526.154629,47.655,-122.3035,60.0,3.6666666666666665
2026-01-20T23:03:41+00:00,SAT-64024,307.0308555201516,44.17385663014429,2424.3428823028044,-0.5961878641231487,20881.020873757476,10.5,10500020881.020874,47.655,-122.3035,60.0,3.683333333333333
2026-01-20T23:03:42+00:00,SAT-64024,307.26455590677017,44.137798909948,2423.7482842729855,-0.5777536823049049,20235.3778499708,10.5,10500020235.37785,47.655,-122.3035,60.0,3.7
2026-01-20T23:03:43+00:00,SAT-64024,307.49802121921914,44.10107474861485,2423.1720712671668,-0.5593053840158106,19589.240407662328,10.5,10500019589.240408,47.655,-122.3035,60.0,3.716666666666667
2026-01-20T23:03:44+00:00,SAT-64024,307.731242607667,44.06368545352296,2422.6142573641746,-0.5408433964816663,18942.62351008676,10.5,10500018942.62351,47.655,-122.3035,60.0,3.7333333333333334
2026-01-20T23:03:45+00:00,SAT-64024,307.9642112753769,44.02563239182905,2422.0748562167505,-0.5223681502535544,18295.54223696422,10.5,10500018295.542236,47.655,-122.3035,60.0,3.75
2026-01-20T23:03:46+00:00,SAT-64024,308.1969184814655,43.98691698996502,2421.553881048231,-0.5038800736448652,17648.011589641406,10.5,10500017648.01159,47.655,-122.3035,60.0,3.7666666666666666
2026-01-20T23:03:47+00:00,SAT-64024,308.42935554063297,43.947540733623946,2421.0513446547825,-0.48537959970508954,17000.04673534329,10.5,10500017000.046736,47.655,-122.3035,60.0,3.783333333333333
2026-01-20T23:03:48+00:00,SAT-64024,308.6615138266684,43.9075051670895,2420.5672594006764,-0.46686716043322773,16351.662804502212,10.5,10500016351.662804,47.655,-122.3035,60.0,3.8
2026-01-20T23:03:49+00:00,SAT-64024,308.89338477273543,43.86681189309429,2420.1016372193376,-0.4483431905381079,15702.875022460148,10.5,10500015702.875023,47.655,-122.3035,60.0,3.816666666666667
2026-01-20T23:03:50+00:00,SAT-64024,309.1249598738076,43.82546257228425,2419.654489610641,-0.42980812548885505,15053.698641187893,10.5,10500015053.69864,47.655,-122.3035,60.0,3.8333333333333335
2026-01-20T23:03:51+00:00,SAT-64024,309.3562306880993,43.78345892283459,2419.225827640154,-0.41126240264212255,14404.14897876546,10.5,10500014404.14898,47.655,-122.3035,60.0,3.85
2026-01-20T23:03:52+00:00,SAT-64024,309.5871888388191,43.74080271999185,2418.815661937252,-0.3927064592219178,13754.241348627047,10.5,10500013754.241348,47.655,-122.3035,60.0,3.8666666666666667
2026-01-20T23:03:53+00:00,SAT-64024,309.81782601493575,43.6974957957736,2418.4240026952543,-0.37414073539382503,13103.99116723331,10.5,10500013103.991167,47.655,-122.3035,60.0,3.8833333333333333
2026-01-20T23:03:54+00:00,SAT-64024,310.048133973869,43.653540038289286,2418.0508596684886,-0.3555656711425016,12453.413844708084,10.5,10500012453.413845,47.655,-122.3035,60.0,3.9
2026-01-20T23:03:55+00:00,SAT-64024,310.27810454219315,43.60893739141111,2417.696242172469,-0.3369817080021672,11802.524845447431,10.5,10500011802.524845,47.655,-122.3035,60.0,3.9166666666666665
2026-01-20T23:03:56+00:00,SAT-64024,310.5077296172441,43.563689854254825,2417.360159082355,-0.31838928868865246,11151.339675232428,10.5,10500011151.339676,47.655,-122.3035,60.0,3.933333333333333
2026-01-20T23:03:57+00:00,SAT-64024,310.73700116895407,43.517799480592274,2417.0426188317697,-0.2997888554817356,10499.873824571743,10.5,10500010499.873825,47.655,-122.3035,60.0,3.95
2026-01-20T23:03:58+00:00,SAT-64024,310.9659112396013,43.47126837865996,2416.7436294132353,-0.2811808540261176,9848.142901827885,10.5,10500009848.142902,47.655,-122.3035,60.0,3.966666666666667
2026-01-20T23:03:59+00:00,SAT-64024,311.19445194774437,43.42409871010928,2416.4631983748204,-0.26256572877574075,9196.162473657952,10.5,10500009196.162474,47.655,-122.3035,60.0,3.9833333333333334
2026-01-20T23:04:00+00:00,SAT-64024,311.4226154873159,43.37629268990618,2416.201332821321,-0.24394392565533526,8543.948158232255,10.5,10500008543.948158,47.655,-122.3035,60.0,4.0
2026-01-20T23:04:01+00:00,SAT-64024,311.65039412968565,43.32785258561527,2415.958039412801,-0.22531589178852196,7891.5156157113215,10.5,10500007891.515615,47.655,-122.3035,60.0,4.016666666666667
2026-01-20T23:04:02+00:00,SAT-64024,311.8777802252605,43.27878071675139,2415.7333243633902,-0.20668207455963813,7238.880515387083,10.5,10500007238.880516,47.655,-122.3035,60.0,4.033333333333333
2026-01-20T23:04:03+00:00,SAT-64024,312.1047662046785,43.2290794541901,2415.52719344103,-0.1880429215024378,6586.058531784669,10.5,10500006586.058533,47.655,-122.3035,60.0,4.05
2026-01-20T23:04:04+00:00,SAT-64024,312.3313445779501,43.17875122001881,2415.339651967318,-0.16939888170227002,5933.065393772632,10.5,10500005933.065393,47.655,-122.3035,60.0,4.066666666666666
2026-01-20T23:04:05+00:00,SAT-64024,312.55750793836035,43.12779848632205,2415.170704815967,-0.1507504045722855,5279.916841700527,10.5,10500005279.916842,47.655,-122.3035,60.0,4.083333333333333
2026-01-20T23:04:06+00:00,SAT-64024,312.78324896249916,43.07622377478829,2415.0203564124736,-0.13209793954901308,4626.628616736707,10.5,10500004626.628616,47.655,-122.3035,60.0,4.1
2026-01-20T23:04:07+00:00,SAT-64024,313.00856041073297,43.024029656211525,2414.888610734097,-0.11344193693143059,3973.21649025614,10.5,10500003973.21649,47.655,-122.3035,60.0,4.116666666666666
2026-01-20T23:04:08+00:00,SAT-64024,313.23343512796913,42.97121874991506,2414.775471308997,-0.0947828472583955,3319.696242035391,10.5,10500003319.696241,47.655,-122.3035,60.0,4.133333333333334
2026-01-20T23:04:09+00:00,SAT-64024,313.45786604656996,42.917793722641235,2414.6809412159982,-0.07612112152514673,2666.0836678354353,10.5,10500002666.083668,47.655,-122.3035,60.0,4.15
2026-01-20T23:04:10+00:00,SAT-64024,313.6818461847046,42.86375728849951,2414.60502308413,-0.057457210853469845,2012.3945678494465,10.5,10500002012.394567,47.655,-122.3035,60.0,4.166666666666667
2026-01-20T23:04:11+00:00,SAT-64024,313.90536864879374,42.8091122079302,2414.5477190925053,-0.03879156696739088,1358.6447633636078,10.5,10500001358.644764,47.655,-122.3035,60.0,4.183333333333334
2026-01-20T23:04:12+00:00,SAT-64024,314.1284266335294,42.753861287225675,2414.509030969717,-0.020124641026811926,704.8500559060935,10.5,10500000704.850056,47.655,-122.3035,60.0,4.2
2026-01-20T23:04:13+00:00,SAT-64024,314.3510134242415,42.69800737745756,2414.4889599943995,-0.0014568850739045684,51.026277905890375,10.5,10500000051.026278,47.655,-122.3035,60.0,4.216666666666667
2026-01-20T23:04:14+00:00,SAT-64024,314.5731223956697,42.64155337427196,2414.4875069943528,0.017211248454781048,-602.8107243952115,10.5,10499999397.189276,47.655,-122.3035,60.0,4.233333333333333
2026-01-20T23:04:15+00:00,SAT-64024,314.794747012325,42.584502217295686,2414.504672346145,0.03587930851470873,-1256.645153509638,10.5,10499998743.354847,47.655,-122.3035,60.0,4.25
2026-01-20T23:04:16+00:00,SAT-64024,315.01588083239596,42.526856888597145,2414.5404559765034,0.05454684317805634,-1910.4611810134047,10.5,10499998089.538818,47.655,-122.3035,60.0,4.266666666666667
2026-01-20T23:04:17+00:00,SAT-64024,315.23651750533037,42.46862041274818,2414.5948573614332,0.07321340000725728,-2564.242960629121,10.5,10499997435.75704,47.655,-122.3035,60.0,4.283333333333333
2026-01-20T23:04:18+00:00,SAT-64024,315.45665077314993,42.40979585593057,2414.667875525707,0.09187852786934513,-3217.9746917720117,10.5,10499996782.025309,47.655,-122.3035,60.0,4.3
2026-01-20T23:04:19+00:00,SAT-64024,315.67627447142263,42.35038632508961,2414.7595090441687,0.11054177491527178,-3871.6405487770935,10.5,10499996128.359451,47.655,-122.3035,60.0,4.316666666666666
2026-01-20T23:04:20+00:00,SAT-64024,315.8953825295474,42.29039496726901,2414.8697560410174,0.12920269004561333,-4525.224732234391,10.5,10499995474.775269,47.655,-122.3035,60.0,4.333333333333333
2026-01-20T23:04:21+00:00,SAT-64024,316.11396897125064,42.22982496886235,2414.998614190556,0.14786082242674478,-5178.711452043334,10.5,10499994821.288548,47.655,-122.3035,60.0,4.35
2026-01-20T23:04:22+00:00,SAT-64024,316.33202791518283,42.16867955482239,2415.1460807174567,0.1665157205369116,-5832.084894002142,10.5,10499994167.915106,47.655,-122.3035,60.0,4.366666666666666
2026-01-20T23:04:23+00:00,SAT-64024,316.54955357439246,42.106961988177126,2415.312152396072,0.18516693594026964,-6485.329351990674,10.5,10499993514.670649,47.655,-122.3035,60.0,4.383333333333334
2026-01-20T23:04:24+00:00,SAT-64024,316.766540258922,42.04467556863747,2415.4968255535164,0.20381401596801232,-7138.428971632533,10.5,10499992861.571028,47.655,-122.3035,60.0,4.4
2026-01-20T23:04:25+00:00,SAT-64024,316.9829823723836,41.98182363291284,2415.700096065442,0.22245651490733706,-7791.368142180011,10.5,10499992208.631857,47.655,-122.3035,60.0,4.416666666666667
2026-01-20T23:04:26+00:00,SAT-64024,317.1988744172894,41.91840955249595,2415.9219593629764,0.24109398008283037,-8444.131009025314,10.5,10499991555.868992,47.655,-122.3035,60.0,4.433333333333334
2026-01-20T23:04:27+00:00,SAT-64024,317.4142109896865,41.85443673452386,2416.1624104257785,0.2597259669150198,-9096.702001114745,10.5,10499990903.297998,47.655,-122.3035,60.0,4.45
2026-01-20T23:04:28+00:00,SAT-64024,317.6289867845978,41.78990861947978,2416.4214437901155,0.27835202450268715,-9749.065325980331,10.5,10499990250.934673,47.655,-122.3035,60.0,4.466666666666667
2026-01-20T23:04:29+00:00,SAT-64024,317.84319659171945,41.72482868174809,2416.6990535425525,0.29697170860127664,-10401.205424298581,10.5,10499989598.794577,47.655,-122.3035,60.0,4.483333333333333
2026-01-20T23:04:30+00:00,SAT-64024,318.05683529908765,41.659200427780256,2416.995233326598,0.31558457139141477,-11053.10661154076,10.5,10499988946.893389,47.655,-122.3035,60.0,4.5
2026-01-20T23:04:31+00:00,SAT-64024,318.26989789077675,41.593027396051646,2417.309976339132,0.33419016906612314,-11704.753343709177,10.5,10499988295.246656,47.655,-122.3035,60.0,4.516666666666667
2026-01-20T23:04:32+00:00,SAT-64024,318.4823794487902,41.52631315572038,2417.6432753344143,0.3527880548544855,-12356.12997299651,10.5,10499987643.870028,47.655,-122.3035,60.0,4.533333333333333
2026-01-20T23:04:33+00:00,SAT-64024,318.694275150918,41.45906130652617,2417.9951226211224,0.37137778720906844,-13007.2210345439,10.5,10499986992.778965,47.655,-122.3035,60.0,4.55
2026-01-20T23:04:34+00:00,SAT-64024,318.90558027309316,41.39127547727068,2418.3655100675655,0.3899589237133828,-13658.011033054472,10.5,10499986341.988968,47.655,-122.3035,60.0,4.566666666666666
2026-01-20T23:04:35+00:00,SAT-64024,319.11629018827705,41.32295932537292,2418.7544291008157,0.408531020159973,-14308.48441050414,10.5,10499985691.515589,47.655,-122.3035,60.0,4.583333333333333
2026-01-20T23:04:36+00:00,SAT-64024,319.326400365284,41.25411653644755,2419.161870704922,0.4270936399270716,-14958.625874551693,10.5,10499985041.374125,47.655,-122.3035,60.0,4.6
2026-01-20T23:04:37+00:00,SAT-64024,319.535906371424,41.18475082263194,2419.5878254284758,0.4456463386877914,-15608.419862990047,10.5,10499984391.580137,47.655,-122.3035,60.0,4.616666666666666
2026-01-20T23:04:38+00:00,SAT-64024,319.7448038688999,41.11486592294451,2420.032283376927,0.4641886812250843,-16257.85113267721,10.5,10499983742.148867,47.655,-122.3035,60.0,4.633333333333334
2026-01-20T23:04:39+00:00,SAT-64024,319.95308861758747,41.044465601530135,2420.495234221669,0.48272023100917066,-16906.90439449378,10.5,10499983093.095606,47.655,-122.3035,60.0,4.65
2026-01-20T23:04:40+00:00,SAT-64024,320.1607564740654,40.97355364713141,2420.976667198728,0.501240550002383,-17555.564306507742,10.5,10499982444.435694,47.655,-122.3035,60.0,4.666666666666667
2026-01-20T23:04:41+00:00,SAT-64024,320.3678033901778,40.90213387271996,2421.476571107264,0.5197492043944256,-18203.81567484753,10.5,10499981796.184324,47.655,-122.3035,60.0,4.683333333333334
2026-01-20T23:04:42+00:00,SAT-64024,320.5742254140106,40.83021011430312,2421.99493431378,0.5382457597341377,-18851.643283195754,10.5,10499981148.356716,47.655,-122.3035,60.0,4.7
2026-01-20T23:04:43+00:00,SAT-64024,320.78001868891704,40.75778623038926,2422.5317447514885,0.5567297873371283,-19499.032117211722,10.5,10499980500.967882,47.655,-122.3035,60.0,4.716666666666667
2026-01-20T23:04:44+00:00,SAT-64024,320.98517945462135,40.684866100711666,2423.0869899260592,0.5752008537671515,-20145.966996124665,10.5,10499979854.033005,47.655,-122.3035,60.0,4.733333333333333
2026-01-20T23:04:45+00:00,SAT-64024,321.1897040447593,40.61145362619711,2423.660656910883,0.5936585293823301,-20792.432872058664,10.5,10499979207.567127,47.655,-122.3035,60.0,4.75
2026-01-20T23:04:46+00:00,SAT-64024,321.39358888756755,40.537552727839135,2424.252732350854,0.6121023908833698,-21438.41491928187,10.5,10499978561.585081,47.655,-122.3035,60.0,4.766666666666667
2026-01-20T23:04:47+00:00,SAT-64024,321.59683050658515,40.46316734552079,2424.8632024686945,0.6305320081516835,-22083.898073221964,10.5,10499977916.101927,47.655,-122.3035,60.0,4.783333333333333
2026-01-20T23:04:48+00:00,SAT-64024,321.79942551807494,40.38830143803742,2425.492053058158,0.6489469593679127,-22728.86755998072,10.5,10499977271.13244,47.655,-122.3035,60.0,4.8
2026-01-20T23:04:49+00:00,SAT-64024,322.0013706322285,40.31295898173386,2426.139269492301,0.6673468187307969,-23373.308466196864,10.5,10499976626.691534,47.655,-122.3035,60.0,4.816666666666666
2026-01-20T23:04:50+00:00,SAT-64024,322.2026626514211,40.237143970220906,2426.804836719515,0.6857311695799168,-24017.20619866003,10.5,10499975982.793802,47.655,-122.3035,60.0,4.833333333333333
2026-01-20T23:04:51+00:00,SAT-64024,322.4032984715214,40.160860412948715,2427.4887392726428,0.7040995906712187,-24660.546003621603,10.5,10499975339.453997,47.655,-122.3035,60.0,4.85
2026-01-20T23:04:52+00:00,SAT-64024,322.60327507977144,40.08411233505039,2428.190961264406,0.7224516637149305,-25303.313230804393,10.5,10499974696.68677,47.655,-122.3035,60.0,4.866666666666666
2026-01-20T23:04:53+00:00,SAT-64024,322.8025895546315,40.00690377646596,2428.911486390351,0.7407869726803169,-25945.49330905225,10.5,10499974054.506691,47.655,-122.3035,60.0,4.883333333333334
2026-01-20T23:04:54+00:00,SAT-64024,323.0012390652288,39.92923879118939,2429.650297931104,0.7591051065675101,-26587.07184341127,10.5,10499973412.928156,47.655,-122.3035,60.0,4.9
2026-01-20T23:04:55+00:00,SAT-64024,323.1992208716293,39.851121446203905,2430.407378757387,0.7774056546399003,-27228.03444814797,10.5,10499972771.965551,47.655,-122.3035,60.0,4.916666666666667
2026-01-20T23:04:56+00:00,SAT-64024,323.3965323237447,39.77255582093597,2431.1827113302816,0.7956882007706986,-27868.36654874198,10.5,10499972131.633451,47.655,-122.3035,60.0,4.933333333333334
2026-01-20T23:04:57+00:00,SAT-64024,323.5931708591556,39.693546007145684,2431.97627769585,0.8139523426821049,-28508.054055723114,10.5,10499971491.945944,47.655,-122.3035,60.0,4.95
2026-01-20T23:04:58+00:00,SAT-64024,323.7891340050759,39.614096107176486,2432.788059498952,0.8321976737606964,-29147.082727769328,10.5,10499970852.917273,47.655,-122.3035,60.0,4.966666666666667
2026-01-20T23:04:59+00:00,SAT-64024,323.98441937631117,39.53421023378181,2433.6180379789157,0.850423788820131,-29785.438373540987,10.5,10499970214.561626,47.655,-122.3035,60.0,4.983333333333333
2026-01-20T23:05:00+00:00,SAT-64024,324.17902467443304,39.45389250947825,2434.466193970966,0.8686302870655941,-30423.106955508327,10.5,10499969576.893045,47.655,-122.3035,60.0,5.0
2026-01-20T23:05:01+00:00,SAT-64024,324.37294768760296,39.373147065631855,2435.332507910599,0.8868167682745265,-31060.074456184375,10.5,10499968939.925545,47.655,-122.3035,60.0,5.016666666666667
2026-01-20T23:05:02+00:00,SAT-64024,324.5661862895404,39.29197804189291,2436.216959834158,0.904982838608625,-31696.32708168583,10.5,10499968303.672918,47.655,-122.3035,60.0,5.033333333333333
2026-01-20T23:05:03+00:00,SAT-64024,324.75873843962466,39.210389585150565,2437.119529385197,0.9231280962917027,-32331.850760111112,10.5,10499967668.14924,47.655,-122.3035,60.0,5.05
2026-01-20T23:05:04+00:00,SAT-64024,324.95060218018796,39.12838584968034,2438.0401958065654,0.9412521562944306,-32966.63200610444,10.5,10499967033.367994,47.655,-122.3035,60.0,5.066666666666666
2026-01-20T23:05:05+00:00,SAT-64024,325.1417756385717,39.045970995270075,2438.97893795711,0.9593546269536865,-33600.65710196654,10.5,10499966399.342897,47.655,-122.3035,60.0,5.083333333333333
2026-01-20T23:05:06+00:00,SAT-64024,325.332257024564,38.96314918730284,2439.9357343050583,0.9774351134259085,-34233.91221860571,10.5,10499965766.087782,47.655,-122.3035,60.0,5.1
2026-01-20T23:05:07+00:00,SAT-64024,325.5220446287782,38.879924596460626,2440.9105629248484,0.9954932359016928,-34866.384053490016,10.5,10499965133.615946,47.655,-122.3035,60.0,5.116666666666666
2026-01-20T23:05:08+00:00,SAT-64024,325.711136824047,38.79630139711855,2441.903401512121,1.0135286118729887,-35498.05920956952,10.5,10499964501.94079,47.655,-122.3035,60.0,5.133333333333334
2026-01-20T23:05:09+00:00,SAT-64024,325.8995320637659,38.712283767053066,2442.914227381029,1.031540857960148,-36128.92425926723,10.5,10499963871.07574,47.655,-122.3035,60.0,5.15
2026-01-20T23:05:10+00:00,SAT-64024,326.0872288804511,38.627875887070594,2443.943017463368,1.0495295986695685,-36758.966051208896,10.5,10499963241.033949,47.655,-122.3035,60.0,5.166666666666667
2026-01-20T23:05:11+00:00,SAT-64024,326.2742258858908,38.54308193993527,2444.989748316441,1.0674944513326017,-37388.17118271974,10.5,10499962611.828817,47.655,-122.3035,60.0,5.183333333333334
2026-01-20T23:05:12+00:00,SAT-64024,326.4605217687061,38.45790611045967,2446.0543961159033,1.0854350526361491,-38016.526929038235,10.5,10499961983.47307,47.655,-122.3035,60.0,5.2
2026-01-20T23:05:13+00:00,SAT-64024,326.6461152962456,38.37235258363434,2447.1369366750655,1.1033510242995315,-38644.02004117489,10.5,10499961355.97996,47.655,-122.3035,60.0,5.216666666666667
2026-01-20T23:05:14+00:00,SAT-64024,326.8310053108593,38.286425545315005,2448.2373454299673,1.1212420029476478,-39270.63779219656,10.5,10499960729.362207,47.655,-122.3035,60.0,5.233333333333333
