satellites_20260121_005943/SAT-64419.csv

timestamp,satellite,azimuth_deg,elevation_deg,distance_km,relative_velocity_kms,doppler_shift_hz,tx_freq_ghz,rx_freq_hz,ue_lat,ue_lon,ue_alt_m,time_minutes
2026-01-20T23:00:00+00:00,SAT-64419,253.67042730749145,32.0199295939569,3389.7118463193888,-6.68935525284042,234289.51689913563,10.5,10500234289.5169,47.655,-122.3035,60.0,0.0
2026-01-20T23:00:01+00:00,SAT-64419,253.6664925267732,32.07422949210976,3383.0403293472227,-6.6896762119266535,234300.75824399112,10.5,10500234300.758244,47.655,-122.3035,60.0,0.016666666666666666
2026-01-20T23:00:02+00:00,SAT-64419,253.66259399180478,32.12862544975603,3376.368492271861,-6.68999133261214,234311.79510335604,10.5,10500234311.795103,47.655,-122.3035,60.0,0.03333333333333333
2026-01-20T23:00:03+00:00,SAT-64419,253.65873198516113,32.18311803958452,3369.696340916136,-6.690300582509558,234322.6263428894,10.5,10500234322.626343,47.655,-122.3035,60.0,0.05
2026-01-20T23:00:04+00:00,SAT-64419,253.6549067922442,32.23770783874277,3363.0238811351796,-6.690603912925864,234333.25025715484,10.5,10500234333.250257,47.655,-122.3035,60.0,0.06666666666666667
2026-01-20T23:00:05+00:00,SAT-64419,253.65111870132898,32.292395428751,3356.351118832688,-6.690901313743928,234343.6664918076,10.5,10500234343.666492,47.655,-122.3035,60.0,0.08333333333333333
2026-01-20T23:00:06+00:00,SAT-64419,253.64736800359734,32.34718139586218,3349.6780599224476,-6.691192746760361,234353.87370880353,10.5,10500234353.873709,47.655,-122.3035,60.0,0.1
2026-01-20T23:00:07+00:00,SAT-64419,253.64365499317933,32.402066330878725,3343.0047103563447,-6.691478144399211,234363.86954134688,10.5,10500234363.869541,47.655,-122.3035,60.0,0.11666666666666667
2026-01-20T23:00:08+00:00,SAT-64419,253.6399799671651,32.457050828955694,3336.3310761536645,-6.691757519075273,234373.6544242563,10.5,10500234373.654425,47.655,-122.3035,60.0,0.13333333333333333
2026-01-20T23:00:09+00:00,SAT-64419,253.63634322568294,32.51213549030904,3329.6571633213066,-6.692030836838958,234383.2271684735,10.5,10500234383.227169,47.655,-122.3035,60.0,0.15
2026-01-20T23:00:10+00:00,SAT-64419,253.63274507190212,32.56732091988083,3322.9829779000324,-6.692298018086787,234392.58498594805,10.5,10500234392.584986,47.655,-122.3035,60.0,0.16666666666666666
2026-01-20T23:00:11+00:00,SAT-64419,253.62918581208243,32.62260772700832,3316.3085260099942,-6.69255907385831,234401.7282633316,10.5,10500234401.728264,47.655,-122.3035,60.0,0.18333333333333332
2026-01-20T23:00:12+00:00,SAT-64419,253.62566575561806,32.67799652622477,3309.633813760333,-6.692813935286191,234410.65458859876,10.5,10500234410.654589,47.655,-122.3035,60.0,0.2
2026-01-20T23:00:13+00:00,SAT-64419,253.62218521506503,32.733487936644764,3302.9588473288736,-6.693062607020132,234419.3641246018,10.5,10500234419.364124,47.655,-122.3035,60.0,0.21666666666666667
2026-01-20T23:00:14+00:00,SAT-64419,253.61874450619678,32.78908258262709,3296.2836328888056,-6.693305019480274,234427.85443435964,10.5,10500234427.854435,47.655,-122.3035,60.0,0.23333333333333334
2026-01-20T23:00:15+00:00,SAT-64419,253.615343948032,32.844781093206,3289.6081766827106,-6.693541153726788,234436.12485451944,10.5,10500234436.124855,47.655,-122.3035,60.0,0.25
2026-01-20T23:00:16+00:00,SAT-64419,253.61198386287344,32.9005841025644,3282.9324849720606,-6.6937709396126435,234444.17292823544,10.5,10500234444.172928,47.655,-122.3035,60.0,0.26666666666666666
2026-01-20T23:00:17+00:00,SAT-64419,253.60866457635743,32.956492249656975,3276.2565640882867,-6.6939944030311285,234451.99956240007,10.5,10500234451.999563,47.655,-122.3035,60.0,0.2833333333333333
2026-01-20T23:00:18+00:00,SAT-64419,253.60538641749957,33.01250617906896,3269.580420336997,-6.694211478734447,234459.60247175963,10.5,10500234459.602472,47.655,-122.3035,60.0,0.3
2026-01-20T23:00:19+00:00,SAT-64419,253.60214971873614,33.06862654030434,3262.904060088873,-6.694422089250088,234466.97894289898,10.5,10500234466.978943,47.655,-122.3035,60.0,0.31666666666666665
2026-01-20T23:00:20+00:00,SAT-64419,253.59895481593782,33.12485398773299,3256.227489791861,-6.694626254244629,234474.1296646249,10.5,10500234474.129665,47.655,-122.3035,60.0,0.3333333333333333
2026-01-20T23:00:21+00:00,SAT-64419,253.59580204850886,33.18118918146666,3249.550715874294,-6.694823906597488,234481.05228609065,10.5,10500234481.052286,47.655,-122.3035,60.0,0.35
2026-01-20T23:00:22+00:00,SAT-64419,253.59269175938365,33.23763278667889,3242.8737448314473,-6.695015019796363,234487.74587872325,10.5,10500234487.745878,47.655,-122.3035,60.0,0.36666666666666664
2026-01-20T23:00:23+00:00,SAT-64419,253.58962429510075,33.29418547400672,3236.196583185037,-6.695199531867919,234494.2082719544,10.5,10500234494.208271,47.655,-122.3035,60.0,0.38333333333333336
2026-01-20T23:00:24+00:00,SAT-64419,253.5866000058267,33.350847919302474,3229.5192375185875,-6.695377443634964,234500.43949460238,10.5,10500234500.439495,47.655,-122.3035,60.0,0.4
2026-01-20T23:00:25+00:00,SAT-64419,253.58361924543664,33.40762080422698,3222.8417144148025,-6.695548675298862,234506.4367517813,10.5,10500234506.436752,47.655,-122.3035,60.0,0.4166666666666667
2026-01-20T23:00:26+00:00,SAT-64419,253.58068237151485,33.46450481561861,3216.164020535971,-6.695713221263606,234512.1998474954,10.5,10500234512.199848,47.655,-122.3035,60.0,0.43333333333333335
2026-01-20T23:00:27+00:00,SAT-64419,253.57778974545448,33.521500646186055,3209.4861625499643,-6.6958710008823425,234517.72595715066,10.5,10500234517.725958,47.655,-122.3035,60.0,0.45
2026-01-20T23:00:28+00:00,SAT-64419,253.57494173245334,33.57860899392313,3202.808147205084,-6.6960220019506815,234523.01465329778,10.5,10500234523.014654,47.655,-122.3035,60.0,0.4666666666666667
2026-01-20T23:00:29+00:00,SAT-64419,253.57213870161263,33.635830562755636,3196.1299812618054,-6.696166188762626,234528.06468536166,10.5,10500234528.064686,47.655,-122.3035,60.0,0.48333333333333334
2026-01-20T23:00:30+00:00,SAT-64419,253.5693810259636,33.693166062400536,3189.4516715162126,-6.696303514105577,234532.87439975745,10.5,10500234532.8744,47.655,-122.3035,60.0,0.5
2026-01-20T23:00:31+00:00,SAT-64419,253.56666908252345,33.75061620832837,3182.773224811478,-6.696433906863326,234537.4413056946,10.5,10500234537.441305,47.655,-122.3035,60.0,0.5166666666666667
2026-01-20T23:00:32+00:00,SAT-64419,253.56400325233096,33.808181721615185,3176.0946480617,-6.696557364640632,234541.76531928175,10.5,10500234541.76532,47.655,-122.3035,60.0,0.5333333333333333
2026-01-20T23:00:33+00:00,SAT-64419,253.56138392052958,33.86586332960136,3169.415948183365,-6.696673827245979,234545.84433235734,10.5,10500234545.844332,47.655,-122.3035,60.0,0.55
2026-01-20T23:00:34+00:00,SAT-64419,253.5588114764082,33.92366176545394,3162.7371321529913,-6.696783245165548,234549.676610738,10.5,10500234549.67661,47.655,-122.3035,60.0,0.5666666666666667
2026-01-20T23:00:35+00:00,SAT-64419,253.55628631343848,33.98157776832175,3156.0582069964794,-6.696885569285998,234553.26043426676,10.5,10500234553.260435,47.655,-122.3035,60.0,0.5833333333333334
2026-01-20T23:00:36+00:00,SAT-64419,253.55380882935816,34.039612083404535,3149.3791797887116,-6.69698078323452,234556.59522949858,10.5,10500234556.59523,47.655,-122.3035,60.0,0.6
2026-01-20T23:00:37+00:00,SAT-64419,253.55137942621872,34.09776546230193,3142.7000576208993,-6.6970688195520545,234559.6786337319,10.5,10500234559.678635,47.655,-122.3035,60.0,0.6166666666666667
2026-01-20T23:00:38+00:00,SAT-64419,253.5489985104336,34.15603866263592,3136.020847651532,-6.6971496441085945,234562.5094515895,10.5,10500234562.50945,47.655,-122.3035,60.0,0.6333333333333333
2026-01-20T23:00:39+00:00,SAT-64419,253.5466664928453,34.214432448407074,3129.3415570731413,-6.69722319412731,234565.0854843612,10.5,10500234565.085484,47.655,-122.3035,60.0,0.65
2026-01-20T23:00:40+00:00,SAT-64419,253.54438378878046,34.272947589811835,3122.6621931408654,-6.697289445802172,234567.40589825914,10.5,10500234567.4059,47.655,-122.3035,60.0,0.6666666666666666
2026-01-20T23:00:41+00:00,SAT-64419,253.54215081811117,34.33158486365207,3115.9827631335856,-6.697348324352198,234569.46807413708,10.5,10500234569.468075,47.655,-122.3035,60.0,0.6833333333333333
2026-01-20T23:00:42+00:00,SAT-64419,253.5399680053189,34.390345052958345,3109.3032744047646,-6.69739982189744,234571.27173600582,10.5,10500234571.271736,47.655,-122.3035,60.0,0.7
2026-01-20T23:00:43+00:00,SAT-64419,253.53783577955963,34.449228947646965,3102.6237343157254,-6.697443850885354,234572.813817405,10.5,10500234572.813818,47.655,-122.3035,60.0,0.7166666666666667
2026-01-20T23:00:44+00:00,SAT-64419,253.53575457471254,34.50823734388828,3095.9441503151093,-6.697480397079688,234574.09381972085,10.5,10500234574.09382,47.655,-122.3035,60.0,0.7333333333333333
2026-01-20T23:00:45+00:00,SAT-64419,253.5337248294651,34.56737104482768,3089.2645298657553,-6.697509371926706,234575.1086414269,10.5,10500234575.10864,47.655,-122.3035,60.0,0.75
2026-01-20T23:00:46+00:00,SAT-64419,253.53174698734955,34.6266308599979,3082.5848805188202,-6.697530771529376,234575.85814603264,10.5,10500234575.858147,47.655,-122.3035,60.0,0.7666666666666667
2026-01-20T23:00:47+00:00,SAT-64419,253.52982149684902,34.68601760614614,3075.905209829348,-6.6975444947169,234576.33879010874,10.5,10500234576.33879,47.655,-122.3035,60.0,0.7833333333333333
2026-01-20T23:00:48+00:00,SAT-64419,253.52794881141875,34.745532106439974,3069.225525453284,-6.6975505653740806,234576.55141020205,10.5,10500234576.55141,47.655,-122.3035,60.0,0.8
2026-01-20T23:00:49+00:00,SAT-64419,253.52612938961565,34.80517519166322,3062.545835022751,-6.697548835365528,234576.49081798465,10.5,10500234576.490818,47.655,-122.3035,60.0,0.8166666666666667
2026-01-20T23:00:50+00:00,SAT-64419,253.5243636950816,34.864947698747386,3055.8661463176127,-6.697539333052957,234576.15800680366,10.5,10500234576.158007,47.655,-122.3035,60.0,0.8333333333333334
2026-01-20T23:00:51+00:00,SAT-64419,253.52265219670088,34.92485047243422,3049.1864670894483,-6.6975219779811095,234575.55015877567,10.5,10500234575.55016,47.655,-122.3035,60.0,0.85
2026-01-20T23:00:52+00:00,SAT-64419,253.52099536863062,34.98488436437752,3042.506805170075,-6.697496694494867,234574.66462413844,10.5,10500234574.664623,47.655,-122.3035,60.0,0.8666666666666667
2026-01-20T23:00:53+00:00,SAT-64419,253.5193936903508,35.04505023326053,3035.827168466765,-6.697463486683366,234573.50154611078,10.5,10500234573.501547,47.655,-122.3035,60.0,0.8833333333333333
2026-01-20T23:00:54+00:00,SAT-64419,253.5178476468148,35.10534894560156,3029.1475648827136,-6.6974222492023054,234572.05723508965,10.5,10500234572.057236,47.655,-122.3035,60.0,0.9
2026-01-20T23:00:55+00:00,SAT-64419,253.5163577284362,35.16578137484048,3022.468002426175,-6.697372950716886,234570.33059359787,10.5,10500234570.330593,47.655,-122.3035,60.0,0.9166666666666666
2026-01-20T23:00:56+00:00,SAT-64419,253.51492443122487,35.226348402094175,3015.7884891366602,-6.697315507402356,234568.31868573805,10.5,10500234568.318686,47.655,-122.3035,60.0,0.9333333333333333
2026-01-20T23:00:57+00:00,SAT-64419,253.51354825682137,35.28705091575781,3009.1090331372775,-6.6972499155410885,234566.02138130317,10.5,10500234566.021381,47.655,-122.3035,60.0,0.95
2026-01-20T23:00:58+00:00,SAT-64419,253.51222971264838,35.347889812325555,3002.4296425548446,-6.697176072786261,234563.43509567456,10.5,10500234563.435095,47.655,-122.3035,60.0,0.9666666666666667
2026-01-20T23:00:59+00:00,SAT-64419,253.51096931189733,35.40886599556826,2995.7503256182526,-6.697093957115695,234560.55905754238,10.5,10500234560.559057,47.655,-122.3035,60.0,0.9833333333333333
2026-01-20T23:01:00+00:00,SAT-64419,253.5097675736999,35.4699803773607,2989.071090578356,-6.697003476313422,234557.39003711336,10.5,10500234557.390038,47.655,-122.3035,60.0,1.0
2026-01-20T23:01:01+00:00,SAT-64419,253.50862502312708,35.531233877117714,2982.39194577798,-6.696904595767641,234553.92682213584,10.5,10500234553.926823,47.655,-122.3035,60.0,1.0166666666666666
2026-01-20T23:01:02+00:00,SAT-64419,253.5075421913511,35.59262742241868,2975.712899594467,-6.6967972449216955,234550.1669414172,10.5,10500234550.16694,47.655,-122.3035,60.0,1.0333333333333334
2026-01-20T23:01:03+00:00,SAT-64419,253.5065196156778,35.654161948759395,2969.033960475532,-6.696681387520711,234546.10912515843,10.5,10500234546.109125,47.655,-122.3035,60.0,1.05
2026-01-20T23:01:04+00:00,SAT-64419,253.50555783967712,35.71583839996468,2962.3551369050447,-6.696556923489609,234541.74986830688,10.5,10500234541.749868,47.655,-122.3035,60.0,1.0666666666666667
2026-01-20T23:01:05+00:00,SAT-64419,253.50465741321662,35.77765772768431,2955.676437466684,-6.696423831663577,234537.08842958137,10.5,10500234537.08843,47.655,-122.3035,60.0,1.0833333333333333
2026-01-20T23:01:06+00:00,SAT-64419,253.50381889262303,35.839620892220836,2948.9978707652385,-6.69628202946859,234532.12191689026,10.5,10500234532.121918,47.655,-122.3035,60.0,1.1
2026-01-20T23:01:07+00:00,SAT-64419,253.5030428407092,35.901728862049495,2942.3194454878485,-6.696131464793829,234526.84850509214,10.5,10500234526.848505,47.655,-122.3035,60.0,1.1166666666666667
2026-01-20T23:01:08+00:00,SAT-64419,253.50232982692245,35.963982614201406,2935.6411703736276,-6.695972052353407,234521.26520711463,10.5,10500234521.265207,47.655,-122.3035,60.0,1.1333333333333333
2026-01-20T23:01:09+00:00,SAT-64419,253.50168042738005,36.026383134042966,2928.963054246747,-6.695803774682862,234515.3714112783,10.5,10500234515.37141,47.655,-122.3035,60.0,1.15
2026-01-20T23:01:10+00:00,SAT-64419,253.5010952250537,36.08893141601489,2922.2851059487966,-6.695626516101717,234509.16306596354,10.5,10500234509.163067,47.655,-122.3035,60.0,1.1666666666666667
2026-01-20T23:01:11+00:00,SAT-64419,253.50057480976164,36.151628462803586,2915.607334436738,-6.695440246156935,234502.6391045762,10.5,10500234502.639105,47.655,-122.3035,60.0,1.1833333333333333
2026-01-20T23:01:12+00:00,SAT-64419,253.50011977836516,36.21447528624573,2908.929748697904,-6.695244864865427,234495.79602528556,10.5,10500234495.796026,47.655,-122.3035,60.0,1.2
2026-01-20T23:01:13+00:00,SAT-64419,253.49973073479316,36.27747290676932,2902.252357819345,-6.695040357538115,234488.63331361796,10.5,10500234488.633314,47.655,-122.3035,60.0,1.2166666666666666
2026-01-20T23:01:14+00:00,SAT-64419,253.4994082902358,36.340622354308735,2895.5751709027604,-6.694826616875068,234481.1472114759,10.5,10500234481.147211,47.655,-122.3035,60.0,1.2333333333333334
2026-01-20T23:01:15+00:00,SAT-64419,253.49915306315899,36.403924667524834,2888.8981971568633,-6.6946035866976725,234473.33575124684,10.5,10500234473.33575,47.655,-122.3035,60.0,1.25
2026-01-20T23:01:16+00:00,SAT-64419,253.49896567947263,36.46738089439809,2882.221445846397,-6.69437119814215,234465.1965210298,10.5,10500234465.196522,47.655,-122.3035,60.0,1.2666666666666666
2026-01-20T23:01:17+00:00,SAT-64419,253.4988467726081,36.53099209221145,2875.544926304783,-6.694129382101794,234456.72710041574,10.5,10500234456.7271,47.655,-122.3035,60.0,1.2833333333333334
2026-01-20T23:01:18+00:00,SAT-64419,253.4987969836593,36.59475932765847,2868.868647934367,-6.693878068209511,234447.92502485123,10.5,10500234447.925024,47.655,-122.3035,60.0,1.3
2026-01-20T23:01:19+00:00,SAT-64419,253.49881696146812,36.6586836769369,2862.192620207673,-6.693617191287131,234438.7880115212,10.5,10500234438.788012,47.655,-122.3035,60.0,1.3166666666666667
2026-01-20T23:01:20+00:00,SAT-64419,253.49890736277052,36.7227662259111,2855.5168526622288,-6.693346656720397,234429.3127466341,10.5,10500234429.312746,47.655,-122.3035,60.0,1.3333333333333333
2026-01-20T23:01:21+00:00,SAT-64419,253.4990688522708,36.78700806993765,2848.841354929926,-6.693066437566039,234419.49828652263,10.5,10500234419.498287,47.655,-122.3035,60.0,1.35
2026-01-20T23:01:22+00:00,SAT-64419,253.49930210283685,36.85141031463438,2842.166136669527,-6.692776408896521,234409.3402556961,10.5,10500234409.340256,47.655,-122.3035,60.0,1.3666666666666667
2026-01-20T23:01:23+00:00,SAT-64419,253.49960779552143,36.915974075043124,2835.4912076643877,-6.692476519409601,234398.83685733282,10.5,10500234398.836857,47.655,-122.3035,60.0,1.3833333333333333
2026-01-20T23:01:24+00:00,SAT-64419,253.49998661977162,36.98070047646164,2828.8165777490303,-6.692166699484758,234387.98565302786,10.5,10500234387.985653,47.655,-122.3035,60.0,1.4
2026-01-20T23:01:25+00:00,SAT-64419,253.50043927352021,37.045590654381805,2822.1422568274106,-6.691846884623824,234376.78438378242,10.5,10500234376.784384,47.655,-122.3035,60.0,1.4166666666666667
2026-01-20T23:01:26+00:00,SAT-64419,253.50096646334546,37.11064575466119,2815.4682548678124,-6.691516946596343,234365.22855842358,10.5,10500234365.228558,47.655,-122.3035,60.0,1.4333333333333333
2026-01-20T23:01:27+00:00,SAT-64419,253.5015689045137,37.17586693301506,2808.7945819664073,-6.691176853129344,234353.31704661532,10.5,10500234353.317047,47.655,-122.3035,60.0,1.45
2026-01-20T23:01:28+00:00,SAT-64419,253.50224732123425,37.241255356081155,2802.1212482515525,-6.690826531209941,234341.0472911376,10.5,10500234341.04729,47.655,-122.3035,60.0,1.4666666666666666
2026-01-20T23:01:29+00:00,SAT-64419,253.503002446737,37.30681220114441,2795.448263924426,-6.69046587284296,234328.41550954257,10.5,10500234328.41551,47.655,-122.3035,60.0,1.4833333333333334
2026-01-20T23:01:30+00:00,SAT-64419,253.50383502339506,37.37253865591616,2788.7756392939104,-6.690094808664532,234315.41927241406,10.5,10500234315.419271,47.655,-122.3035,60.0,1.5
2026-01-20T23:01:31+00:00,SAT-64419,253.5047458028883,37.438435919040195,2782.103384738069,-6.689713257322904,234302.05573046967,10.5,10500234302.05573,47.655,-122.3035,60.0,1.5166666666666666
2026-01-20T23:01:32+00:00,SAT-64419,253.50573554635477,37.50450520010399,2775.431510716099,-6.689321141994558,234288.32219302483,10.5,10500234288.322193,47.655,-122.3035,60.0,1.5333333333333334
2026-01-20T23:01:33+00:00,SAT-64419,253.50680502452553,37.57074771981364,2768.7600277638167,-6.688918367898032,234274.21534043175,10.5,10500234274.21534,47.655,-122.3035,60.0,1.55
2026-01-20T23:01:34+00:00,SAT-64419,253.507955017876,37.63716470994522,2762.088946511566,-6.688504850459968,234259.7322105737,10.5,10500234259.73221,47.655,-122.3035,60.0,1.5666666666666667
2026-01-20T23:01:35+00:00,SAT-64419,253.50918631676632,37.7037574135791,2755.418277674041,-6.688080515831457,234244.87021694955,10.5,10500234244.870216,47.655,-122.3035,60.0,1.5833333333333333
2026-01-20T23:01:36+00:00,SAT-64419,253.51049972163906,37.770527085344604,2748.7480320395853,-6.687645283154734,234229.62652757834,10.5,10500234229.626528,47.655,-122.3035,60.0,1.6
2026-01-20T23:01:37+00:00,SAT-64419,253.51189604314385,37.8374749914854,2742.0782204771854,-6.687199030820436,234213.9968831857,10.5,10500234213.996883,47.655,-122.3035,60.0,1.6166666666666667
2026-01-20T23:01:38+00:00,SAT-64419,253.5133761022728,37.904602409585486,2735.4088539771137,-6.6867417044078765,234197.97937772906,10.5,10500234197.979378,47.655,-122.3035,60.0,1.6333333333333333
2026-01-20T23:01:39+00:00,SAT-64419,253.5149407305915,37.971910629388795,2728.7399435839175,-6.686273203221442,234181.5704844221,10.5,10500234181.570484,47.655,-122.3035,60.0,1.65
2026-01-20T23:01:40+00:00,SAT-64419,253.5165907703652,38.03940095247467,2722.0715004425715,-6.68579344773897,234164.76741806223,10.5,10500234164.767418,47.655,-122.3035,60.0,1.6666666666666667
2026-01-20T23:01:41+00:00,SAT-64419,253.5183270747441,38.1070746926147,2715.4035357773596,-6.685302312251792,234147.56577580018,10.5,10500234147.565775,47.655,-122.3035,60.0,1.6833333333333333
2026-01-20T23:01:42+00:00,SAT-64419,253.52015050789583,38.174933175447215,2708.7360609379407,-6.684799749340461,234129.96389680638,10.5,10500234129.963898,47.655,-122.3035,60.0,1.7
2026-01-20T23:01:43+00:00,SAT-64419,253.52206194526337,38.24297773942534,2702.069087321265,-6.684285613950925,234111.9567006743,10.5,10500234111.956701,47.655,-122.3035,60.0,1.7166666666666666
2026-01-20T23:01:44+00:00,SAT-64419,253.52406227364622,38.311209734965146,2695.4026264689514,-6.683759884888896,234093.5434450903,10.5,10500234093.543446,47.655,-122.3035,60.0,1.7333333333333334
2026-01-20T23:01:45+00:00,SAT-64419,253.5261523915241,38.379630525873644,2688.7366899437557,-6.683222369445567,234074.71738057685,10.5,10500234074.71738,47.655,-122.3035,60.0,1.75
2026-01-20T23:01:46+00:00,SAT-64419,253.52833320904622,38.448241487729746,2682.0712895006286,-6.682673049552203,234055.47787429037,10.5,10500234055.477875,47.655,-122.3035,60.0,1.7666666666666666
2026-01-20T23:01:47+00:00,SAT-64419,253.5306056484254,38.517044009844824,2675.4064369125417,-6.682111792745893,234035.82028681948,10.5,10500234035.820288,47.655,-122.3035,60.0,1.7833333333333334
2026-01-20T23:01:48+00:00,SAT-64419,253.53297064401278,38.58603949423822,2668.7421440845765,-6.681538516175126,234015.74171635375,10.5,10500234015.741716,47.655,-122.3035,60.0,1.8
2026-01-20T23:01:49+00:00,SAT-64419,253.53542914254376,38.655229356310294,2662.078423004444,-6.680953079134687,233995.23723480132,10.5,10500233995.237234,47.655,-122.3035,60.0,1.8166666666666667
2026-01-20T23:01:50+00:00,SAT-64419,253.53798210327778,38.724615024398545,2655.4152858001876,-6.680355436036246,233974.30524546612,10.5,10500233974.305246,47.655,-122.3035,60.0,1.8333333333333333
2026-01-20T23:01:51+00:00,SAT-64419,253.54063049832067,38.7941979409377,2648.7527446453137,-6.679745444073604,233952.94074667094,10.5,10500233952.940746,47.655,-122.3035,60.0,1.85
2026-01-20T23:01:52+00:00,SAT-64419,253.54337531273353,38.86397956160985,2642.090811855758,-6.679123003739364,233931.1402532459,10.5,10500233931.140253,47.655,-122.3035,60.0,1.8666666666666667
2026-01-20T23:01:53+00:00,SAT-64419,253.5462175447716,38.933961355959354,2635.429499846695,-6.6784880263197,233908.90065805742,10.5,10500233908.900658,47.655,-122.3035,60.0,1.8833333333333333
2026-01-20T23:01:54+00:00,SAT-64419,253.54915820615815,39.00414480768451,2628.7688211217787,-6.677840387229618,233886.2175976121,10.5,10500233886.217598,47.655,-122.3035,60.0,1.9
2026-01-20T23:01:55+00:00,SAT-64419,253.55219832222673,39.07453141442602,2622.1087883089153,-6.677179977986559,233863.08727239186,10.5,10500233863.087273,47.655,-122.3035,60.0,1.9166666666666667
2026-01-20T23:01:56+00:00,SAT-64419,253.55533893220337,39.145122688114014,2615.4494141442037,-6.6765067111009975,233839.5066181434,10.5,10500233839.506618,47.655,-122.3035,60.0,1.9333333333333333
2026-01-20T23:01:57+00:00,SAT-64419,253.55858108945182,39.2159201553689,2608.7907114509985,-6.675820441368956,233815.47054920922,10.5,10500233815.470549,47.655,-122.3035,60.0,1.95
2026-01-20T23:01:58+00:00,SAT-64419,253.56192586164104,39.28692535706424,2602.1326931974736,-6.675121078527553,233790.97590420142,10.5,10500233790.975904,47.655,-122.3035,60.0,1.9666666666666666
2026-01-20T23:01:59+00:00,SAT-64419,253.56537433106251,39.358139849095195,2595.475372441822,-6.674408502815313,233766.01848856645,10.5,10500233766.018488,47.655,-122.3035,60.0,1.9833333333333334
2026-01-20T23:02:00+00:00,SAT-64419,253.568927594846,39.42956520224719,2588.8187623616805,-6.673682604246356,233740.5944501337,10.5,10500233740.59445,47.655,-122.3035,60.0,2.0
2026-01-20T23:02:01+00:00,SAT-64419,253.57258676521548,39.50120300248816,2582.1628762443793,-6.6729432432056015,233714.69889899238,10.5,10500233714.698898,47.655,-122.3035,60.0,2.0166666666666666
2026-01-20T23:02:02+00:00,SAT-64419,253.57635296972217,39.57305485083557,2575.5077275164886,-6.672190329412379,233688.32867313153,10.5,10500233688.328672,47.655,-122.3035,60.0,2.033333333333333
2026-01-20T23:02:03+00:00,SAT-64419,253.5802273515646,39.64512236408335,2568.853329694621,-6.671423748667676,233661.4797728187,10.5,10500233661.479773,47.655,-122.3035,60.0,2.05
2026-01-20T23:02:04+00:00,SAT-64419,253.5842110698497,39.71740717473961,2562.1996964092837,-6.670643339644749,233634.1465477089,10.5,10500233634.146547,47.655,-122.3035,60.0,2.066666666666667
2026-01-20T23:02:05+00:00,SAT-64419,253.58830529976308,39.789910930703385,2555.5468414518778,-6.669849007757294,233606.32568498963,10.5,10500233606.325686,47.655,-122.3035,60.0,2.0833333333333335
2026-01-20T23:02:06+00:00,SAT-64419,253.59251123298657,39.86263529619649,2548.894778708141,-6.6690406225793435,233578.0126165919,10.5,10500233578.012617,47.655,-122.3035,60.0,2.1
2026-01-20T23:02:07+00:00,SAT-64419,253.59683007790645,39.935581951571066,2542.2435221938886,-6.668218058101874,233549.20292914665,10.5,10500233549.202929,47.655,-122.3035,60.0,2.1166666666666667
2026-01-20T23:02:08+00:00,SAT-64419,253.60126305993512,40.00875259356509,2535.5930860506087,-6.6673811806788414,233519.89194180406,10.5,10500233519.891941,47.655,-122.3035,60.0,2.1333333333333333
2026-01-20T23:02:09+00:00,SAT-64419,253.60581142177455,40.08214893542173,2528.943484553078,-6.666529878104468,233490.07572464316,10.5,10500233490.075726,47.655,-122.3035,60.0,2.15
2026-01-20T23:02:10+00:00,SAT-64419,253.61047642378983,40.15577270734114,2522.294732087982,-6.665664002098014,233459.7490842453,10.5,10500233459.749084,47.655,-122.3035,60.0,2.1666666666666665
2026-01-20T23:02:11+00:00,SAT-64419,253.61525934422738,40.229625656289066,2515.6468431898898,-6.66478342575192,233428.90757577083,10.5,10500233428.907576,47.655,-122.3035,60.0,2.183333333333333
2026-01-20T23:02:12+00:00,SAT-64419,253.62016147960446,40.3037095464526,2508.9998325199394,-6.663888008786858,233397.54628604438,10.5,10500233397.546286,47.655,-122.3035,60.0,2.2
2026-01-20T23:02:13+00:00,SAT-64419,253.6251841449809,40.37802615930607,2502.353714879176,-6.662977632194021,233365.66104687407,10.5,10500233365.661047,47.655,-122.3035,60.0,2.216666666666667
2026-01-20T23:02:14+00:00,SAT-64419,253.63032867436132,40.45257729407647,2495.7085051873346,-6.662052152216842,233333.24682329682,10.5,10500233333.246822,47.655,-122.3035,60.0,2.2333333333333334
2026-01-20T23:02:15+00:00,SAT-64419,253.63559642096817,40.52736476768619,2489.0642185075235,-6.66111140088767,233300.297732375,10.5,10500233300.297733,47.655,-122.3035,60.0,2.25
2026-01-20T23:02:16+00:00,SAT-64419,253.64098875755445,40.60239041470459,2482.4208700703716,-6.660155270651445,233266.81000707555,10.5,10500233266.810007,47.655,-122.3035,60.0,2.2666666666666666
2026-01-20T23:02:17+00:00,SAT-64419,253.64650707687056,40.677656088265664,2475.7784752137754,-6.659183612654159,233232.77843390135,10.5,10500233232.778435,47.655,-122.3035,60.0,2.283333333333333
2026-01-20T23:02:18+00:00,SAT-64419,253.6521527919616,40.75316365983515,2469.137049424088,-6.658196269986512,233198.197517225,10.5,10500233198.197517,47.655,-122.3035,60.0,2.3
2026-01-20T23:02:19+00:00,SAT-64419,253.65792733649243,40.82891501934763,2462.496608344155,-6.657193101531123,233163.06231451893,10.5,10500233163.062315,47.655,-122.3035,60.0,2.316666666666667
2026-01-20T23:02:20+00:00,SAT-64419,253.6638321651974,40.90491207563427,2455.8571677575615,-6.6561739467601715,233127.3672034198,10.5,10500233127.367203,47.655,-122.3035,60.0,2.3333333333333335
2026-01-20T23:02:21+00:00,SAT-64419,253.66986875419408,40.9811567564369,2449.218743607992,-6.65513870570378,233091.1086825596,10.5,10500233091.108683,47.655,-122.3035,60.0,2.35
2026-01-20T23:02:22+00:00,SAT-64419,253.676038601532,41.05765100936137,2442.581351938837,-6.654087134700043,233054.27821786783,10.5,10500233054.278217,47.655,-122.3035,60.0,2.3666666666666667
2026-01-20T23:02:23+00:00,SAT-64419,253.68234322727778,41.134396800452414,2435.9450090364962,-6.653019152644205,233016.87296871273,10.5,10500233016.872969,47.655,-122.3035,60.0,2.3833333333333333
2026-01-20T23:02:24+00:00,SAT-64419,253.68878417428783,41.21139611634347,2429.3097312682594,-6.651934579590381,232978.88663262836,10.5,10500232978.886633,47.655,-122.3035,60.0,2.4
2026-01-20T23:02:25+00:00,SAT-64419,253.69536300840562,41.28865096335725,2422.675535180881,-6.650833267956635,232940.314040671,10.5,10500232940.314041,47.655,-122.3035,60.0,2.4166666666666665
2026-01-20T23:02:26+00:00,SAT-64419,253.7020813189843,41.36616336814877,2416.0424374683057,-6.649715028101267,232901.14855078608,10.5,10500232901.14855,47.655,-122.3035,60.0,2.433333333333333
2026-01-20T23:02:27+00:00,SAT-64419,253.70894071921123,41.443935377467724,2409.4104550136126,-6.6485797194959195,232861.3852410762,10.5,10500232861.38524,47.655,-122.3035,60.0,2.45
2026-01-20T23:02:28+00:00,SAT-64419,253.71594284669789,41.521969059009265,2402.7796048400355,-6.647427170733823,232821.01810815115,10.5,10500232821.018108,47.655,-122.3035,60.0,2.466666666666667
2026-01-20T23:02:29+00:00,SAT-64419,253.723089363842,41.600266501315595,2396.1499041417574,-6.646257220207187,232780.0414918225,10.5,10500232780.041492,47.655,-122.3035,60.0,2.4833333333333334
2026-01-20T23:02:30+00:00,SAT-64419,253.73038195836295,41.678829814173376,2389.5213702741366,-6.64506968617764,232738.44902684385,10.5,10500232738.449026,47.655,-122.3035,60.0,2.5
2026-01-20T23:02:31+00:00,SAT-64419,253.73782234369224,41.757661128641786,2382.894020773789,-6.643864402335344,232696.23488834105,10.5,10500232696.234888,47.655,-122.3035,60.0,2.5166666666666666
2026-01-20T23:02:32+00:00,SAT-64419,253.74541225954383,41.83676259752543,2376.2678733431935,-6.642641188406618,232653.39276236724,10.5,10500232653.392763,47.655,-122.3035,60.0,2.533333333333333
2026-01-20T23:02:33+00:00,SAT-64419,253.75315347236344,41.91613639548832,2369.6429458646226,-6.64139988461123,232609.9170527429,10.5,10500232609.917053,47.655,-122.3035,60.0,2.55
2026-01-20T23:02:34+00:00,SAT-64419,253.7610477759098,41.99578471959414,2363.0192563797036,-6.640140288835769,232565.80068060142,10.5,10500232565.80068,47.655,-122.3035,60.0,2.566666666666667
2026-01-20T23:02:35+00:00,SAT-64419,253.76909699166652,42.07570978908153,2356.396823131638,-6.63886223680531,232521.03789234004,10.5,10500232521.037891,47.655,-122.3035,60.0,2.5833333333333335
2026-01-20T23:02:36+00:00,SAT-64419,253.77730296950517,42.155913846127994,2349.7756645274644,-6.637565549478095,232475.62241715903,10.5,10500232475.622417,47.655,-122.3035,60.0,2.6
2026-01-20T23:02:37+00:00,SAT-64419,253.78566758815887,42.23639915596321,2343.1557991527843,-6.636250006832065,232429.54654895514,10.5,10500232429.546549,47.655,-122.3035,60.0,2.6166666666666667
2026-01-20T23:02:38+00:00,SAT-64419,253.79419275573827,42.31716800667905,2336.5372458126376,-6.634915458790429,232382.80503140445,10.5,10500232382.80503,47.655,-122.3035,60.0,2.6333333333333333
2026-01-20T23:02:39+00:00,SAT-64419,253.80288041043787,42.39822271039016,2329.9200234617374,-6.633561697123352,232335.39057141723,10.5,10500232335.390572,47.655,-122.3035,60.0,2.65
2026-01-20T23:02:40+00:00,SAT-64419,253.81173252103378,42.47956560284107,2323.3041512624727,-6.632188515686223,232287.29594893724,10.5,10500232287.295948,47.655,-122.3035,60.0,2.6666666666666665
2026-01-20T23:02:41+00:00,SAT-64419,253.8207510874472,42.56119904373672,2316.6896485828283,-6.6307957405581055,232238.51507251762,10.5,10500232238.515072,47.655,-122.3035,60.0,2.683333333333333
2026-01-20T23:02:42+00:00,SAT-64419,253.8299381414962,42.643125417476845,2310.076534964245,-6.629383149167199,232189.0401467524,10.5,10500232189.040146,47.655,-122.3035,60.0,2.7
2026-01-20T23:02:43+00:00,SAT-64419,253.83929574737448,42.7253471328656,2303.4648301701422,-6.627950555807971,232138.8646674484,10.5,10500232138.864668,47.655,-122.3035,60.0,2.716666666666667
2026-01-20T23:02:44+00:00,SAT-64419,253.8488260024011,42.80786662390571,2296.85455414915,-6.626497761193219,232087.9816547246,10.5,10500232087.981655,47.655,-122.3035,60.0,2.7333333333333334
2026-01-20T23:02:45+00:00,SAT-64419,253.85853103768596,42.89068634997004,2290.245727048653,-6.625024511938796,232036.38223399656,10.5,10500232036.382235,47.655,-122.3035,60.0,2.75
2026-01-20T23:02:46+00:00,SAT-64419,253.8684130186228,42.973808795445336,2283.638369268746,-6.623530670443183,231984.06158587692,10.5,10500231984.061586,47.655,-122.3035,60.0,2.7666666666666666
2026-01-20T23:02:47+00:00,SAT-64419,253.87847414594535,43.05723647155446,2277.0325013467577,-6.622015960708743,231931.010043761,10.5,10500231931.010044,47.655,-122.3035,60.0,2.783333333333333
2026-01-20T23:02:48+00:00,SAT-64419,253.8887166560355,43.140971914939165,2270.4281440952773,-6.620480205575398,231877.2214027535,10.5,10500231877.221403,47.655,-122.3035,60.0,2.8
2026-01-20T23:02:49+00:00,SAT-64419,253.89914282195753,43.22501768927908,2263.8253185035837,-6.618923151033132,231822.68676634916,10.5,10500231822.686766,47.655,-122.3035,60.0,2.816666666666667
2026-01-20T23:02:50+00:00,SAT-64419,253.90975495396668,43.30937638465693,2257.2240458142865,-6.617344591234387,231767.39892489577,10.5,10500231767.398926,47.655,-122.3035,60.0,2.8333333333333335
2026-01-20T23:02:51+00:00,SAT-64419,253.920555400446,43.39405061854587,2250.6243474752955,-6.615744322477311,231711.35074389284,10.5,10500231711.350744,47.655,-122.3035,60.0,2.85
2026-01-20T23:02:52+00:00,SAT-64419,253.9315465486795,43.479043036206065,2244.026245137678,-6.6141220650143655,231654.53242539824,10.5,10500231654.532425,47.655,-122.3035,60.0,2.8666666666666667
2026-01-20T23:02:53+00:00,SAT-64419,253.94273082546397,43.5643563100678,2237.429760731504,-6.612477619974581,231596.93700410935,10.5,10500231596.937004,47.655,-122.3035,60.0,2.8833333333333333
2026-01-20T23:02:54+00:00,SAT-64419,253.9541106981486,43.64999314115874,2230.834916385182,-6.6108107630383905,231538.5566234061,10.5,10500231538.556623,47.655,-122.3035,60.0,2.9
2026-01-20T23:02:55+00:00,SAT-64419,253.9656886754447,43.73595625916188,2224.2417344508453,-6.60912122122622,231479.3817223891,10.5,10500231479.381721,47.655,-122.3035,60.0,2.9166666666666665
2026-01-20T23:02:56+00:00,SAT-64419,253.977467308119,43.82224842215683,2217.6502375528758,-6.607408774702018,231419.40460146996,10.5,10500231419.404602,47.655,-122.3035,60.0,2.933333333333333
2026-01-20T23:02:57+00:00,SAT-64419,253.98944919007096,43.90887241771524,2211.0604485349063,-6.605673171853799,231358.61644813255,10.5,10500231358.616447,47.655,-122.3035,60.0,2.95
2026-01-20T23:02:58+00:00,SAT-64419,254.00163695913687,43.995831062876086,2204.472390491511,-6.603914163392654,231297.00853122486,10.5,10500231297.008532,47.655,-122.3035,60.0,2.966666666666667
2026-01-20T23:02:59+00:00,SAT-64419,254.0140332980543,44.08312720458272,2197.8860867658873,-6.602131501819874,231234.5721822951,10.5,10500231234.572182,47.655,-122.3035,60.0,2.9833333333333334
2026-01-20T23:03:00+00:00,SAT-64419,254.0266409354042,44.17076372011026,2191.301560948072,-6.600324919624581,231171.2980319808,10.5,10500231171.298033,47.655,-122.3035,60.0,3.0
2026-01-20T23:03:01+00:00,SAT-64419,254.0394626465722,44.25874351721598,2184.7188368949,-6.598494161916518,231107.1771529471,10.5,10500231107.177153,47.655,-122.3035,60.0,3.0166666666666666
2026-01-20T23:03:02+00:00,SAT-64419,254.05250125475928,44.347069534720816,2178.137938717415,-6.596638964935984,231042.20030721332,10.5,10500231042.200308,47.655,-122.3035,60.0,3.033333333333333
2026-01-20T23:03:03+00:00,SAT-64419,254.0657596320333,44.43574474281935,2171.558890789719,-6.59475905522186,230976.35791701448,10.5,10500230976.357918,47.655,-122.3035,60.0,3.05
2026-01-20T23:03:04+00:00,SAT-64419,254.07924070032803,44.5247721433735,2164.981717758644,-6.592854183631095,230909.64125630705,10.5,10500230909.641256,47.655,-122.3035,60.0,3.066666666666667
2026-01-20T23:03:05+00:00,SAT-64419,254.0929474326492,44.61415477068492,2158.406444519503,-6.5909240408499565,230842.0394916157,10.5,10500230842.039492,47.655,-122.3035,60.0,3.0833333333333335
2026-01-20T23:03:06+00:00,SAT-64419,254.10688285396293,44.70389569110475,2151.833096276095,-6.58896837004679,230773.54362760953,10.5,10500230773.543627,47.655,-122.3035,60.0,3.1
2026-01-20T23:03:07+00:00,SAT-64419,254.12105004255727,44.793998004208525,2145.2616984883684,-6.586986876277016,230704.1433340817,10.5,10500230704.143333,47.655,-122.3035,60.0,3.1166666666666667
2026-01-20T23:03:08+00:00,SAT-64419,254.13545213106687,44.88446484271619,2138.6922769104285,-6.5849792998931855,230633.82951708027,10.5,10500230633.829517,47.655,-122.3035,60.0,3.1333333333333333
2026-01-20T23:03:09+00:00,SAT-64419,254.150092307833,44.975299373446916,2132.124857555335,-6.582945292938061,230562.58998967093,10.5,10500230562.58999,47.655,-122.3035,60.0,3.15
2026-01-20T23:03:10+00:00,SAT-64419,254.16497381780215,45.06650479654304,2125.559466783178,-6.580884620959447,230490.41654034602,10.5,10500230490.41654,47.655,-122.3035,60.0,3.1666666666666665
2026-01-20T23:03:11+00:00,SAT-64419,254.180099964254,45.15808434753655,2118.996131187874,-6.578796938562038,230417.29707190098,10.5,10500230417.297071,47.655,-122.3035,60.0,3.183333333333333
2026-01-20T23:03:12+00:00,SAT-64419,254.19547410966902,45.25004129625999,2112.4348777078153,-6.576681963349201,230343.22169361118,10.5,10500230343.221693,47.655,-122.3035,60.0,3.2
2026-01-20T23:03:13+00:00,SAT-64419,254.21109967734185,45.34237894822007,2105.875733563035,-6.574539385846862,230268.17956638537,10.5,10500230268.179567,47.655,-122.3035,60.0,3.216666666666667
2026-01-20T23:03:14+00:00,SAT-64419,254.2269801526429,45.435100644701635,2099.318726282217,-6.572368881156726,230192.1593109111,10.5,10500230192.159311,47.655,-122.3035,60.0,3.2333333333333334
2026-01-20T23:03:15+00:00,SAT-64419,254.2431190843974,45.52820976304248,2092.763883718077,-6.570170135972493,230115.14995387636,10.5,10500230115.149954,47.655,-122.3035,60.0,3.25
2026-01-20T23:03:16+00:00,SAT-64419,254.2595200863645,45.62170971729325,2086.2112340358003,-6.56794282164673,230037.13998465784,10.5,10500230037.139984,47.655,-122.3035,60.0,3.2666666666666666
2026-01-20T23:03:17+00:00,SAT-64419,254.27618683870702,45.715603958507984,2079.6608057283443,-6.565686621164398,229958.118300048,10.5,10500229958.1183,47.655,-122.3035,60.0,3.283333333333333
2026-01-20T23:03:18+00:00,SAT-64419,254.29312308955258,45.809895975422926,2073.1126276048367,-6.56340120727364,229878.0734383025,10.5,10500229878.073439,47.655,-122.3035,60.0,3.3
2026-01-20T23:03:19+00:00,SAT-64419,254.31033265656652,45.90458929483119,2066.566728800782,-6.561086213953816,229796.99257983026,10.5,10500229796.99258,47.655,-122.3035,60.0,3.316666666666667
2026-01-20T23:03:20+00:00,SAT-64419,254.3278194283823,45.999687481534494,2060.0231388167326,-6.55874132084072,229714.86450412156,10.5,10500229714.864504,47.655,-122.3035,60.0,3.3333333333333335
2026-01-20T23:03:21+00:00,SAT-64419,254.34558736650507,46.09519413954838,2053.4818874727475,-6.556366179563166,229631.677009744,10.5,10500229631.67701,47.655,-122.3035,60.0,3.35
2026-01-20T23:03:22+00:00,SAT-64419,254.36364050687078,46.19111291222447,2046.9430049363295,-6.553960420269047,229547.41714291222,10.5,10500229547.417143,47.655,-122.3035,60.0,3.3666666666666667
2026-01-20T23:03:23+00:00,SAT-64419,254.3819829615607,46.28744748247939,2040.406521743848,-6.551523700915023,229462.07292382166,10.5,10500229462.072924,47.655,-122.3035,60.0,3.3833333333333333
2026-01-20T23:03:24+00:00,SAT-64419,254.4006189207082,46.38420157375431,2033.872468772802,-6.549055652032693,229375.63141212604,10.5,10500229375.631413,47.655,-122.3035,60.0,3.4
2026-01-20T23:03:25+00:00,SAT-64419,254.41955265426935,46.48137895016755,2027.3408772691746,-6.546555915073263,229288.08004992997,10.5,10500229288.08005,47.655,-122.3035,60.0,3.4166666666666665
2026-01-20T23:03:26+00:00,SAT-64419,254.43878851397756,46.57898341723985,2020.8117788365416,-6.544024087256813,229199.40473017684,10.5,10500229199.40473,47.655,-122.3035,60.0,3.433333333333333
2026-01-20T23:03:27+00:00,SAT-64419,254.45833093514022,46.67701882179666,2014.2852054801842,-6.541459793220863,229109.5923060848,10.5,10500229109.592306,47.655,-122.3035,60.0,3.45
2026-01-20T23:03:28+00:00,SAT-64419,254.47818443876446,46.775489052952985,2007.7611895797452,-6.538862690958408,229018.630799122,10.5,10500229018.630798,47.655,-122.3035,60.0,3.466666666666667
2026-01-20T23:03:29+00:00,SAT-64419,254.4983536338425,46.87439804321704,2001.2397638559628,-6.536232343377072,228926.50490046435,10.5,10500228926.5049,47.655,-122.3035,60.0,3.4833333333333334
2026-01-20T23:03:30+00:00,SAT-64419,254.51884321902702,46.97374976762004,1994.7209614655014,-6.533568346620014,228833.20046533708,10.5,10500228833.200466,47.655,-122.3035,60.0,3.5
2026-01-20T23:03:31+00:00,SAT-64419,254.53965798502972,47.07354824481854,1988.2048159678056,-6.53087033475401,228738.70467721074,10.5,10500228738.704678,47.655,-122.3035,60.0,3.5166666666666666
2026-01-20T23:03:32+00:00,SAT-64419,254.5608028170515,47.17379753828362,1981.6913612872777,-6.528137853012831,228643.00160824836,10.5,10500228643.001608,47.655,-122.3035,60.0,3.533333333333333
2026-01-20T23:03:33+00:00,SAT-64419,254.58228269674058,47.2745017555379,1975.1806318018728,-6.525370528190116,228546.0781871845,10.5,10500228546.078188,47.655,-122.3035,60.0,3.55
2026-01-20T23:03:34+00:00,SAT-64419,254.6041027049539,47.37566505003114,1968.672662261758,-6.522567892861408,228447.91804283744,10.5,10500228447.918043,47.655,-122.3035,60.0,3.566666666666667
2026-01-20T23:03:35+00:00,SAT-64419,254.62626802383647,47.47729162029816,1962.1674878832775,-6.519729560943075,228348.50765292527,10.5,10500228348.507652,47.655,-122.3035,60.0,3.5833333333333335
2026-01-20T23:03:36+00:00,SAT-64419,254.6487839397288,47.57938571185662,1955.6651442678303,-6.516855062918315,228247.8305729836,10.5,10500228247.830572,47.655,-122.3035,60.0,3.6
2026-01-20T23:03:37+00:00,SAT-64419,254.6716558454488,47.68195161653436,1949.1656674850797,-6.513943960361944,228145.8714475079,10.5,10500228145.871447,47.655,-122.3035,60.0,3.6166666666666667
2026-01-20T23:03:38+00:00,SAT-64419,254.69488924308808,47.78499367358671,1942.6690940419453,-6.510995814498106,228042.61490871164,10.5,10500228042.614908,47.655,-122.3035,60.0,3.6333333333333333
2026-01-20T23:03:39+00:00,SAT-64419,254.71848974689172,47.8885162703559,1936.1754608829526,-6.50801016209058,227938.04473210292,10.5,10500227938.044733,47.655,-122.3035,60.0,3.65
2026-01-20T23:03:40+00:00,SAT-64419,254.7424630859442,47.99252384252013,1929.6848054146276,-6.504986538843252,227832.1446560679,10.5,10500227832.144655,47.655,-122.3035,60.0,3.6666666666666665
2026-01-20T23:03:41+00:00,SAT-64419,254.76681510718367,48.09702087474408,1923.1971655065545,-6.501924483897612,227724.89853939196,10.5,10500227724.898539,47.655,-122.3035,60.0,3.683333333333333
2026-01-20T23:03:42+00:00,SAT-64419,254.79155177845126,48.20201190139714,1916.7125794879473,-6.498823485122375,227616.28844507135,10.5,10500227616.288445,47.655,-122.3035,60.0,3.7
2026-01-20T23:03:43+00:00,SAT-64419,254.81667919138584,48.30750150638754,1910.2310861987853,-6.495683094366301,227506.29867695388,10.5,10500227506.298677,47.655,-122.3035,60.0,3.716666666666667
2026-01-20T23:03:44+00:00,SAT-64419,254.84220356501407,48.41349432488892,1903.752724926004,-6.49250279527912,227394.91115026904,10.5,10500227394.91115,47.655,-122.3035,60.0,3.7333333333333334
2026-01-20T23:03:45+00:00,SAT-64419,254.86813124874539,48.51999504290447,1897.2775354715122,-6.489282091355024,227282.10847528308,10.5,10500227282.108475,47.655,-122.3035,60.0,3.75
2026-01-20T23:03:46+00:00,SAT-64419,254.89446872592703,48.627008398282605,1890.805558132401,-6.48602047246105,227167.87278498185,10.5,10500227167.872786,47.655,-122.3035,60.0,3.7666666666666666
2026-01-20T23:03:47+00:00,SAT-64419,254.92122261734593,48.734539181184566,1884.3368337145332,-6.482717414986246,227052.185740295,10.5,10500227052.18574,47.655,-122.3035,60.0,3.783333333333333
2026-01-20T23:03:48+00:00,SAT-64419,254.94839968481224,48.84259223455782,1877.8714035459868,-6.479372409019747,226935.02948198695,10.5,10500226935.029482,47.655,-122.3035,60.0,3.8
2026-01-20T23:03:49+00:00,SAT-64419,254.976006835056,48.95117245507584,1871.409309463391,-6.475984903341305,226816.38470399316,10.5,10500226816.384705,47.655,-122.3035,60.0,3.816666666666667
2026-01-20T23:03:50+00:00,SAT-64419,255.00405112338814,49.060284793149485,1864.9505938531254,-6.472554365954348,226696.23277354313,10.5,10500226696.232773,47.655,-122.3035,60.0,3.8333333333333335
2026-01-20T23:03:51+00:00,SAT-64419,255.0325397578825,49.16993425397432,1858.495299632147,-6.46908023373714,226574.5539677318,10.5,10500226574.553968,47.655,-122.3035,60.0,3.85
2026-01-20T23:03:52+00:00,SAT-64419,255.06148010332257,49.28012589770947,1852.043470279033,-6.465561951558688,226451.32884352354,10.5,10500226451.328844,47.655,-122.3035,60.0,3.8666666666666667
2026-01-20T23:03:53+00:00,SAT-64419,255.09087968558987,49.39086484034584,1845.595149826012,-6.461998938624678,226326.53705904476,10.5,10500226326.53706,47.655,-122.3035,60.0,3.8833333333333333
2026-01-20T23:03:54+00:00,SAT-64419,255.12074619592065,49.50215625398675,1839.1503828845568,-6.458390649113431,226200.1594973114,10.5,10500226200.159498,47.655,-122.3035,60.0,3.9
2026-01-20T23:03:55+00:00,SAT-64419,255.15108749576584,49.61400536820043,1832.7092146105076,-6.454736467263844,226072.17459176498,10.5,10500226072.174591,47.655,-122.3035,60.0,3.9166666666666665
2026-01-20T23:03:56+00:00,SAT-64419,255.18191162104142,49.726417469529025,1826.2716907738234,-6.451035784587692,225942.56103057388,10.5,10500225942.561031,47.655,-122.3035,60.0,3.933333333333333
2026-01-20T23:03:57+00:00,SAT-64419,255.21322678710922,49.83939790235276,1819.8378577513279,-6.447288021126935,225811.29850115447,10.5,10500225811.298502,47.655,-122.3035,60.0,3.95
2026-01-20T23:03:58+00:00,SAT-64419,255.2450413940074,49.952952070142196,1813.4077624982572,-6.443492554154303,225678.36519296354,10.5,10500225678.365192,47.655,-122.3035,60.0,3.966666666666667
2026-01-20T23:03:59+00:00,SAT-64419,255.2773640314136,50.06708543544844,1806.981452590914,-6.439648745571414,225543.73875709658,10.5,10500225543.738756,47.655,-122.3035,60.0,3.9833333333333334
2026-01-20T23:04:00+00:00,SAT-64419,255.31020348393463,50.18180352037283,1800.5589762419975,-6.435755969023324,225407.39725595398,10.5,10500225407.397257,47.655,-122.3035,60.0,4.0
2026-01-20T23:04:01+00:00,SAT-64419,255.34356873679545,50.29711190753376,1794.1403822888915,-6.431813554796318,225269.31723332862,10.5,10500225269.317234,47.655,-122.3035,60.0,4.016666666666667
2026-01-20T23:04:02+00:00,SAT-64419,255.37746898128933,50.41301624002633,1787.725720236908,-6.427820877443132,225129.47678341158,10.5,10500225129.476784,47.655,-122.3035,60.0,4.033333333333333
2026-01-20T23:04:03+00:00,SAT-64419,255.41191362110396,50.529522222991616,1781.3150402151382,-6.423777251304655,224987.8518915205,10.5,10500224987.851892,47.655,-122.3035,60.0,4.05
2026-01-20T23:04:04+00:00,SAT-64419,255.4469122780314,50.646635623267244,1774.9083930365036,-6.419681991132927,224844.4185573732,10.5,10500224844.418558,47.655,-122.3035,60.0,4.066666666666666
2026-01-20T23:04:05+00:00,SAT-64419,255.48247479841467,50.764362270150805,1768.5058301973468,-6.415534400060051,224699.15237370826,10.5,10500224699.152374,47.655,-122.3035,60.0,4.083333333333333
2026-01-20T23:04:06+00:00,SAT-64419,255.51861125961608,50.882708055928525,1762.1074038890204,-6.411333813717259,224552.03007152106,10.5,10500224552.030071,47.655,-122.3035,60.0,4.1
2026-01-20T23:04:07+00:00,SAT-64419,255.5553319771705,51.00167893725202,1755.713166965473,-6.4070794634473085,224403.0247291836,10.5,10500224403.024729,47.655,-122.3035,60.0,4.116666666666666
2026-01-20T23:04:08+00:00,SAT-64419,255.59264751103032,51.121280933921554,1749.3231730472614,-6.4027706614674935,224252.11225763618,10.5,10500224252.112257,47.655,-122.3035,60.0,4.133333333333334
2026-01-20T23:04:09+00:00,SAT-64419,255.6305686735545,51.24152013116535,1742.9374764408915,-6.398406658840006,224099.26642590878,10.5,10500224099.266426,47.655,-122.3035,60.0,4.15
2026-01-20T23:04:10+00:00,SAT-64419,255.66910653660548,51.362402679225596,1736.5561321998082,-6.393986716317774,223944.46134244185,10.5,10500223944.461342,47.655,-122.3035,60.0,4.166666666666667
2026-01-20T23:04:11+00:00,SAT-64419,255.70827243952237,51.48393479429303,1730.179196114734,-6.389510033206396,223787.66896353065,10.5,10500223787.668964,47.655,-122.3035,60.0,4.183333333333334
2026-01-20T23:04:12+00:00,SAT-64419,255.74807799672442,51.606122758048684,1723.8067247749495,-6.384975893900929,223628.8642256629,10.5,10500223628.864225,47.655,-122.3035,60.0,4.2
2026-01-20T23:04:13+00:00,SAT-64419,255.78853510690394,51.728972920056535,1717.4387754834322,-6.38038345587337,223468.01761994424,10.5,10500223468.01762,47.655,-122.3035,60.0,4.216666666666667
2026-01-20T23:04:14+00:00,SAT-64419,255.82965596066902,51.85249169601386,1711.0754063834413,-6.375731950314774,223305.10221943317,10.5,10500223305.102219,47.655,-122.3035,60.0,4.233333333333333
2026-01-20T23:04:15+00:00,SAT-64419,255.87145305027076,51.9766855699124,1704.7166763849941,-6.371020540631364,223140.08872307697,10.5,10500223140.088722,47.655,-122.3035,60.0,4.25
2026-01-20T23:04:16+00:00,SAT-64419,255.91393917837206,52.101561093409295,1698.3626452324709,-6.366248420313944,222972.948883512,10.5,10500222972.948883,47.655,-122.3035,60.0,4.266666666666667
2026-01-20T23:04:17+00:00,SAT-64419,255.9571274681225,52.22712488713568,1692.0133734746112,-6.361414714212142,222803.65204927034,10.5,10500222803.65205,47.655,-122.3035,60.0,4.283333333333333
2026-01-20T23:04:18+00:00,SAT-64419,256.00103137256144,52.353383639994696,1685.6689225329703,-6.356518620142214,222632.1701244841,10.5,10500222632.170124,47.655,-122.3035,60.0,4.3
2026-01-20T23:04:19+00:00,SAT-64419,256.04566468584864,52.48034411132932,1679.3293546291484,-6.351559207589851,222458.47051860605,10.5,10500222458.470518,47.655,-122.3035,60.0,4.316666666666666
2026-01-20T23:04:20+00:00,SAT-64419,256.09104155289253,52.60801312897494,1672.9947329127788,-6.3465356395473345,222282.52391608537,10.5,10500222282.523916,47.655,-122.3035,60.0,4.333333333333333
2026-01-20T23:04:21+00:00,SAT-64419,256.137176481547,52.73639759181591,1666.6651213682703,-6.341446988470641,222104.2978304068,10.5,10500222104.29783,47.655,-122.3035,60.0,4.35
2026-01-20T23:04:22+00:00,SAT-64419,256.1840843534416,52.86550446856544,1660.340584905102,-6.336292327882755,221923.75981242637,10.5,10500221923.759813,47.655,-122.3035,60.0,4.366666666666666
2026-01-20T23:04:23+00:00,SAT-64419,256.23178043616497,52.99534079839212,1654.0211893567605,-6.331070758634657,221740.878370142,10.5,10500221740.87837,47.655,-122.3035,60.0,4.383333333333334
2026-01-20T23:04:24+00:00,SAT-64419,256.28028039612883,53.12591369208242,1647.707001453482,-6.3257813068812165,221555.61939537775,10.5,10500221555.619396,47.655,-122.3035,60.0,4.4
2026-01-20T23:04:25+00:00,SAT-64419,256.32960031098423,53.257230331061336,1641.3980888967526,-6.320423035930204,221367.95008120965,10.5,10500221367.95008,47.655,-122.3035,60.0,4.416666666666667
2026-01-20T23:04:26+00:00,SAT-64419,256.37975668355193,53.38929796870845,1635.0945203222516,-6.314994928863845,221177.83481087562,10.5,10500221177.83481,47.655,-122.3035,60.0,4.433333333333334
2026-01-20T23:04:27+00:00,SAT-64419,256.43076645521353,53.52212392919249,1628.7963653798647,-6.309496032040018,220985.2401837947,10.5,10500220985.240183,47.655,-122.3035,60.0,4.45
2026-01-20T23:04:28+00:00,SAT-64419,256.482647021228,53.65571560930237,1622.5036946705768,-6.303925289343993,220790.12921036166,10.5,10500220790.12921,47.655,-122.3035,60.0,4.466666666666667
2026-01-20T23:04:29+00:00,SAT-64419,256.53541624497217,53.790080476719616,1616.216579848671,-6.298281712908348,220592.46729128071,10.5,10500220592.46729,47.655,-122.3035,60.0,4.483333333333333
2026-01-20T23:04:30+00:00,SAT-64419,256.58909247454744,53.92522607191887,1609.9350935536636,-6.292564211672147,220392.21621298275,10.5,10500220392.216213,47.655,-122.3035,60.0,4.5
2026-01-20T23:04:31+00:00,SAT-64419,256.6436945582059,54.061160006319504,1603.659309513223,-6.286771761741286,220189.34011436507,10.5,10500220189.340115,47.655,-122.3035,60.0,4.516666666666667
2026-01-20T23:04:32+00:00,SAT-64419,256.699241862234,54.19788996410122,1597.3893024761796,-6.280903236147322,219983.7995242258,10.5,10500219983.799524,47.655,-122.3035,60.0,4.533333333333333
2026-01-20T23:04:33+00:00,SAT-64419,256.75575428777546,54.33542370026325,1591.1251483153287,-6.27495758461624,219775.55765752628,10.5,10500219775.557657,47.655,-122.3035,60.0,4.55
2026-01-20T23:04:34+00:00,SAT-64419,256.81325229024833,54.47376904258105,1584.8669239509381,-6.268933610506736,219564.5726028262,10.5,10500219564.572603,47.655,-122.3035,60.0,4.566666666666666
2026-01-20T23:04:35+00:00,SAT-64419,256.871756897081,54.6129338885617,1578.614707496726,-6.262830246591089,219350.8069812965,10.5,10500219350.806982,47.655,-122.3035,60.0,4.583333333333333
2026-01-20T23:04:36+00:00,SAT-64419,256.9312897293911,54.75292620851405,1572.3685781307925,-6.25664629429727,219134.21881387467,10.5,10500219134.218813,47.655,-122.3035,60.0,4.6
2026-01-20T23:04:37+00:00,SAT-64419,256.99187302145936,54.893754042705,1566.1286162266133,-6.250380566762373,218914.76653160137,10.5,10500218914.766531,47.655,-122.3035,60.0,4.616666666666666
2026-01-20T23:04:38+00:00,SAT-64419,257.0535296427252,55.0354255016553,1559.8949033413624,-6.244031867722186,218692.40823624373,10.5,10500218692.408236,47.655,-122.3035,60.0,4.633333333333334
2026-01-20T23:04:39+00:00,SAT-64419,257.1162831205576,55.177948765924675,1553.6675222252873,-6.237599000562088,218467.10201729598,10.5,10500218467.102016,47.655,-122.3035,60.0,4.65
2026-01-20T23:04:40+00:00,SAT-64419,257.1801576639522,55.321332086015936,1547.44655682206,-6.2310806846495765,218238.80302159084,10.5,10500218238.803022,47.655,-122.3035,60.0,4.666666666666667
2026-01-20T23:04:41+00:00,SAT-64419,257.2451781873538,55.46558378028003,1541.2320923525697,-6.224475685995798,218007.46802961893,10.5,10500218007.468029,47.655,-122.3035,60.0,4.683333333333334
2026-01-20T23:04:42+00:00,SAT-64419,257.3113703370425,55.61071223575836,1535.0242152684032,-6.217782680221458,217773.0506560152,10.5,10500217773.050655,47.655,-122.3035,60.0,4.7
2026-01-20T23:04:43+00:00,SAT-64419,257.3787605169502,55.75672590573446,1528.8230133419954,-6.211000399412506,217535.50649306635,10.5,10500217535.506493,47.655,-122.3035,60.0,4.716666666666667
2026-01-20T23:04:44+00:00,SAT-64419,257.4473759175314,55.90363331066243,1522.6285756103148,-6.20412747427217,217294.78758220724,10.5,10500217294.787582,47.655,-122.3035,60.0,4.733333333333333
2026-01-20T23:04:45+00:00,SAT-64419,257.5172445438248,56.05144303524907,1516.4409924759739,-6.197162574776099,217050.84734035918,10.5,10500217050.84734,47.655,-122.3035,60.0,4.75
2026-01-20T23:04:46+00:00,SAT-64419,257.5883952465655,56.20016372876698,1510.260355668064,-6.190104300638819,216803.6367236016,10.5,10500216803.636724,47.655,-122.3035,60.0,4.766666666666667
2026-01-20T23:04:47+00:00,SAT-64419,257.66085775332266,56.3498041026506,1504.086758312227,-6.182951263521827,216553.10710644757,10.5,10500216553.107107,47.655,-122.3035,60.0,4.783333333333333
2026-01-20T23:04:48+00:00,SAT-64419,257.73466270200447,56.50037292992624,1497.920294918741,-6.175702035492749,216299.2084766651,10.5,10500216299.208477,47.655,-122.3035,60.0,4.8
2026-01-20T23:04:49+00:00,SAT-64419,257.80984167536974,56.65187904330034,1491.7610614220098,-6.168355146708607,216041.8893541357,10.5,10500216041.889355,47.655,-122.3035,60.0,4.816666666666666
2026-01-20T23:04:50+00:00,SAT-64419,257.88642723679936,56.804331332992426,1485.6091552223588,-6.160909136137434,215781.09856733974,10.5,10500215781.098568,47.655,-122.3035,60.0,4.833333333333333
2026-01-20T23:04:51+00:00,SAT-64419,257.9644529687114,56.95773874572614,1479.4646751772511,-6.1533625026543115,215516.78354053278,10.5,10500215516.78354,47.655,-122.3035,60.0,4.85
2026-01-20T23:04:52+00:00,SAT-64419,258.0439535118404,57.11211028232439,1473.3277216412707,-6.145713684517933,215248.88957492818,10.5,10500215248.889574,47.655,-122.3035,60.0,4.866666666666666
2026-01-20T23:04:53+00:00,SAT-64419,258.1249646060568,57.267454994598346,1467.198396526578,-6.137961165751166,214977.36357459414,10.5,10500214977.363575,47.655,-122.3035,60.0,4.883333333333334
2026-01-20T23:04:54+00:00,SAT-64419,258.20752313485684,57.42378198479415,1461.076803257269,-6.130103314377494,214702.14838080978,10.5,10500214702.14838,47.655,-122.3035,60.0,4.9
2026-01-20T23:04:55+00:00,SAT-64419,258.29166716917393,57.58110040067128,1454.9630468850632,-6.122138574572813,214423.1895020339,10.5,10500214423.189503,47.655,-122.3035,60.0,4.916666666666667
2026-01-20T23:04:56+00:00,SAT-64419,258.3774360165976,57.73941943536738,1448.8572340133558,-6.114065258327347,214140.4278170238,10.5,10500214140.427816,47.655,-122.3035,60.0,4.933333333333334
2026-01-20T23:04:57+00:00,SAT-64419,258.464870269287,57.89874832161133,1442.7594729290506,-6.1058816958037285,213853.80484101153,10.5,10500213853.80484,47.655,-122.3035,60.0,4.95
2026-01-20T23:04:58+00:00,SAT-64419,258.5540118568626,58.059096329622726,1436.669873584436,-6.097586233911454,213563.2626757751,10.5,10500213563.262676,47.655,-122.3035,60.0,4.966666666666667
2026-01-20T23:04:59+00:00,SAT-64419,258.6449041017762,58.22047276477197,1430.5885475804814,-6.089177086737797,213268.7387710963,10.5,10500213268.738771,47.655,-122.3035,60.0,4.983333333333333
2026-01-20T23:05:00+00:00,SAT-64419,258.73759177472624,58.38288696097099,1424.5156082993083,-6.080652546092332,212970.17329892097,10.5,10500212970.1733,47.655,-122.3035,60.0,5.0
2026-01-20T23:05:01+00:00,SAT-64419,258.83212115660575,58.5463482794259,1418.451170826672,-6.072010764909522,212667.5015672008,10.5,10500212667.501568,47.655,-122.3035,60.0,5.016666666666667
2026-01-20T23:05:02+00:00,SAT-64419,258.9285400994729,58.71086610123832,1412.395352090469,-6.063249977585099,212360.66173700587,10.5,10500212360.661737,47.655,-122.3035,60.0,5.033333333333333
2026-01-20T23:05:03+00:00,SAT-64419,259.0268980947183,58.876449825690095,1406.348270779491,-6.054368294284037,212049.58761831958,10.5,10500212049.587618,47.655,-122.3035,60.0,5.05
2026-01-20T23:05:04+00:00,SAT-64419,259.1272463407322,59.043108862562605,1400.310047467325,-6.0453638435830905,211734.21366598373,10.5,10500211734.213667,47.655,-122.3035,60.0,5.066666666666666
2026-01-20T23:05:05+00:00,SAT-64419,259.2296378166442,59.210852627996275,1394.2808045939914,-6.036234685545656,211414.47193521255,10.5,10500211414.471935,47.655,-122.3035,60.0,5.083333333333333
2026-01-20T23:05:06+00:00,SAT-64419,259.33412735821855,59.3796905375699,1388.260666534274,-6.026978902284244,211090.29525347354,10.5,10500211090.295254,47.655,-122.3035,60.0,5.1
2026-01-20T23:05:07+00:00,SAT-64419,259.44077173933516,59.549632001507184,1382.249759575729,-6.017594460427316,210761.6124034942,10.5,10500210761.612404,47.655,-122.3035,60.0,5.116666666666666
2026-01-20T23:05:08+00:00,SAT-64419,259.54962975490287,59.720686415544954,1376.248212033863,-6.0080793881129155,210428.35432232794,10.5,10500210428.354322,47.655,-122.3035,60.0,5.133333333333334
2026-01-20T23:05:09+00:00,SAT-64419,259.6607623117153,59.892863156380166,1370.256154190785,-5.998431591860069,210090.44768741552,10.5,10500210090.447687,47.655,-122.3035,60.0,5.15
2026-01-20T23:05:10+00:00,SAT-64419,259.77423252018156,60.06617157136794,1364.2737184165032,-5.988648992710939,209747.81968485966,10.5,10500209747.819685,47.655,-122.3035,60.0,5.166666666666667
2026-01-20T23:05:11+00:00,SAT-64419,259.89010579376964,60.24062097159525,1358.3010391544394,-5.978729444891275,209400.39516056934,10.5,10500209400.39516,47.655,-122.3035,60.0,5.183333333333334
2026-01-20T23:05:12+00:00,SAT-64419,260.0084499519646,60.41622062203146,1352.338252988068,-5.968670795503113,209048.09871095116,10.5,10500209048.098711,47.655,-122.3035,60.0,5.2
2026-01-20T23:05:13+00:00,SAT-64419,260.1293353299778,60.592979732813816,1346.3854986480196,-5.958470833848648,208690.8529080168,10.5,10500208690.852907,47.655,-122.3035,60.0,5.216666666666667
2026-01-20T23:05:14+00:00,SAT-64419,260.25283489331736,60.77090744840729,1340.4429170697279,-5.94812732540677,208328.5794893849,10.5,10500208328.579489,47.655,-122.3035,60.0,5.233333333333333
