satellites_20260121_005943/SAT-65535.csv

timestamp,satellite,azimuth_deg,elevation_deg,distance_km,relative_velocity_kms,doppler_shift_hz,tx_freq_ghz,rx_freq_hz,ue_lat,ue_lon,ue_alt_m,time_minutes
2026-01-20T23:07:21+00:00,SAT-65535,298.7896390409219,30.003196273759503,4292.719404542911,-3.207457406702865,112338.7259141125,10.5,10500112338.725914,47.655,-122.3035,60.0,7.35
2026-01-20T23:07:22+00:00,SAT-65535,298.6859677699833,30.037901165751112,4289.5205003559595,-3.198938041216357,112040.3416978947,10.5,10500112040.341698,47.655,-122.3035,60.0,7.366666666666666
2026-01-20T23:07:23+00:00,SAT-65535,298.58205108596553,30.07247755232665,4286.330092816186,-3.190395611319157,111741.14966845213,10.5,10500111741.149668,47.655,-122.3035,60.0,7.383333333333334
2026-01-20T23:07:24+00:00,SAT-65535,298.4778890341471,30.106924600808608,4283.148204926497,-3.1818301135416487,111441.14970426411,10.5,10500111441.149704,47.655,-122.3035,60.0,7.4
2026-01-20T23:07:25+00:00,SAT-65535,298.37348166752696,30.141241476534038,4279.974859693259,-3.1732415556316425,111140.34207669176,10.5,10500111140.342077,47.655,-122.3035,60.0,7.416666666666667
2026-01-20T23:07:26+00:00,SAT-65535,298.2688290465335,30.175427342998,4276.810080115109,-3.1646299220543836,110838.72624164225,10.5,10500110838.726242,47.655,-122.3035,60.0,7.433333333333334
2026-01-20T23:07:27+00:00,SAT-65535,298.163931239857,30.20948136162732,4273.653889206181,-3.1559952137485556,110536.30223199223,10.5,10500110536.302233,47.655,-122.3035,60.0,7.45
2026-01-20T23:07:28+00:00,SAT-65535,298.0587883240014,30.24340269198201,4270.506309979668,-3.1473374341919054,110233.0701695471,10.5,10500110233.07017,47.655,-122.3035,60.0,7.466666666666667
2026-01-20T23:07:29+00:00,SAT-65535,297.953400383275,30.277190491809236,4267.3673654453005,-3.1386565851428725,109929.03011589493,10.5,10500109929.030115,47.655,-122.3035,60.0,7.483333333333333
2026-01-20T23:07:30+00:00,SAT-65535,297.8477675099297,30.310843917048675,4264.237078611051,-3.1299526557077684,109624.18168949256,10.5,10500109624.18169,47.655,-122.3035,60.0,7.5
2026-01-20T23:07:31+00:00,SAT-65535,297.74188980465556,30.344362121722916,4261.115472495759,-3.121225651101435,109318.52507298588,10.5,10500109318.525072,47.655,-122.3035,60.0,7.516666666666667
2026-01-20T23:07:32+00:00,SAT-65535,297.63576737612624,30.377744258137252,4258.00257011306,-3.1124755715942443,109012.06027584444,10.5,10500109012.060276,47.655,-122.3035,60.0,7.533333333333333
2026-01-20T23:07:33+00:00,SAT-65535,297.529400341253,30.4109894768539,4254.898394476323,-3.1037024157662314,108704.78724833508,10.5,10500108704.787249,47.655,-122.3035,60.0,7.55
2026-01-20T23:07:34+00:00,SAT-65535,297.42278882530877,30.44409692669976,4251.802968600333,-3.0949061924934544,108396.70630133488,10.5,10500108396.7063,47.655,-122.3035,60.0,7.566666666666666
2026-01-20T23:07:35+00:00,SAT-65535,297.3159329616777,30.477065754905954,4248.7163154910195,-3.0860868961031644,108087.81723616016,10.5,10500108087.817236,47.655,-122.3035,60.0,7.583333333333333
2026-01-20T23:07:36+00:00,SAT-65535,297.2088328924043,30.50989510697939,4245.638458159973,-3.077244539072156,107778.1204898011,10.5,10500107778.12049,47.655,-122.3035,60.0,7.6
2026-01-20T23:07:37+00:00,SAT-65535,297.1014887676824,30.542584126925192,4242.569419606339,-3.0683791016835356,107467.61537168865,10.5,10500107467.615372,47.655,-122.3035,60.0,7.616666666666666
2026-01-20T23:07:38+00:00,SAT-65535,296.9939007470116,30.575131956933127,4239.509222848926,-3.0594906097757044,107156.3027867929,10.5,10500107156.302786,47.655,-122.3035,60.0,7.633333333333334
2026-01-20T23:07:39+00:00,SAT-65535,296.88606899773583,30.607537737893068,4236.457890880775,-3.050579064818434,106844.18278659151,10.5,10500106844.182787,47.655,-122.3035,60.0,7.65
2026-01-20T23:07:40+00:00,SAT-65535,296.77799369595004,30.639800609163835,4233.415446693463,-3.041644461083579,106531.25517046057,10.5,10500106531.25517,47.655,-122.3035,60.0,7.666666666666667
2026-01-20T23:07:41+00:00,SAT-65535,296.6696750268317,30.671919708528648,4230.381913284276,-3.032686808585102,106217.5202891314,10.5,10500106217.520288,47.655,-122.3035,60.0,7.683333333333334
2026-01-20T23:07:42+00:00,SAT-65535,296.56111318417254,30.703894172392516,4227.357313640515,-3.023706110061292,105902.97823851046,10.5,10500105902.97824,47.655,-122.3035,60.0,7.7
2026-01-20T23:07:43+00:00,SAT-65535,296.45230837072154,30.73572313573762,4224.341670746747,-3.0147023814575427,105587.62957707295,10.5,10500105587.629578,47.655,-122.3035,60.0,7.716666666666667
2026-01-20T23:07:44+00:00,SAT-65535,296.34326079778947,30.767405732293295,4221.33500757164,-3.0056756191441494,105271.47417769118,10.5,10500105271.474178,47.655,-122.3035,60.0,7.733333333333333
2026-01-20T23:07:45+00:00,SAT-65535,296.2339706860249,30.798941094362608,4218.337347087479,-2.9966258228288853,104954.51203013018,10.5,10500104954.51203,47.655,-122.3035,60.0,7.75
2026-01-20T23:07:46+00:00,SAT-65535,296.12443826537555,30.830328352890508,4215.348712266845,-2.9875530219381834,104636.74416502808,10.5,10500104636.744165,47.655,-122.3035,60.0,7.766666666666667
2026-01-20T23:07:47+00:00,SAT-65535,296.01466377411356,30.861566637810036,4212.369126052966,-2.97845720989568,104318.17035205282,10.5,10500104318.170353,47.655,-122.3035,60.0,7.783333333333333
2026-01-20T23:07:48+00:00,SAT-65535,295.9046474601937,30.892655077696187,4209.398611395629,-2.969338392583511,103998.79079722168,10.5,10500103998.790796,47.655,-122.3035,60.0,7.8
2026-01-20T23:07:49+00:00,SAT-65535,295.79438958089287,30.923592799933193,4206.437191238759,-2.9601965913860386,103678.60624950546,10.5,10500103678.606249,47.655,-122.3035,60.0,7.816666666666666
2026-01-20T23:07:50+00:00,SAT-65535,295.68389040232387,30.954378930909645,4203.4848885049505,-2.9510317963726496,103357.61636109212,10.5,10500103357.616362,47.655,-122.3035,60.0,7.833333333333333
2026-01-20T23:07:51+00:00,SAT-65535,295.57315020065954,30.985012595727603,4200.541726126701,-2.9418440466696585,103035.82250235065,10.5,10500103035.822502,47.655,-122.3035,60.0,7.85
2026-01-20T23:07:52+00:00,SAT-65535,295.46216926041143,31.015492918749423,4197.607726997489,-2.9326333192130365,102713.22386548124,10.5,10500102713.223866,47.655,-122.3035,60.0,7.866666666666666
2026-01-20T23:07:53+00:00,SAT-65535,295.3509478767969,31.045819022986077,4194.682914033794,-2.9233996540535503,102389.82185323113,10.5,10500102389.821854,47.655,-122.3035,60.0,7.883333333333334
2026-01-20T23:07:54+00:00,SAT-65535,295.23948635348756,31.075990030790457,4191.767310112151,-2.914143043716303,102065.61620379784,10.5,10500102065.616203,47.655,-122.3035,60.0,7.9
2026-01-20T23:07:55+00:00,SAT-65535,295.1277850044511,31.10600506340064,4188.860938116552,-2.904863514868603,101740.60785118327,10.5,10500101740.607851,47.655,-122.3035,60.0,7.916666666666667
2026-01-20T23:07:56+00:00,SAT-65535,295.01584415275545,31.135863241331226,4185.96382090439,-2.8955610683983104,101414.79682648406,10.5,10500101414.796827,47.655,-122.3035,60.0,7.933333333333334
2026-01-20T23:07:57+00:00,SAT-65535,294.90366413160933,31.165563684144793,4183.075981332174,-2.8862357201385036,101088.1836842416,10.5,10500101088.183683,47.655,-122.3035,60.0,7.95
2026-01-20T23:07:58+00:00,SAT-65535,294.79124528388326,31.19510551064532,4180.197442240622,-2.876887488809457,100760.76908011908,10.5,10500100760.76908,47.655,-122.3035,60.0,7.966666666666667
2026-01-20T23:07:59+00:00,SAT-65535,294.6785879620826,31.224487838945752,4177.328226451783,-2.8675163888969597,100432.5535214701,10.5,10500100432.553522,47.655,-122.3035,60.0,7.983333333333333
2026-01-20T23:08:00+00:00,SAT-65535,294.56569252856684,31.25370978646421,4174.468356773256,-2.8581224331110793,100103.53745345499,10.5,10500100103.537453,47.655,-122.3035,60.0,8.0
2026-01-20T23:08:01+00:00,SAT-65535,294.45255935571345,31.282770469945756,4171.617855999966,-2.8487056324949234,99773.7212628501,10.5,10500099773.721262,47.655,-122.3035,60.0,8.016666666666667
2026-01-20T23:08:02+00:00,SAT-65535,294.3391888260433,31.311669005486056,4168.776746915825,-2.8392660149477247,99443.10592680456,10.5,10500099443.105927,47.655,-122.3035,60.0,8.033333333333333
2026-01-20T23:08:03+00:00,SAT-65535,294.2255813316636,31.340404508743312,4165.9450522769175,-2.8298035809197652,99111.69146108917,10.5,10500099111.691462,47.655,-122.3035,60.0,8.05
2026-01-20T23:08:04+00:00,SAT-65535,294.11173727539057,31.368976094701377,4163.1227948388805,-2.8203183618169945,98779.47896567313,10.5,10500098779.478966,47.655,-122.3035,60.0,8.066666666666666
2026-01-20T23:08:05+00:00,SAT-65535,293.9976570696333,31.3973828780251,4160.309997326028,-2.8108103756059974,98446.46906982221,10.5,10500098446.46907,47.655,-122.3035,60.0,8.083333333333334
2026-01-20T23:08:06+00:00,SAT-65535,293.88334113698363,31.42562397296584,4157.506682444757,-2.801279631495716,98112.66209607253,10.5,10500098112.662096,47.655,-122.3035,60.0,8.1
2026-01-20T23:08:07+00:00,SAT-65535,293.7687899106423,31.453698493316345,4154.712872892278,-2.791726151080917,97778.05880076418,10.5,10500097778.058802,47.655,-122.3035,60.0,8.116666666666667
2026-01-20T23:08:08+00:00,SAT-65535,293.65400383399844,31.481605552579218,4151.928591344267,-2.7821499631674955,97442.66019280146,10.5,10500097442.660192,47.655,-122.3035,60.0,8.133333333333333
2026-01-20T23:08:09+00:00,SAT-65535,293.5389833604277,31.50934426408201,4149.153860447668,-2.7725510721769657,97106.46642704448,10.5,10500097106.466427,47.655,-122.3035,60.0,8.15
2026-01-20T23:08:10+00:00,SAT-65535,293.4237289543233,31.53691374077746,4146.388702845017,-2.7629295216109053,96769.47902710248,10.5,10500096769.479027,47.655,-122.3035,60.0,8.166666666666666
2026-01-20T23:08:11+00:00,SAT-65535,293.30824108961576,31.56431309567846,4143.633141135463,-2.7532852992080037,96431.69756353257,10.5,10500096431.697563,47.655,-122.3035,60.0,8.183333333333334
2026-01-20T23:08:12+00:00,SAT-65535,293.1925202520843,31.591541441347413,4140.887197930387,-2.74361846760889,96093.1242302745,10.5,10500096093.12423,47.655,-122.3035,60.0,8.2
2026-01-20T23:08:13+00:00,SAT-65535,293.0765669364039,31.618597890686328,4138.150895778692,-2.733929018084889,95753.7587216131,10.5,10500095753.758722,47.655,-122.3035,60.0,8.216666666666667
2026-01-20T23:08:14+00:00,SAT-65535,292.9603816491095,31.645481556274348,4135.424257237988,-2.7242169873650433,95413.60232395491,10.5,10500095413.602324,47.655,-122.3035,60.0,8.233333333333333
2026-01-20T23:08:15+00:00,SAT-65535,292.8439649068185,31.672191550864813,4132.707304829256,-2.714482401734479,95072.65595791617,10.5,10500095072.655958,47.655,-122.3035,60.0,8.25
2026-01-20T23:08:16+00:00,SAT-65535,292.72731723672405,31.69872698732784,4130.00006104726,-2.7047252700285975,94730.91993295,10.5,10500094730.919933,47.655,-122.3035,60.0,8.266666666666667
2026-01-20T23:08:17+00:00,SAT-65535,292.61043917739664,31.725086978527635,4127.302548377951,-2.694945641974162,94388.395990698,10.5,10500094388.39599,47.655,-122.3035,60.0,8.283333333333333
2026-01-20T23:08:18+00:00,SAT-65535,292.49333127713743,31.751270637769384,4124.614789257689,-2.685143521122103,94045.0842555288,10.5,10500094045.084255,47.655,-122.3035,60.0,8.3
2026-01-20T23:08:19+00:00,SAT-65535,292.3759940959951,31.77727707839679,4121.93680611929,-2.6753189449795487,93700.98604110068,10.5,10500093700.986042,47.655,-122.3035,60.0,8.316666666666666
2026-01-20T23:08:20+00:00,SAT-65535,292.2584282043915,31.803105414172112,4119.268621358164,-2.6654719405853147,93356.10229442731,10.5,10500093356.102295,47.655,-122.3035,60.0,8.333333333333334
2026-01-20T23:08:21+00:00,SAT-65535,292.1406341836473,31.828754759222257,4116.610257342753,-2.6556025312148503,93010.43383071342,10.5,10500093010.43383,47.655,-122.3035,60.0,8.35
2026-01-20T23:08:22+00:00,SAT-65535,292.0226126261959,31.854224228052775,4113.961736418289,-2.6457107494430097,92663.98179086814,10.5,10500092663.98179,47.655,-122.3035,60.0,8.366666666666667
2026-01-20T23:08:23+00:00,SAT-65535,291.90436413525845,31.879512935687437,4111.32308089751,-2.635796617793077,92316.7469637522,10.5,10500092316.746964,47.655,-122.3035,60.0,8.383333333333333
2026-01-20T23:08:24+00:00,SAT-65535,291.78588932534416,31.90461999762158,4108.694313070699,-2.6258601722836032,91968.73061088761,10.5,10500091968.730612,47.655,-122.3035,60.0,8.4
2026-01-20T23:08:25+00:00,SAT-65535,291.6671888217354,31.92954453000266,4106.075455192207,-2.6159014452490545,91619.93386476411,10.5,10500091619.933865,47.655,-122.3035,60.0,8.416666666666666
2026-01-20T23:08:26+00:00,SAT-65535,291.5482632606951,31.954285649645445,4103.466529484145,-2.605920454612818,91270.35735313458,10.5,10500091270.357353,47.655,-122.3035,60.0,8.433333333333334
2026-01-20T23:08:27+00:00,SAT-65535,291.4291132901865,31.978842473947395,4100.867558150745,-2.5959172490735276,90920.00278163116,10.5,10500090920.00278,47.655,-122.3035,60.0,8.45
2026-01-20T23:08:28+00:00,SAT-65535,291.30973956856076,32.00321412123189,4098.278563347669,-2.5858918457038107,90568.87074820946,10.5,10500090568.870749,47.655,-122.3035,60.0,8.466666666666667
2026-01-20T23:08:29+00:00,SAT-65535,291.1901427660366,32.02739971050218,4095.6995672135536,-2.5758442879686543,90216.9627751972,10.5,10500090216.962774,47.655,-122.3035,60.0,8.483333333333333
2026-01-20T23:08:30+00:00,SAT-65535,291.0703235635716,32.051398361742656,4093.130591843686,-2.5657746029038258,89864.27980950131,10.5,10500089864.27981,47.655,-122.3035,60.0,8.5
2026-01-20T23:08:31+00:00,SAT-65535,290.95028265367455,32.07520919581796,4090.5716593063903,-2.5556828288494238,89510.82319395423,10.5,10500089510.823195,47.655,-122.3035,60.0,8.516666666666667
2026-01-20T23:08:32+00:00,SAT-65535,290.83002073994624,32.09883133463183,4088.022791631751,-2.545568996231551,89156.59399420676,10.5,10500089156.593994,47.655,-122.3035,60.0,8.533333333333333
2026-01-20T23:08:33+00:00,SAT-65535,290.70953853750086,32.12226390110854,4085.484010819509,-2.535433138482426,88801.59338119664,10.5,10500088801.593382,47.655,-122.3035,60.0,8.55
2026-01-20T23:08:34+00:00,SAT-65535,290.58883677289356,32.14550601927502,4082.9553388360628,-2.525275306133834,88445.82312476072,10.5,10500088445.823124,47.655,-122.3035,60.0,8.566666666666666
2026-01-20T23:08:35+00:00,SAT-65535,290.46791618339165,32.168556814472254,4080.436797597412,-2.515095515125071,88089.28378316057,10.5,10500088089.283783,47.655,-122.3035,60.0,8.583333333333334
2026-01-20T23:08:36+00:00,SAT-65535,290.3467775186157,32.19141541309409,4077.9284090036604,-2.504893823531426,87731.97739043848,10.5,10500087731.97739,47.655,-122.3035,60.0,8.6
2026-01-20T23:08:37+00:00,SAT-65535,290.22542153866516,32.21408094302711,4075.430194896992,-2.4946702467128263,87373.90448456403,10.5,10500087373.904484,47.655,-122.3035,60.0,8.616666666666667
2026-01-20T23:08:38+00:00,SAT-65535,290.10384901614316,32.23655253331919,4072.9421771042707,-2.4844248459676903,87015.06721246718,10.5,10500087015.067213,47.655,-122.3035,60.0,8.633333333333333
2026-01-20T23:08:39+00:00,SAT-65535,289.9820607340803,32.25882931465111,4070.4643773912253,-2.4741576463217743,86655.46645065579,10.5,10500086655.46645,47.655,-122.3035,60.0,8.65
2026-01-20T23:08:40+00:00,SAT-65535,289.86005748767747,32.280910419065634,4067.996817498627,-2.4638686938970418,86295.10381451603,10.5,10500086295.103815,47.655,-122.3035,60.0,8.666666666666666
2026-01-20T23:08:41+00:00,SAT-65535,289.73784008337145,32.3027949802153,4065.539519121247,-2.4535580254367635,85933.98059095275,10.5,10500085933.98059,47.655,-122.3035,60.0,8.683333333333334
2026-01-20T23:08:42+00:00,SAT-65535,289.61540933933094,32.32448213333513,4063.0925039172116,-2.4432256802466568,85572.09815661839,10.5,10500085572.098156,47.655,-122.3035,60.0,8.7
2026-01-20T23:08:43+00:00,SAT-65535,289.4927660853957,32.34597101532433,4060.6557935054457,-2.4328717125359836,85209.45841015062,10.5,10500085209.45841,47.655,-122.3035,60.0,8.716666666666667
2026-01-20T23:08:44+00:00,SAT-65535,289.3699111623878,32.36726076493508,4058.2294094508093,-2.422496158912829,84846.06263371944,10.5,10500084846.062634,47.655,-122.3035,60.0,8.733333333333333
2026-01-20T23:08:45+00:00,SAT-65535,289.24684542302975,32.38835052267518,4055.813373281654,-2.412099044950813,84481.91172302117,10.5,10500084481.911722,47.655,-122.3035,60.0,8.75
2026-01-20T23:08:46+00:00,SAT-65535,289.12356973252713,32.40923943077372,4053.407706500823,-2.4016804466074455,84117.00833840916,10.5,10500084117.008339,47.655,-122.3035,60.0,8.766666666666667
2026-01-20T23:08:47+00:00,SAT-65535,289.0000849661575,32.42992663367628,4051.0124305354066,-2.391240386817668,83751.35328316203,10.5,10500083751.353283,47.655,-122.3035,60.0,8.783333333333333
2026-01-20T23:08:48+00:00,SAT-65535,288.8763920119037,32.45041127764508,4048.6275667896202,-2.3807789170006153,83384.9483581954,10.5,10500083384.948359,47.655,-122.3035,60.0,8.8
2026-01-20T23:08:49+00:00,SAT-65535,288.75249176911774,32.47069251106528,4046.253136616398,-2.37029608533349,83017.79525087867,10.5,10500083017.79525,47.655,-122.3035,60.0,8.816666666666666
2026-01-20T23:08:50+00:00,SAT-65535,288.62838514870805,32.49076948447672,4043.8891613206256,-2.3597919308521424,82649.89532841247,10.5,10500082649.895329,47.655,-122.3035,60.0,8.833333333333334
2026-01-20T23:08:51+00:00,SAT-65535,288.5040730736523,32.51064135055699,4041.535662168256,-2.3492665167069453,82281.25080258999,10.5,10500082281.250803,47.655,-122.3035,60.0,8.85
2026-01-20T23:08:52+00:00,SAT-65535,288.3795564778146,32.530307264385485,4039.19266036226,-2.3387198736573924,81911.86275073879,10.5,10500081911.862751,47.655,-122.3035,60.0,8.866666666666667
2026-01-20T23:08:53+00:00,SAT-65535,288.2548363076408,32.54976638323178,4036.8601770749324,-2.328152060391685,81541.73322836793,10.5,10500081541.733229,47.655,-122.3035,60.0,8.883333333333333
2026-01-20T23:08:54+00:00,SAT-65535,288.12991352076244,32.569017866852015,4034.5382334200353,-2.3175631226729814,81170.86383829678,10.5,10500081170.863838,47.655,-122.3035,60.0,8.9
2026-01-20T23:08:55+00:00,SAT-65535,288.00478908671846,32.58806087744147,4032.2268504656895,-2.3069531204285236,80799.25667943087,10.5,10500080799.25668,47.655,-122.3035,60.0,8.916666666666666
2026-01-20T23:08:56+00:00,SAT-65535,287.87946398623365,32.606894579813435,4029.9260492202484,-2.296322089422753,80426.91300439222,10.5,10500080426.913004,47.655,-122.3035,60.0,8.933333333333334
2026-01-20T23:08:57+00:00,SAT-65535,287.7539392125386,32.62551814126309,4027.6358506563975,-2.2856700928619453,80053.83502693195,10.5,10500080053.835028,47.655,-122.3035,60.0,8.95
2026-01-20T23:08:58+00:00,SAT-65535,287.62821576995805,32.64393073185449,4025.3562756837837,-2.274997173746067,79680.0242530908,10.5,10500079680.024254,47.655,-122.3035,60.0,8.966666666666667
2026-01-20T23:08:59+00:00,SAT-65535,287.50229467501583,32.662131524318916,4023.0873451691673,-2.264303398424735,79305.483006713,10.5,10500079305.483007,47.655,-122.3035,60.0,8.983333333333333
2026-01-20T23:09:00+00:00,SAT-65535,287.37617695522454,32.68011969430562,4020.8290799131382,-2.253588809465419,78930.21277869138,10.5,10500078930.212778,47.655,-122.3035,60.0,9.0
2026-01-20T23:09:01+00:00,SAT-65535,287.24986365039575,32.697894420253476,4018.581500673831,-2.2428534633852064,78554.21554849345,10.5,10500078554.215548,47.655,-122.3035,60.0,9.016666666666667
2026-01-20T23:09:02+00:00,SAT-65535,287.1233558119112,32.715454883567475,4016.3446281530155,-2.2320974247112377,78177.49357613258,10.5,10500078177.493576,47.655,-122.3035,60.0,9.033333333333333
2026-01-20T23:09:03+00:00,SAT-65535,286.99665450233624,32.73280026874279,4014.118482988103,-2.221320732809199,77800.04824036163,10.5,10500077800.04824,47.655,-122.3035,60.0,9.05
2026-01-20T23:09:04+00:00,SAT-65535,286.8697607967985,32.74992976323329,4011.903085777248,-2.2105234573280685,77421.88198058245,10.5,10500077421.88198,47.655,-122.3035,60.0,9.066666666666666
2026-01-20T23:09:05+00:00,SAT-65535,286.74267578138813,32.766842557750564,4009.69845704914,-2.1997056556331533,77042.99680597072,10.5,10500077042.996805,47.655,-122.3035,60.0,9.083333333333334
2026-01-20T23:09:06+00:00,SAT-65535,286.61540055382505,32.783537846232065,4007.504617275255,-2.1888673749289205,76663.39436982655,10.5,10500076663.39437,47.655,-122.3035,60.0,9.1
2026-01-20T23:09:07+00:00,SAT-65535,286.48793622408124,32.800014825828725,4005.3215868799925,-2.178008688623651,76283.0772432185,10.5,10500076283.077244,47.655,-122.3035,60.0,9.116666666666667
2026-01-20T23:09:08+00:00,SAT-65535,286.36028391292257,32.81627269716791,4003.1493862145385,-2.167129645390568,75902.04713088869,10.5,10500075902.04713,47.655,-122.3035,60.0,9.133333333333333
2026-01-20T23:09:09+00:00,SAT-65535,286.2324447533316,32.832310664231144,4000.9880355815358,-2.1562303073773266,75520.30620951086,10.5,10500075520.30621,47.655,-122.3035,60.0,9.15
2026-01-20T23:09:10+00:00,SAT-65535,286.104419889761,32.84812793452098,3998.837555221645,-2.145310744469734,75137.8569267817,10.5,10500075137.856926,47.655,-122.3035,60.0,9.166666666666666
2026-01-20T23:09:11+00:00,SAT-65535,285.9762104777278,32.86372371918123,3996.6979653058265,-2.134370998864262,74754.70076060004,10.5,10500074754.70076,47.655,-122.3035,60.0,9.183333333333334
2026-01-20T23:09:12+00:00,SAT-65535,285.84781768539915,32.87909723286095,3994.56928596296,-2.1234111578105566,74370.84076681756,10.5,10500074370.840767,47.655,-122.3035,60.0,9.2
2026-01-20T23:09:13+00:00,SAT-65535,285.71924269104323,32.89424769410562,3992.4515372349033,-2.1124312667617597,73986.27853739561,10.5,10500073986.278538,47.655,-122.3035,60.0,9.216666666666667
2026-01-20T23:09:14+00:00,SAT-65535,285.5904866854331,32.90917432512071,3990.344739118186,-2.1014313949155503,73601.01649592958,10.5,10500073601.016497,47.655,-122.3035,60.0,9.233333333333333
2026-01-20T23:09:15+00:00,SAT-65535,285.46155087051227,32.923876352008485,3988.2489115403237,-2.0904116086195117,73215.05696619251,10.5,10500073215.056967,47.655,-122.3035,60.0,9.25
2026-01-20T23:09:16+00:00,SAT-65535,285.3324364595576,32.93835300481166,3986.1640743626604,-2.079371966256405,72828.40199299563,10.5,10500072828.401993,47.655,-122.3035,60.0,9.266666666666667
2026-01-20T23:09:17+00:00,SAT-65535,285.2031446776663,32.9526035175249,3984.090247388314,-2.068312547696018,72441.05437371673,10.5,10500072441.054373,47.655,-122.3035,60.0,9.283333333333333
2026-01-20T23:09:18+00:00,SAT-65535,285.07367676050353,32.96662712830726,3982.027450340745,-2.0572334041979032,72053.01590368222,10.5,10500072053.015903,47.655,-122.3035,60.0,9.3
2026-01-20T23:09:19+00:00,SAT-65535,284.9440339559974,32.98042307935257,3979.975702892292,-2.0461346101730586,71664.28918908,10.5,10500071664.289188,47.655,-122.3035,60.0,9.316666666666666
2026-01-20T23:09:20+00:00,SAT-65535,284.81421752299434,32.9939906171138,3977.9350246410795,-2.035016237213895,71274.87673737908,10.5,10500071274.876738,47.655,-122.3035,60.0,9.333333333333334
2026-01-20T23:09:21+00:00,SAT-65535,284.6842287314001,33.00732899234774,3975.9054351138316,-2.023878352512655,70884.7809019361,10.5,10500070884.780903,47.655,-122.3035,60.0,9.35
2026-01-20T23:09:22+00:00,SAT-65535,284.55406886247704,33.02043746015177,3973.8869537702585,-2.0127210173662347,70494.00382962757,10.5,10500070494.00383,47.655,-122.3035,60.0,9.366666666666667
2026-01-20T23:09:23+00:00,SAT-65535,284.42373920920414,33.03331527999242,3971.8796000089387,-2.001544313918194,70102.54839746849,10.5,10500070102.548397,47.655,-122.3035,60.0,9.383333333333333
2026-01-20T23:09:24+00:00,SAT-65535,284.2932410750018,33.04596171590643,3969.883393146524,-1.9903483065772578,69710.4168613248,10.5,10500069710.41686,47.655,-122.3035,60.0,9.4
2026-01-20T23:09:25+00:00,SAT-65535,284.16257577482554,33.058376036451556,3967.8983524354317,-1.9791330688604647,69317.6117960742,10.5,10500069317.611795,47.655,-122.3035,60.0,9.416666666666666
2026-01-20T23:09:26+00:00,SAT-65535,284.0317446346103,33.0705575148314,3965.9244970547543,-1.967898676602844,68924.13585778019,10.5,10500068924.135859,47.655,-122.3035,60.0,9.433333333333334
2026-01-20T23:09:27+00:00,SAT-65535,283.90074899110783,33.08250542897464,3963.961846107956,-1.9566451932835844,68529.99126975249,10.5,10500068529.99127,47.655,-122.3035,60.0,9.45
2026-01-20T23:09:28+00:00,SAT-65535,283.7695901926946,33.09421906152633,3962.0104186351878,-1.9453727059754733,68135.18108164839,10.5,10500068135.181082,47.655,-122.3035,60.0,9.466666666666667
2026-01-20T23:09:29+00:00,SAT-65535,283.63826959783626,33.105697700055806,3960.0702335897613,-1.9340812796447502,67739.70756886044,10.5,10500067739.70757,47.655,-122.3035,60.0,9.483333333333333
2026-01-20T23:09:30+00:00,SAT-65535,283.5067885765266,33.11694063699054,3958.141309860196,-1.9227709898215124,67343.57337677214,10.5,10500067343.573378,47.655,-122.3035,60.0,9.5
2026-01-20T23:09:31+00:00,SAT-65535,283.375148509587,33.12794716974486,3956.2236662596806,-1.9114419239017724,66946.78156636152,10.5,10500066946.781567,47.655,-122.3035,60.0,9.516666666666667
2026-01-20T23:09:32+00:00,SAT-65535,283.2433507878927,33.138716600853606,3954.3173215142424,-1.900094142813966,66549.33427160012,10.5,10500066549.334272,47.655,-122.3035,60.0,9.533333333333333
2026-01-20T23:09:33+00:00,SAT-65535,283.1113968140925,33.149248237886084,3952.422294289143,-1.8887277385138523,66151.23471316764,10.5,10500066151.234713,47.655,-122.3035,60.0,9.55
2026-01-20T23:09:34+00:00,SAT-65535,282.9792880005675,33.159541393687775,3950.5386031579314,-1.877342779850473,65752.48530244868,10.5,10500065752.485302,47.655,-122.3035,60.0,9.566666666666666
2026-01-20T23:09:35+00:00,SAT-65535,282.8470257709311,33.1695953863158,3948.666266625494,-1.8659393459815972,65353.088811883215,10.5,10500065353.088812,47.655,-122.3035,60.0,9.583333333333334
2026-01-20T23:09:36+00:00,SAT-65535,282.71461155936163,33.1794095391629,3946.8053031177683,-1.854517529134374,64953.04847165611,10.5,10500064953.048471,47.655,-122.3035,60.0,9.6
2026-01-20T23:09:37+00:00,SAT-65535,282.5820468096722,33.188983181090045,3944.9557309687116,-1.8430773912033658,64552.36644957673,10.5,10500064552.36645,47.655,-122.3035,60.0,9.616666666666667
2026-01-20T23:09:38+00:00,SAT-65535,282.44933297738055,33.198315646332745,3943.1175684505515,-1.8316190243486363,64151.04597348036,10.5,10500064151.045973,47.655,-122.3035,60.0,9.633333333333333
2026-01-20T23:09:39+00:00,SAT-65535,282.31647152761843,33.2074062747247,3941.290833743601,-1.8201425150508939,63749.09007228723,10.5,10500063749.090073,47.655,-122.3035,60.0,9.65
2026-01-20T23:09:40+00:00,SAT-65535,282.183463935503,33.216254411729864,3939.4755449419235,-1.808647932274545,63346.50116142256,10.5,10500063346.501162,47.655,-122.3035,60.0,9.666666666666666
2026-01-20T23:09:41+00:00,SAT-65535,282.0503116873249,33.22485940842199,3937.6717200708017,-1.7971353731215836,62943.28264180892,10.5,10500062943.282642,47.655,-122.3035,60.0,9.683333333333334
2026-01-20T23:09:42+00:00,SAT-65535,281.9170162785809,33.23322062168665,3935.879377058675,-1.7856049111273438,62539.437088964754,10.5,10500062539.437088,47.655,-122.3035,60.0,9.7
2026-01-20T23:09:43+00:00,SAT-65535,281.7835792155922,33.24133741417168,3934.0985337606444,-1.7740566357059793,62134.96763455197,10.5,10500062134.967634,47.655,-122.3035,60.0,9.716666666666667
2026-01-20T23:09:44+00:00,SAT-65535,281.6500020143807,33.24920915442739,3932.3292079426333,-1.7624906382902916,61729.87748093403,10.5,10500061729.877481,47.655,-122.3035,60.0,9.733333333333333
2026-01-20T23:09:45+00:00,SAT-65535,281.5162862004672,33.25683521697664,3930.5714172793787,-1.750906994804757,61324.16928730725,10.5,10500061324.169287,47.655,-122.3035,60.0,9.75
2026-01-20T23:09:46+00:00,SAT-65535,281.3824333099906,33.264214982310484,3928.8251793698932,-1.7393057937787175,60917.846154343664,10.5,10500060917.846155,47.655,-122.3035,60.0,9.766666666666667
2026-01-20T23:09:47+00:00,SAT-65535,281.2484448887527,33.271347837008676,3927.090511724898,-1.7276871331105481,60510.91151085847,10.5,10500060510.91151,47.655,-122.3035,60.0,9.783333333333333
2026-01-20T23:09:48+00:00,SAT-65535,281.1143224915205,33.27823317383954,3925.3674317574755,-1.716051085224106,60103.367893441515,10.5,10500060103.367893,47.655,-122.3035,60.0,9.8
2026-01-20T23:09:49+00:00,SAT-65535,280.9800676838486,33.28487039171891,3923.655956808479,-1.7043977552156824,59695.21898300945,10.5,10500059695.218983,47.655,-122.3035,60.0,9.816666666666666
2026-01-20T23:09:50+00:00,SAT-65535,280.8456820396572,33.29125889590463,3921.956104113944,-1.6927272241509035,59286.467618823444,10.5,10500059286.467619,47.655,-122.3035,60.0,9.833333333333334
2026-01-20T23:09:51+00:00,SAT-65535,280.71116714295454,33.29739809796193,3920.2678908290573,-1.6810395812975558,58877.11692741895,10.5,10500058877.116928,47.655,-122.3035,60.0,9.85
2026-01-20T23:09:52+00:00,SAT-65535,280.5765245872319,33.30328741586062,3918.591334019977,-1.6693349235075887,58467.17030096095,10.5,10500058467.170301,47.655,-122.3035,60.0,9.866666666666667
2026-01-20T23:09:53+00:00,SAT-65535,280.44175597481654,33.30892627406243,3916.926450656265,-1.6576133385287026,58056.630812745054,10.5,10500058056.630814,47.655,-122.3035,60.0,9.883333333333333
2026-01-20T23:09:54+00:00,SAT-65535,280.30686291755774,33.31431410355017,3915.2732576199724,-1.64587491903833,57645.50170872699,10.5,10500057645.501709,47.655,-122.3035,60.0,9.9
2026-01-20T23:09:55+00:00,SAT-65535,280.1718470363905,33.31945034190664,3913.6317717007178,-1.6341197653122965,57233.78650099034,10.5,10500057233.7865,47.655,-122.3035,60.0,9.916666666666666
2026-01-20T23:09:56+00:00,SAT-65535,280.0367099607274,33.324334433398874,3912.0020095881137,-1.622347956256804,56821.487953164054,10.5,10500056821.487953,47.655,-122.3035,60.0,9.933333333333334
2026-01-20T23:09:57+00:00,SAT-65535,279.90145333006353,33.328965828972464,3910.3839878930735,-1.610559607209279,56408.610104852705,10.5,10500056408.610106,47.655,-122.3035,60.0,9.95
2026-01-20T23:09:58+00:00,SAT-65535,279.7660787911026,33.33334398642165,3908.7777231114833,-1.5987547958348503,55995.155676217604,10.5,10500055995.155676,47.655,-122.3035,60.0,9.966666666666667
2026-01-20T23:09:59+00:00,SAT-65535,279.6305880006575,33.33746837033741,3907.1832316617706,-1.586933626504579,55581.12832277482,10.5,10500055581.128323,47.655,-122.3035,60.0,9.983333333333333
2026-01-20T23:10:00+00:00,SAT-65535,279.4949826235205,33.341338452244955,3905.6005298582704,-1.5750961959972307,55166.53143412608,10.5,10500055166.531435,47.655,-122.3035,60.0,10.0
2026-01-20T23:10:01+00:00,SAT-65535,279.35926433298965,33.344953710639174,3904.0296339187953,-1.5632425978902953,54751.36828775092,10.5,10500054751.368288,47.655,-122.3035,60.0,10.016666666666667
2026-01-20T23:10:02+00:00,SAT-65535,279.22343481111477,33.34831363103672,3902.4705599678327,-1.5513729369644582,54335.642553512174,10.5,10500054335.642553,47.655,-122.3035,60.0,10.033333333333333
2026-01-20T23:10:03+00:00,SAT-65535,279.0874957477042,33.35141770605969,3900.923324025367,-1.5394873043023585,53919.357421509136,10.5,10500053919.357422,47.655,-122.3035,60.0,10.05
2026-01-20T23:10:04+00:00,SAT-65535,278.95144884143565,33.35426543546314,3899.387942020543,-1.5275858034039684,53502.51651674863,10.5,10500053502.516518,47.655,-122.3035,60.0,10.066666666666666
2026-01-20T23:10:05+00:00,SAT-65535,278.8152957987499,33.35685632621935,3897.864429779281,-1.5156685384172406,53085.1234869325,10.5,10500053085.123487,47.655,-122.3035,60.0,10.083333333333334
2026-01-20T23:10:06+00:00,SAT-65535,278.6790383337649,33.35918989257357,3896.352803023633,-1.5037356038146392,52667.18164088608,10.5,10500052667.18164,47.655,-122.3035,60.0,10.1
2026-01-20T23:10:07+00:00,SAT-65535,278.54267816901813,33.361265656082836,3894.8530773814286,-1.4917871038452526,52248.6946298534,10.5,10500052248.69463,47.655,-122.3035,60.0,10.116666666666667
2026-01-20T23:10:08+00:00,SAT-65535,278.40621703460613,33.36308314569061,3893.3652683765267,-1.4798231407573077,51829.66603499989,10.5,10500051829.666035,47.655,-122.3035,60.0,10.133333333333333
2026-01-20T23:10:09+00:00,SAT-65535,278.2696566682812,33.36464189777638,3891.8893914308114,-1.467843817583215,51410.09946495638,10.5,10500051410.099464,47.655,-122.3035,60.0,10.15
2026-01-20T23:10:10+00:00,SAT-65535,278.13299881535113,33.36594145621354,3890.4254618634086,-1.4558492404204573,50989.99863570552,10.5,10500050989.998636,47.655,-122.3035,60.0,10.166666666666666
2026-01-20T23:10:11+00:00,SAT-65535,277.9962452283277,33.36698137242486,3888.9734948876294,-1.443839506172823,50569.36694122786,10.5,10500050569.366941,47.655,-122.3035,60.0,10.183333333333334
2026-01-20T23:10:12+00:00,SAT-65535,277.859397667703,33.36776120542926,3887.5335056201397,-1.4318147283908382,50148.20835854317,10.5,10500050148.208359,47.655,-122.3035,60.0,10.2
2026-01-20T23:10:13+00:00,SAT-65535,277.7224579003917,33.36828052190845,3886.1055090643576,-1.4197750078915838,49726.526418692054,10.5,10500049726.526419,47.655,-122.3035,60.0,10.216666666666667
2026-01-20T23:10:14+00:00,SAT-65535,277.5854277008384,33.36853889625047,3884.689520123154,-1.407720454463742,49304.3249669386,10.5,10500049304.324966,47.655,-122.3035,60.0,10.233333333333333
2026-01-20T23:10:15+00:00,SAT-65535,277.44830885010424,33.36853591060533,3883.285553589902,-1.395651169169356,48881.607542903024,10.5,10500048881.607542,47.655,-122.3035,60.0,10.25
2026-01-20T23:10:16+00:00,SAT-65535,277.31110313664726,33.36827115493619,3881.8936241571837,-1.383567263191156,48458.37804067485,10.5,10500048458.37804,47.655,-122.3035,60.0,10.266666666666667
2026-01-20T23:10:17+00:00,SAT-65535,277.17381235530434,33.36774422707209,3880.5137464066943,-1.3714688482826032,48034.640374333016,10.5,10500048034.640375,47.655,-122.3035,60.0,10.283333333333333
2026-01-20T23:10:18+00:00,SAT-65535,277.03643830718175,33.36695473275584,3879.145934808674,-1.3593560262889064,47610.39811092752,10.5,10500047610.398111,47.655,-122.3035,60.0,10.3
2026-01-20T23:10:19+00:00,SAT-65535,276.89898280049806,33.36590228569665,3877.790203731789,-1.347228912598823,47185.65529186075,10.5,10500047185.655293,47.655,-122.3035,60.0,10.316666666666666
2026-01-20T23:10:20+00:00,SAT-65535,276.7614476492751,33.364586507615684,3876.4465674296234,-1.335087612719793,46760.41561244955,10.5,10500046760.415613,47.655,-122.3035,60.0,10.333333333333334
2026-01-20T23:10:21+00:00,SAT-65535,276.62383467417135,33.36300702829839,3875.115040050537,-1.3229322432572521,46334.68315670953,10.5,10500046334.683157,47.655,-122.3035,60.0,10.35
2026-01-20T23:10:22+00:00,SAT-65535,276.4861457013937,33.361163485635714,3873.7956356265954,-1.3107629099066822,45908.461626543525,10.5,10500045908.461626,47.655,-122.3035,60.0,10.366666666666667
2026-01-20T23:10:23+00:00,SAT-65535,276.34838256363713,33.359055525679615,3872.4883680844487,-1.298579725950269,45481.7549895729,10.5,10500045481.75499,47.655,-122.3035,60.0,10.383333333333333
2026-01-20T23:10:24+00:00,SAT-65535,276.2105470993191,33.35668280268451,3871.1932512377675,-1.2863828073800274,45054.56730832864,10.5,10500045054.567308,47.655,-122.3035,60.0,10.4
2026-01-20T23:10:25+00:00,SAT-65535,276.0726411522097,33.35404497914715,3869.9102987845404,-1.2741722642270612,44626.90243656545,10.5,10500044626.902437,47.655,-122.3035,60.0,10.416666666666666
2026-01-20T23:10:26+00:00,SAT-65535,275.934666571968,33.35114172586145,3868.6395243130182,-1.2619482115055707,44198.764402567096,10.5,10500044198.764402,47.655,-122.3035,60.0,10.433333333333334
2026-01-20T23:10:27+00:00,SAT-65535,275.79662521356164,33.347972721954974,3867.380941296743,-1.2497107638150466,43770.157220092544,10.5,10500043770.15722,47.655,-122.3035,60.0,10.45
2026-01-20T23:10:28+00:00,SAT-65535,275.6585189372515,33.344537654934385,3866.134563094965,-1.23746003733707,43341.08495831218,10.5,10500043341.084959,47.655,-122.3035,60.0,10.466666666666667
2026-01-20T23:10:29+00:00,SAT-65535,275.520349608327,33.340836220723396,3864.9004029510606,-1.22519614680327,42911.55163561298,10.5,10500042911.551636,47.655,-122.3035,60.0,10.483333333333333
2026-01-20T23:10:30+00:00,SAT-65535,275.382119097213,33.33686812371035,3863.678473993982,-1.212919206465516,42481.56125357869,10.5,10500042481.561255,47.655,-122.3035,60.0,10.5
2026-01-20T23:10:31+00:00,SAT-65535,275.2438292794165,33.33263307679147,3862.468789238734,-1.2006293365218492,42051.11802205316,10.5,10500042051.118023,47.655,-122.3035,60.0,10.516666666666667
2026-01-20T23:10:32+00:00,SAT-65535,275.10548203485916,33.32813080139659,3861.271361580443,-1.1883266544416782,41620.22605531197,10.5,10500041620.226055,47.655,-122.3035,60.0,10.533333333333333
2026-01-20T23:10:33+00:00,SAT-65535,274.96707924805133,33.323361027534396,3860.0862037970796,-1.1760112774240394,41188.88945816113,10.5,10500041188.889458,47.655,-122.3035,60.0,10.55
2026-01-20T23:10:34+00:00,SAT-65535,274.8286228080691,33.31832349383532,3858.9133285497287,-1.163683321085881,40757.11227999522,10.5,10500040757.11228,47.655,-122.3035,60.0,10.566666666666666
2026-01-20T23:10:35+00:00,SAT-65535,274.690114608628,33.31301794759615,3857.752748384166,-1.1513429110067828,40324.89891914232,10.5,10500040324.89892,47.655,-122.3035,60.0,10.583333333333334
2026-01-20T23:10:36+00:00,SAT-65535,274.55155654696,33.30744414478285,3856.604475720922,-1.1389901658336992,39892.25353112066,10.5,10500039892.25353,47.655,-122.3035,60.0,10.6
2026-01-20T23:10:37+00:00,SAT-65535,274.4129505244183,33.30160185008829,3855.468522862197,-1.1266251963732778,39459.17999684774,10.5,10500039459.179996,47.655,-122.3035,60.0,10.616666666666667
2026-01-20T23:10:38+00:00,SAT-65535,274.2742984473566,33.29549083701289,3854.3449019996806,-1.114248140252957,39025.68313661863,10.5,10500039025.683136,47.655,-122.3035,60.0,10.633333333333333
2026-01-20T23:10:39+00:00,SAT-65535,274.13560222397217,33.2891108877722,3853.233625187802,-1.1018591045587074,38591.766701036984,10.5,10500038591.7667,47.655,-122.3035,60.0,10.65
2026-01-20T23:10:40+00:00,SAT-65535,273.9968637677233,33.28246179347912,3852.1347043741885,-1.0894582219806122,38157.435337470786,10.5,10500038157.435337,47.655,-122.3035,60.0,10.666666666666666
2026-01-20T23:10:41+00:00,SAT-65535,273.85808499428305,33.275543354049525,3851.0481513741333,-1.0770456076863524,37722.69307957941,10.5,10500037722.693079,47.655,-122.3035,60.0,10.683333333333334
2026-01-20T23:10:42+00:00,SAT-65535,273.7192678235159,33.26835537832916,3849.973977888067,-1.064621385023916,37287.54424753113,10.5,10500037287.544247,47.655,-122.3035,60.0,10.7
2026-01-20T23:10:43+00:00,SAT-65535,273.580414178429,33.2608976840841,3848.9121954934035,-1.0521856852893383,36851.9934398685,10.5,10500036851.99344,47.655,-122.3035,60.0,10.716666666666667
2026-01-20T23:10:44+00:00,SAT-65535,273.44152598414666,33.25317009798182,3847.8628156366085,-1.0397386281195862,36416.04484678415,10.5,10500036416.044847,47.655,-122.3035,60.0,10.733333333333333
2026-01-20T23:10:45+00:00,SAT-65535,273.3026051691936,33.24517245569089,3846.8258496448307,-1.0272803340232226,35979.70268899773,10.5,10500035979.702688,47.655,-122.3035,60.0,10.75
2026-01-20T23:10:46+00:00,SAT-65535,273.1636536653577,33.236904601915185,3845.801308725031,-1.0148109382908912,35542.971704959826,10.5,10500035542.971704,47.655,-122.3035,60.0,10.766666666666667
2026-01-20T23:10:47+00:00,SAT-65535,273.024673405748,33.22836639031495,3844.789203949242,-1.0023305579839004,35105.85599465265,10.5,10500035105.855995,47.655,-122.3035,60.0,10.783333333333333
2026-01-20T23:10:48+00:00,SAT-65535,272.885666326994,33.21955768366827,3843.789546272746,-0.989839323109949,34668.36011149575,10.5,10500034668.360111,47.655,-122.3035,60.0,10.8
2026-01-20T23:10:49+00:00,SAT-65535,272.7466343675333,33.21047835380449,3842.802346521165,-0.9773373635308773,34230.48860380007,10.5,10500034230.488604,47.655,-122.3035,60.0,10.816666666666666
2026-01-20T23:10:50+00:00,SAT-65535,272.60757946754177,33.201128281627874,3841.8276153906036,-0.9648248013246306,33792.245747251654,10.5,10500033792.245747,47.655,-122.3035,60.0,10.833333333333334
2026-01-20T23:10:51+00:00,SAT-65535,272.4685035698334,33.19150735720893,3840.8653634554157,-0.9523017688956729,33353.636179214904,10.5,10500033353.636179,47.655,-122.3035,60.0,10.85
2026-01-20T23:10:52+00:00,SAT-65535,272.3294086184533,33.18161547972305,3839.915601157904,-0.9397683930565249,32914.66434120071,10.5,10500032914.664341,47.655,-122.3035,60.0,10.866666666666667
2026-01-20T23:10:53+00:00,SAT-65535,272.1902965593068,33.17145255752189,3838.9783388138953,-0.9272248012473597,32475.334696703,10.5,10500032475.334696,47.655,-122.3035,60.0,10.883333333333333
2026-01-20T23:10:54+00:00,SAT-65535,272.0511693400151,33.161018508155365,3838.053586612118,-0.9146711254828359,32035.651869433543,10.5,10500032035.651869,47.655,-122.3035,60.0,10.9
2026-01-20T23:10:55+00:00,SAT-65535,271.91202890919146,33.15031325834815,3837.141354609636,-0.9021074957355855,31595.62041158369,10.5,10500031595.62041,47.655,-122.3035,60.0,10.916666666666666
2026-01-20T23:10:56+00:00,SAT-65535,271.77287721663976,33.139336744040385,3836.2416527338896,-0.8895340408728617,31155.244836629776,10.5,10500031155.244837,47.655,-122.3035,60.0,10.933333333333334
2026-01-20T23:10:57+00:00,SAT-65535,271.6337162134024,33.12808891042051,3835.354490783792,-0.8769508935044493,30714.52978912738,10.5,10500030714.529789,47.655,-122.3035,60.0,10.95
2026-01-20T23:10:58+00:00,SAT-65535,271.4945478511834,33.116569711907154,3834.479878426004,-0.8643581826856435,30273.479789138844,10.5,10500030273.47979,47.655,-122.3035,60.0,10.966666666666667
2026-01-20T23:10:59+00:00,SAT-65535,271.35537408272705,33.10477911220613,3833.617825198472,-0.851756044218356,29832.099593021576,10.5,10500029832.099592,47.655,-122.3035,60.0,10.983333333333333
2026-01-20T23:11:00+00:00,SAT-65535,271.21619686079714,33.092717084251035,3832.7683405037046,-0.8391446058593809,29390.393675358904,10.5,10500029390.393675,47.655,-122.3035,60.0,11.0
2026-01-20T23:11:01+00:00,SAT-65535,271.07701813922694,33.08038361031695,3831.931433616794,-0.8265240021212774,28948.366747349635,10.5,10500028948.366747,47.655,-122.3035,60.0,11.016666666666667
2026-01-20T23:11:02+00:00,SAT-65535,270.93783987188715,33.06777868195886,3831.107113678679,-0.813894371873064,28506.023672774223,10.5,10500028506.023672,47.655,-122.3035,60.0,11.033333333333333
2026-01-20T23:11:03+00:00,SAT-65535,270.7986640118545,33.054902299953866,3830.2953896917975,-0.8012558380597093,28063.36875768552,10.5,10500028063.368757,47.655,-122.3035,60.0,11.05
2026-01-20T23:11:04+00:00,SAT-65535,270.65949251382665,33.04175447454735,3829.4962705359726,-0.7886085427601488,27620.406978288836,10.5,10500027620.406979,47.655,-122.3035,60.0,11.066666666666666
2026-01-20T23:11:05+00:00,SAT-65535,270.5203273310602,33.02833522519506,3828.709764949326,-0.7759526198110086,27177.14302210895,10.5,10500027177.143023,47.655,-122.3035,60.0,11.083333333333334
2026-01-20T23:11:06+00:00,SAT-65535,270.3811704165713,33.01464458069061,3827.9358815365013,-0.7632882006053952,26733.58149108824,10.5,10500026733.581491,47.655,-122.3035,60.0,11.1
2026-01-20T23:11:07+00:00,SAT-65535,270.2420237234014,33.000682579215265,3827.174628771098,-0.7506154249220404,26289.727280869167,10.5,10500026289.727282,47.655,-122.3035,60.0,11.116666666666667
2026-01-20T23:11:08+00:00,SAT-65535,270.10288920326667,32.986449268225854,3826.426014987309,-0.7379344235833196,25845.584973404686,10.5,10500025845.584974,47.655,-122.3035,60.0,11.133333333333333
2026-01-20T23:11:09+00:00,SAT-65535,269.963768807824,32.971944704597796,3825.690048388855,-0.7252453370743905,25401.15948907928,10.5,10500025401.159489,47.655,-122.3035,60.0,11.15
2026-01-20T23:11:10+00:00,SAT-65535,269.82466448708874,32.95716895448595,3824.9667370393463,-0.7125483024834699,24956.455629302167,10.5,10500024956.45563,47.655,-122.3035,60.0,11.166666666666666
2026-01-20T23:11:11+00:00,SAT-65535,269.68557818982805,32.942122093376774,3824.2560888656694,-0.6998434517007027,24511.478013424137,10.5,10500024511.478014,47.655,-122.3035,60.0,11.183333333333334
2026-01-20T23:11:12+00:00,SAT-65535,269.54651186441464,32.92680420619951,3823.5581116631733,-0.6871309267425127,24066.231615461067,10.5,10500024066.231615,47.655,-122.3035,60.0,11.2
2026-01-20T23:11:13+00:00,SAT-65535,269.40746745699494,32.911215387146754,3822.8728130855684,-0.6744108646656073,23620.7212357186,10.5,10500023620.721235,47.655,-122.3035,60.0,11.216666666666667
2026-01-20T23:11:14+00:00,SAT-65535,269.26844691224153,32.89535573976591,3822.2002006498756,-0.6616834029525814,23174.95168941877,10.5,10500023174.951689,47.655,-122.3035,60.0,11.233333333333333
2026-01-20T23:11:15+00:00,SAT-65535,269.1294521731797,32.87922537695761,3821.5402817359977,-0.6489486790438483,22728.92779030621,10.5,10500022728.92779,47.655,-122.3035,60.0,11.25
2026-01-20T23:11:16+00:00,SAT-65535,268.99048518116854,32.86282442098726,3820.8930635867646,-0.6362068341584349,22282.65448446861,10.5,10500022282.654484,47.655,-122.3035,60.0,11.266666666666667
2026-01-20T23:11:17+00:00,SAT-65535,268.85154787505996,32.84615300340009,3820.258553304164,-0.6234580058460217,21836.136589477603,10.5,10500021836.13659,47.655,-122.3035,60.0,11.283333333333333
2026-01-20T23:11:18+00:00,SAT-65535,268.71264219184565,32.82921126510811,3819.636757853,-0.6107023341887479,21389.37901160226,10.5,10500021389.379011,47.655,-122.3035,60.0,11.3
2026-01-20T23:11:19+00:00,SAT-65535,268.5737700660449,32.81199935632915,3819.0276840583692,-0.5979399593028036,20942.386658304255,10.5,10500020942.386658,47.655,-122.3035,60.0,11.316666666666666
2026-01-20T23:11:20+00:00,SAT-65535,268.4349334296748,32.79451743659383,3818.431338605624,-0.5851710213023464,20495.16443697405,10.5,10500020495.164436,47.655,-122.3035,60.0,11.333333333333334
2026-01-20T23:11:21+00:00,SAT-65535,268.2961342120933,32.77676567473387,3817.847728040379,-0.5723956619801831,20047.717313795543,10.5,10500020047.717314,47.655,-122.3035,60.0,11.35
2026-01-20T23:11:22+00:00,SAT-65535,268.15737433963807,32.758744248845446,3817.2768587668306,-0.5596140189601944,19600.05010893917,10.5,10500019600.05011,47.655,-122.3035,60.0,11.366666666666667
2026-01-20T23:11:23+00:00,SAT-65535,268.01865573634603,32.740453346391426,3816.718737051921,-0.5468262378930833,19152.167923708657,10.5,10500019152.167923,47.655,-122.3035,60.0,11.383333333333333
2026-01-20T23:11:24+00:00,SAT-65535,267.8799803222777,32.72189316398884,3816.173369017329,-0.5340324563737622,18704.07557725986,10.5,10500018704.075577,47.655,-122.3035,60.0,11.4
2026-01-20T23:11:25+00:00,SAT-65535,267.7413500150018,32.70306390761021,3815.6407606475054,-0.5212328192260604,18255.77814193589,10.5,10500018255.778141,47.655,-122.3035,60.0,11.416666666666666
2026-01-20T23:11:26+00:00,SAT-65535,267.60276672815,32.6839657923986,3815.120917782464,-0.5084274668141795,17807.280533884827,10.5,10500017807.280535,47.655,-122.3035,60.0,11.433333333333334
2026-01-20T23:11:27+00:00,SAT-65535,267.4642323721331,32.664599042765495,3814.613846122228,-0.4956165416759769,17358.587745385368,10.5,10500017358.587746,47.655,-122.3035,60.0,11.45
2026-01-20T23:11:28+00:00,SAT-65535,267.32574885366614,32.64496389233311,3814.1195512246636,-0.48280018848434114,16909.704843494033,10.5,10500016909.704844,47.655,-122.3035,60.0,11.466666666666667
2026-01-20T23:11:29+00:00,SAT-65535,267.1873180751958,32.62506058385322,3813.6380385033485,-0.4699785482346826,16460.63676646651,10.5,10500016460.636766,47.655,-122.3035,60.0,11.483333333333333
2026-01-20T23:11:30+00:00,SAT-65535,267.0489419356182,32.6048893693126,3813.169313231242,-0.4571517634389394,16011.388505673693,10.5,10500016011.388506,47.655,-122.3035,60.0,11.5
2026-01-20T23:11:31+00:00,SAT-65535,266.91062232993573,32.58445050988681,3812.7133805391722,-0.4443199802169016,15561.965178848717,10.5,10500015561.96518,47.655,-122.3035,60.0,11.516666666666667
2026-01-20T23:11:32+00:00,SAT-65535,266.77236114820886,32.56374427578666,3812.270245412236,-0.4314833407222126,15112.371764813484,10.5,10500015112.371765,47.655,-122.3035,60.0,11.533333333333333
2026-01-20T23:11:33+00:00,SAT-65535,266.6341602765397,32.54277094640135,3811.8399126937557,-0.41864199008109304,14662.613346502121,10.5,10500014662.613346,47.655,-122.3035,60.0,11.55
2026-01-20T23:11:34+00:00,SAT-65535,266.4960215961418,32.52153081015814,3811.4223870823153,-0.40579606986425776,14212.694882319909,10.5,10500014212.694881,47.655,-122.3035,60.0,11.566666666666666
2026-01-20T23:11:35+00:00,SAT-65535,266.35794698431107,32.50002416467118,3811.0176731353035,-0.3929457283936136,13762.621567127426,10.5,10500013762.621567,47.655,-122.3035,60.0,11.583333333333334
2026-01-20T23:11:36+00:00,SAT-65535,266.2199383124043,32.478251316423,3810.625775262186,-0.38009110828020143,13312.398395766562,10.5,10500013312.398396,47.655,-122.3035,60.0,11.6
2026-01-20T23:11:37+00:00,SAT-65535,266.08199744748026,32.45621258101764,3810.2466977301942,-0.3672323537888092,12862.03042100044,10.5,10500012862.03042,47.655,-122.3035,60.0,11.616666666666667
2026-01-20T23:11:38+00:00,SAT-65535,265.9441262515855,32.43390828306447,3809.8804446626823,-0.35436961195046535,12411.522792477608,10.5,10500012411.522793,47.655,-122.3035,60.0,11.633333333333333
2026-01-20T23:11:39+00:00,SAT-65535,265.80632658109664,32.41133875606736,3809.5270200363634,-0.3415030263743545,11960.880539999182,10.5,10500011960.88054,47.655,-122.3035,60.0,11.65
2026-01-20T23:11:40+00:00,SAT-65535,265.6686002874369,32.38850434253349,3809.1864276847264,-0.3286327445539849,11510.108829411716,10.5,10500011510.10883,47.655,-122.3035,60.0,11.666666666666666
2026-01-20T23:11:41+00:00,SAT-65535,265.53094921597574,32.36540539378439,3808.858671294158,-0.3157589103765373,11059.212700252925,10.5,10500011059.2127,47.655,-122.3035,60.0,11.683333333333334
2026-01-20T23:11:42+00:00,SAT-65535,265.3933752069777,32.34204227010644,3808.543754407542,-0.3028816699541788,10608.197269988952,10.5,10500010608.19727,47.655,-122.3035,60.0,11.7
2026-01-20T23:11:43+00:00,SAT-65535,265.25588009492867,32.31841534063154,3808.241680422041,-0.29000117117835367,10157.067718403754,10.5,10500010157.067719,47.655,-122.3035,60.0,11.716666666666667
2026-01-20T23:11:44+00:00,SAT-65535,265.1184657077403,32.29452498318668,3807.9524525873194,-0.27711755896284673,9705.829120991064,10.5,10500009705.82912,47.655,-122.3035,60.0,11.733333333333333
2026-01-20T23:11:45+00:00,SAT-65535,264.9811338678403,32.270371584473146,3807.6760740085138,-0.2642309791865521,9254.486587046818,10.5,10500009254.486588,47.655,-122.3035,60.0,11.75
2026-01-20T23:11:46+00:00,SAT-65535,264.84388639158044,32.245955539952774,3807.412547645272,-0.25134157950865743,8803.04528822037,10.5,10500008803.045288,47.655,-122.3035,60.0,11.766666666666667
2026-01-20T23:11:47+00:00,SAT-65535,264.70672508869654,32.221277253739146,3807.161876309975,-0.2384495065795348,8351.510360828073,10.5,10500008351.51036,47.655,-122.3035,60.0,11.783333333333333
2026-01-20T23:11:48+00:00,SAT-65535,264.5696517624876,32.196337138616705,3806.9240626687465,-0.22555490680459375,7899.8869326066715,10.5,10500007899.886932,47.655,-122.3035,60.0,11.8
2026-01-20T23:11:49+00:00,SAT-65535,264.4326682099307,32.17113561604587,3806.6991092416933,-0.21265792736936145,7448.180158615916,10.5,10500007448.180159,47.655,-122.3035,60.0,11.816666666666666
2026-01-20T23:11:50+00:00,SAT-65535,264.2957762212057,32.14567311606377,3806.48701840213,-0.19975871549239935,6996.395195072563,10.5,10500006996.395195,47.655,-122.3035,60.0,11.833333333333334
2026-01-20T23:11:51+00:00,SAT-65535,264.1589775797031,32.119950077267156,3806.287792376546,-0.18685741884407614,6544.53721401757,10.5,10500006544.537214,47.655,-122.3035,60.0,11.85
2026-01-20T23:11:52+00:00,SAT-65535,264.02227406166827,32.09396694672986,3806.101433244152,-0.17395418364989182,6092.611336886481,10.5,10500006092.611338,47.655,-122.3035,60.0,11.866666666666667
2026-01-20T23:11:53+00:00,SAT-65535,263.8856674368524,32.06772418010908,3805.927942938325,-0.1610491580355801,5640.62275166906,10.5,10500005640.622751,47.655,-122.3035,60.0,11.883333333333333
2026-01-20T23:11:54+00:00,SAT-65535,263.7491594675156,32.041222241436984,3805.767323244711,-0.14814249005064165,5188.57664368507,10.5,10500005188.576643,47.655,-122.3035,60.0,11.9
2026-01-20T23:11:55+00:00,SAT-65535,263.6127519084275,32.01446160309897,3805.6195758013005,-0.1352343269542955,4736.478170575267,10.5,10500004736.47817,47.655,-122.3035,60.0,11.916666666666666
2026-01-20T23:11:56+00:00,SAT-65535,263.47644650706167,31.987442745851855,3805.484702099218,-0.12232481550109836,4284.332472304999,10.5,10500004284.332472,47.655,-122.3035,60.0,11.933333333333334
2026-01-20T23:11:57+00:00,SAT-65535,263.3402450040446,31.960166158893035,3805.362703483225,-0.10941410538006792,3832.1447916168495,10.5,10500003832.144793,47.655,-122.3035,60.0,11.95
2026-01-20T23:11:58+00:00,SAT-65535,263.2041491311703,31.932632339442343,3805.2535811487924,-0.09650234246095031,3379.9202374863557,10.5,10500003379.920237,47.655,-122.3035,60.0,11.966666666666667
2026-01-20T23:11:59+00:00,SAT-65535,263.06816061381056,31.90484179320314,3805.1573361459114,-0.08358967681189523,2927.6640659349073,10.5,10500002927.664066,47.655,-122.3035,60.0,11.983333333333333
2026-01-20T23:12:00+00:00,SAT-65535,262.93228116796115,31.87679503373736,3805.073969374904,-0.07067625403329227,2475.3813765040377,10.5,10500002475.381376,47.655,-122.3035,60.0,12.0
2026-01-20T23:12:01+00:00,SAT-65535,262.7965125034003,31.848492583091765,3805.003481590882,-0.057762223588001364,2023.077404015328,10.5,10500002023.077404,47.655,-122.3035,60.0,12.016666666666667
2026-01-20T23:12:02+00:00,SAT-65535,262.66085632075146,31.819934971164688,3804.94587339989,-0.04484773396208396,1570.7573490787472,10.5,10500001570.757349,47.655,-122.3035,60.0,12.033333333333333
2026-01-20T23:12:03+00:00,SAT-65535,262.525314312039,31.791122735788907,3804.901145259885,-0.031932931381040086,1118.4263331298378,10.5,10500001118.426332,47.655,-122.3035,60.0,12.05
2026-01-20T23:12:04+00:00,SAT-65535,262.3898881626232,31.762056423121678,3804.869297482988,-0.01901796573869997,666.0896060845857,10.5,10500000666.089605,47.655,-122.3035,60.0,12.066666666666666
2026-01-20T23:12:05+00:00,SAT-65535,262.25457954797906,31.732736586926276,3804.8503302318245,-0.006102984212459216,213.7523227179443,10.5,10500000213.752323,47.655,-122.3035,60.0,12.083333333333334
2026-01-20T23:12:06+00:00,SAT-65535,262.1193901356247,31.703163788955557,3804.8442435222364,0.006811864725342613,-238.58031684071733,10.5,10499999761.419683,47.655,-122.3035,60.0,12.1
2026-01-20T23:12:07+00:00,SAT-65535,261.98432158450754,31.6733385987912,3804.8510372219894,0.01972643341755046,-690.9031410132401,10.5,10499999309.096859,47.655,-122.3035,60.0,12.116666666666667
2026-01-20T23:12:08+00:00,SAT-65535,261.8493755450919,31.643261593833444,3804.8707110515847,0.03264057338725077,-1143.2109495100544,10.5,10499998856.789051,47.655,-122.3035,60.0,12.133333333333333
2026-01-20T23:12:09+00:00,SAT-65535,261.7145536587474,31.612933359132057,3804.9032645834427,0.04555413673740878,-1595.4985623513992,10.5,10499998404.501438,47.655,-122.3035,60.0,12.15
2026-01-20T23:12:10+00:00,SAT-65535,261.57985755806595,31.58235448742533,3804.948697242482,0.05846697518474265,-2047.7607860295066,10.5,10499997952.239214,47.655,-122.3035,60.0,12.166666666666666
2026-01-20T23:12:11+00:00,SAT-65535,261.44528886645503,31.551525579014907,3805.007008305733,0.07137894112647686,-2499.992450870819,10.5,10499997500.00755,47.655,-122.3035,60.0,12.183333333333334
2026-01-20T23:12:12+00:00,SAT-65535,261.31084919878924,31.52044724188,3805.0781969030163,0.08428988626814875,-2952.1883629759686,10.5,10499997047.811638,47.655,-122.3035,60.0,12.2
2026-01-20T23:12:13+00:00,SAT-65535,261.17654016036204,31.489120091402437,3805.1622620162543,0.09719966287230453,-3404.3433479543955,10.5,10499996595.656652,47.655,-122.3035,60.0,12.216666666666667
2026-01-20T23:12:14+00:00,SAT-65535,261.0423633473159,31.457544750430852,3805.259202480026,0.11010812302666283,-3856.452225292338,10.5,10499996143.547775,47.655,-122.3035,60.0,12.233333333333333
2026-01-20T23:12:15+00:00,SAT-65535,260.9083203462535,31.42572184914871,3805.3690169813913,0.12301511887230536,-4308.509816345034,10.5,10499995691.490183,47.655,-122.3035,60.0,12.25
2026-01-20T23:12:16+00:00,SAT-65535,260.7744127349868,31.39365202522194,3805.491704059946,0.13592050271141945,-4760.510948110324,10.5,10499995239.489052,47.655,-122.3035,60.0,12.266666666666667
2026-01-20T23:12:17+00:00,SAT-65535,260.6406420809721,31.36133592338002,3805.6272621079843,0.14882412696867345,-5212.450451875849,10.5,10499994787.549547,47.655,-122.3035,60.0,12.283333333333333
2026-01-20T23:12:18+00:00,SAT-65535,260.5070099427093,31.328774195716555,3805.775689370614,0.16172584394727116,-5664.323154675049,10.5,10499994335.676846,47.655,-122.3035,60.0,12.3
2026-01-20T23:12:19+00:00,SAT-65535,260.3735178689185,31.295967501451116,3805.936983945644,0.17462550648760466,-6116.123902355973,10.5,10499993883.876097,47.655,-122.3035,60.0,12.316666666666666
2026-01-20T23:12:20+00:00,SAT-65535,260.24016739824305,31.262916506812783,3806.1111437841146,0.18752296682630096,-6567.847519620256,10.5,10499993432.152481,47.655,-122.3035,60.0,12.333333333333334
2026-01-20T23:12:21+00:00,SAT-65535,260.1069600597143,31.22962188511437,3806.298166689696,0.20041807798823594,-7019.488858777353,10.5,10499992980.51114,47.655,-122.3035,60.0,12.35
2026-01-20T23:12:22+00:00,SAT-65535,259.9738973726535,31.196084316687077,3806.498050319476,0.21331069255511784,-7471.042756615102,10.5,10499992528.957243,47.655,-122.3035,60.0,12.366666666666667
2026-01-20T23:12:23+00:00,SAT-65535,259.84098084609036,31.16230448869083,3806.710792183518,0.22620066391011742,-7922.504077991958,10.5,10499992077.495922,47.655,-122.3035,60.0,12.383333333333333
2026-01-20T23:12:24+00:00,SAT-65535,259.7082119789825,31.128283095124274,3806.9363896456575,0.23908784479503223,-8373.867665302769,10.5,10499991626.132334,47.655,-122.3035,60.0,12.4
2026-01-20T23:12:25+00:00,SAT-65535,259.5755922603794,31.094020836822185,3807.1748399228663,0.2519720889116868,-8825.12839456659,10.5,10499991174.871605,47.655,-122.3035,60.0,12.416666666666666
2026-01-20T23:12:26+00:00,SAT-65535,259.4431231687997,31.059518421250726,3807.4261400862074,0.26485324869186455,-9276.281097320261,10.5,10499990723.718903,47.655,-122.3035,60.0,12.433333333333334
2026-01-20T23:12:27+00:00,SAT-65535,259.3108061732406,31.02477656272411,3807.6902870595695,0.27773117895953936,-9727.320688885253,10.5,10499990272.679312,47.655,-122.3035,60.0,12.45
2026-01-20T23:12:28+00:00,SAT-65535,259.1786427314023,30.989795981890705,3807.967277622052,0.29060573275178436,-10178.242021998218,10.5,10499989821.757978,47.655,-122.3035,60.0,12.466666666666667
2026-01-20T23:12:29+00:00,SAT-65535,259.0466342909036,30.95457740600668,3808.2571084061833,0.3034767637602598,-10629.03997232221,10.5,10499989370.960028,47.655,-122.3035,60.0,12.483333333333333
2026-01-20T23:12:30+00:00,SAT-65535,258.91478228931214,30.91912156889391,3808.5597758985737,0.3163441263972813,-11079.709440760695,10.5,10499988920.29056,47.655,-122.3035,60.0,12.5
2026-01-20T23:12:31+00:00,SAT-65535,258.7830881532502,30.883429210653265,3808.8752764406336,0.3292076751905309,-11530.245332257738,10.5,10499988469.754667,47.655,-122.3035,60.0,12.516666666666667
2026-01-20T23:12:32+00:00,SAT-65535,258.6515532986357,30.84750107767821,3809.20360622869,0.3420672633905339,-11980.642507025996,10.5,10499988019.357492,47.655,-122.3035,60.0,12.533333333333333
2026-01-20T23:12:33+00:00,SAT-65535,258.52017913137786,30.81133792279371,3809.544761312712,0.3549227472122616,-12430.89592910555,10.5,10499987569.10407,47.655,-122.3035,60.0,12.55
2026-01-20T23:12:34+00:00,SAT-65535,258.3889670458281,30.774940504779497,3809.8987375992647,0.3677739798528764,-12881.000456840055,10.5,10499987118.999542,47.655,-122.3035,60.0,12.566666666666666
