satellites_20260121_005943/SAT-56322.csv

timestamp,satellite,azimuth_deg,elevation_deg,distance_km,relative_velocity_kms,doppler_shift_hz,tx_freq_ghz,rx_freq_hz,ue_lat,ue_lon,ue_alt_m,time_minutes
2026-01-20T23:06:16+00:00,SAT-56322,347.04997283383847,30.082681330953523,2252.531843783395,0.35283866668371705,-12357.902613344026,10.5,10499987642.097387,47.655,-122.3035,60.0,6.266666666666667
2026-01-20T23:06:17+00:00,SAT-56322,346.86260547464195,30.19534430549403,2252.8837415469675,0.37626044621498034,-13178.23240655805,10.5,10499986821.767593,47.655,-122.3035,60.0,6.283333333333333
2026-01-20T23:06:18+00:00,SAT-56322,346.67473835996066,30.307549506258336,2253.258998631992,0.3996704750572191,-13998.150640937074,10.5,10499986001.84936,47.655,-122.3035,60.0,6.3
2026-01-20T23:06:19+00:00,SAT-56322,346.4863743342551,30.419292626954846,2253.657603319116,0.4230680016039638,-14817.630992043236,10.5,10499985182.369007,47.655,-122.3035,60.0,6.316666666666666
2026-01-20T23:06:20+00:00,SAT-56322,346.29751630375785,30.53056938917025,2254.0795431393826,0.44645227850000335,-15636.647284335735,10.5,10499984363.352716,47.655,-122.3035,60.0,6.333333333333333
2026-01-20T23:06:21+00:00,SAT-56322,346.1081672355233,30.641375543755853,2254.5248048784733,0.4698225631818766,-16455.173510101125,10.5,10499983544.82649,47.655,-122.3035,60.0,6.35
2026-01-20T23:06:22+00:00,SAT-56322,345.91833015725297,30.75170687170973,2254.9933745814865,0.4931781099684482,-17273.183552431816,10.5,10499982726.816448,47.655,-122.3035,60.0,6.366666666666666
2026-01-20T23:06:23+00:00,SAT-56322,345.72800815846296,30.861559184295093,2255.4852375498285,0.5165181802400427,-18090.65154174242,10.5,10499981909.348457,47.655,-122.3035,60.0,6.383333333333334
2026-01-20T23:06:24+00:00,SAT-56322,345.5372043896712,30.97092832427515,2256.000378348255,0.5398420368589532,-18907.55166035234,10.5,10499981092.44834,47.655,-122.3035,60.0,6.4
2026-01-20T23:06:25+00:00,SAT-56322,345.34592206228996,31.079810166737865,2256.5387808063488,0.5631489406721272,-19723.858019995074,10.5,10499980276.14198,47.655,-122.3035,60.0,6.416666666666667
2026-01-20T23:06:26+00:00,SAT-56322,345.15416445026267,31.188200618898474,2257.100428016512,0.5864381631010414,-20539.545102768843,10.5,10499979460.454897,47.655,-122.3035,60.0,6.433333333333334
2026-01-20T23:06:27+00:00,SAT-56322,344.96193488775106,31.296095622144865,2257.685302344512,0.6097089700677258,-21354.587198158006,10.5,10499978645.412802,47.655,-122.3035,60.0,6.45
2026-01-20T23:06:28+00:00,SAT-56322,344.76923677151984,31.403491151399887,2258.2933854239923,0.6329606359573405,-22168.958892061506,10.5,10499977831.041107,47.655,-122.3035,60.0,6.466666666666667
2026-01-20T23:06:29+00:00,SAT-56322,344.5760735592138,31.510383216798903,2258.924658164921,0.6561924381286395,-22982.634874526142,10.5,10499977017.365126,47.655,-122.3035,60.0,6.483333333333333
2026-01-20T23:06:30+00:00,SAT-56322,344.3824487698266,31.61676786408203,2259.5791007565476,0.6794036500197148,-23795.589698280553,10.5,10499976204.410301,47.655,-122.3035,60.0,6.5
2026-01-20T23:06:31+00:00,SAT-56322,344.18836598477327,31.722641174702673,2260.2566926635004,0.7025935572842298,-24607.798343894334,10.5,10499975392.201656,47.655,-122.3035,60.0,6.516666666666667
2026-01-20T23:06:32+00:00,SAT-56322,343.9938288461275,31.827999267429224,2260.9574126379653,0.7257614463366516,-25419.235818583675,10.5,10499974580.764181,47.655,-122.3035,60.0,6.533333333333333
2026-01-20T23:06:33+00:00,SAT-56322,343.7988410570145,31.93283829875615,2261.681238720445,0.7489066004265098,-26229.87701871524,10.5,10499973770.122982,47.655,-122.3035,60.0,6.55
2026-01-20T23:06:34+00:00,SAT-56322,343.6034063829825,32.03715446279413,2262.428148236604,0.7720283190074128,-27039.69740819108,10.5,10499972960.302591,47.655,-122.3035,60.0,6.566666666666666
2026-01-20T23:06:35+00:00,SAT-56322,343.4075286491885,32.140943993367735,2263.198117813427,0.7951258865567483,-27848.671926382674,10.5,10499972151.328074,47.655,-122.3035,60.0,6.583333333333333
2026-01-20T23:06:36+00:00,SAT-56322,343.21121174412326,32.24420316263021,2263.9911233642865,0.8181986113574269,-28656.77634643158,10.5,10499971343.223654,47.655,-122.3035,60.0,6.6
2026-01-20T23:06:37+00:00,SAT-56322,343.01445961532534,32.34692828389537,2264.8071401126804,0.8412457969267821,-29463.9862745687,10.5,10499970536.013725,47.655,-122.3035,60.0,6.616666666666666
2026-01-20T23:06:38+00:00,SAT-56322,342.8172762711464,32.44911571123732,2265.646142587482,0.864266738937267,-30270.277042264035,10.5,10499969729.722958,47.655,-122.3035,60.0,6.633333333333334
2026-01-20T23:06:39+00:00,SAT-56322,342.61966578250394,32.5507618391445,2266.5081046151154,0.8872607607067117,-31075.62494924563,10.5,10499968924.375051,47.655,-122.3035,60.0,6.65
2026-01-20T23:06:40+00:00,SAT-56322,342.4216322785382,32.65186310525568,2267.392999347127,0.9102271686048328,-31880.005701646918,10.5,10499968119.994299,47.655,-122.3035,60.0,6.666666666666667
2026-01-20T23:06:41+00:00,SAT-56322,342.2231799500776,32.75241598908412,2268.300799243282,0.9331652847581933,-32683.395557472726,10.5,10499967316.604443,47.655,-122.3035,60.0,6.683333333333334
2026-01-20T23:06:42+00:00,SAT-56322,342.024313047345,32.85241701367528,2269.231476087281,0.9560744327344127,-33485.77082519979,10.5,10499966514.229176,47.655,-122.3035,60.0,6.7
2026-01-20T23:06:43+00:00,SAT-56322,341.8250358803377,32.951862745851244,2270.1850009881946,0.978953936644398,-34287.10783233306,10.5,10499965712.892168,47.655,-122.3035,60.0,6.716666666666667
2026-01-20T23:06:44+00:00,SAT-56322,341.6253528190674,33.05074979655912,2271.161344381008,1.0018031296499421,-35087.383223377794,10.5,10499964912.616777,47.655,-122.3035,60.0,6.733333333333333
2026-01-20T23:06:45+00:00,SAT-56322,341.4252682924481,33.14907482184052,2272.160476035646,1.0246213538303153,-35886.57395516705,10.5,10499964113.426044,47.655,-122.3035,60.0,6.75
2026-01-20T23:06:46+00:00,SAT-56322,341.224786787525,33.246834523599176,2273.1823650658657,1.047407936706325,-36684.6564746349,10.5,10499963315.343525,47.655,-122.3035,60.0,6.766666666666667
2026-01-20T23:06:47+00:00,SAT-56322,341.02391285189685,33.34402564883687,2274.2269799147407,1.070162233475919,-37481.60819808599,10.5,10499962518.391802,47.655,-122.3035,60.0,6.783333333333333
2026-01-20T23:06:48+00:00,SAT-56322,340.82265108997166,33.440644991817585,2275.2942883822607,1.0928835951264444,-38277.40639435188,10.5,10499961722.593605,47.655,-122.3035,60.0,6.8
2026-01-20T23:06:49+00:00,SAT-56322,340.6210061638951,33.53668939397108,2276.3842576211337,1.1155713701697092,-39072.02824556029,10.5,10499960927.971754,47.655,-122.3035,60.0,6.816666666666666
2026-01-20T23:06:50+00:00,SAT-56322,340.41898279432223,33.632155743864004,2277.496854134316,1.138224923601884,-39865.451511191066,10.5,10499960134.548489,47.655,-122.3035,60.0,6.833333333333333
2026-01-20T23:06:51+00:00,SAT-56322,340.21658575820084,33.72704097855701,2278.632043791455,1.1608436159356255,-40657.65379369239,10.5,10499959342.346207,47.655,-122.3035,60.0,6.85
2026-01-20T23:06:52+00:00,SAT-56322,340.01381988984514,33.82134208339929,2279.789791824415,1.1834268200689044,-41448.61312929859,10.5,10499958551.386871,47.655,-122.3035,60.0,6.866666666666666
2026-01-20T23:06:53+00:00,SAT-56322,339.8106900793225,33.9150560930508,2280.97006283963,1.2059739121256177,-42238.30766722953,10.5,10499957761.692333,47.655,-122.3035,60.0,6.883333333333334
2026-01-20T23:06:54+00:00,SAT-56322,339.60720127233634,34.00818009179315,2282.1728208213235,1.228484265128251,-43026.71544808054,10.5,10499956973.284552,47.655,-122.3035,60.0,6.9
2026-01-20T23:06:55+00:00,SAT-56322,339.4033584708865,34.10071121346619,2283.3980291284115,1.2509572701931844,-43813.81514617168,10.5,10499956186.184855,47.655,-122.3035,60.0,6.916666666666667
2026-01-20T23:06:56+00:00,SAT-56322,339.1991667309598,34.192646642737856,2284.645650512551,1.2733923215227072,-44599.5855439046,10.5,10499955400.414455,47.655,-122.3035,60.0,6.933333333333334
2026-01-20T23:06:57+00:00,SAT-56322,338.9946311623269,34.28398361538516,2285.9156471212164,1.2957888029918307,-45384.00506197599,10.5,10499954615.994938,47.655,-122.3035,60.0,6.95
2026-01-20T23:06:58+00:00,SAT-56322,338.7897569301666,34.37471941775929,2287.2079804874,1.3181461293946395,-46167.05320399926,10.5,10499953832.946796,47.655,-122.3035,60.0,6.966666666666667
2026-01-20T23:06:59+00:00,SAT-56322,338.5845492510021,34.46485138874072,2288.5226115604496,1.3404636963943013,-46948.70880354222,10.5,10499953051.291197,47.655,-122.3035,60.0,6.983333333333333
2026-01-20T23:07:00+00:00,SAT-56322,338.37901339546073,34.5543769186755,2289.859500686987,1.3627409270292417,-47728.95165296999,10.5,10499952271.048347,47.655,-122.3035,60.0,7.0
2026-01-20T23:07:01+00:00,SAT-56322,338.1731546848265,34.64329345098452,2291.2186076382104,1.3849772313726925,-48507.76109055175,10.5,10499951492.238909,47.655,-122.3035,60.0,7.016666666666667
2026-01-20T23:07:02+00:00,SAT-56322,337.9669784927624,34.731598481542484,2292.5998915969662,1.4071720344878265,-49285.116979567836,10.5,10499950714.88302,47.655,-122.3035,60.0,7.033333333333333
2026-01-20T23:07:03+00:00,SAT-56322,337.7604902434885,34.81928955953416,2294.0033111726952,1.429324768460398,-50060.99942925909,10.5,10499949939.00057,47.655,-122.3035,60.0,7.05
2026-01-20T23:07:04+00:00,SAT-56322,337.55369541096877,34.906364287873544,2295.42882440844,1.4514348688844025,-50835.38867173979,10.5,10499949164.611328,47.655,-122.3035,60.0,7.066666666666666
2026-01-20T23:07:05+00:00,SAT-56322,337.3465995185517,34.99282032338959,2296.8763887843406,1.473501772668091,-51608.264985155016,10.5,10499948391.735014,47.655,-122.3035,60.0,7.083333333333333
2026-01-20T23:07:06+00:00,SAT-56322,337.1392081387744,35.07865537694658,2298.3459612189486,1.4955249325553348,-52379.60920228025,10.5,10499947620.390799,47.655,-122.3035,60.0,7.1
2026-01-20T23:07:07+00:00,SAT-56322,336.93152689148144,35.16386721423156,2299.8374980850167,1.5175037959023678,-53149.401967193124,10.5,10499946850.598032,47.655,-122.3035,60.0,7.116666666666666
2026-01-20T23:07:08+00:00,SAT-56322,336.7235614444106,35.24845365550293,2301.35095520413,1.5394378274668676,-53917.624533443435,10.5,10499946082.375467,47.655,-122.3035,60.0,7.133333333333334
2026-01-20T23:07:09+00:00,SAT-56322,336.51531751111025,35.33241257641386,2302.8862878640575,1.5613264878518167,-54684.258009065976,10.5,10499945315.741991,47.655,-122.3035,60.0,7.15
2026-01-20T23:07:10+00:00,SAT-56322,336.30680085132525,35.41574190781018,2304.4434508146082,1.5831692468594827,-55449.28382429343,10.5,10499944550.716175,47.655,-122.3035,60.0,7.166666666666667
2026-01-20T23:07:11+00:00,SAT-56322,336.09801726987854,35.49843963611624,2306.0223982768093,1.604965590457079,-56212.68397552326,10.5,10499943787.316025,47.655,-122.3035,60.0,7.183333333333334
2026-01-20T23:07:12+00:00,SAT-56322,335.88897261466667,35.58050380404307,2307.6230839590253,1.6267149932886837,-56974.440062568814,10.5,10499943025.559937,47.655,-122.3035,60.0,7.2
2026-01-20T23:07:13+00:00,SAT-56322,335.67967277786835,35.6619325100155,2309.2454610456653,1.6484169450960586,-57734.534214028216,10.5,10499942265.465786,47.655,-122.3035,60.0,7.216666666666667
2026-01-20T23:07:14+00:00,SAT-56322,335.4701236940706,35.74272390878438,2310.8894822122406,1.670070948924635,-58492.94902445033,10.5,10499941507.050976,47.655,-122.3035,60.0,7.233333333333333
2026-01-20T23:07:15+00:00,SAT-56322,335.26033133856606,35.82287621195586,2312.5550996386346,1.691676504231812,-59249.66696271601,10.5,10499940750.333036,47.655,-122.3035,60.0,7.25
2026-01-20T23:07:16+00:00,SAT-56322,335.05030172764236,35.902387687709044,2314.2422650055223,1.7132331116479609,-60004.6705387885,10.5,10499939995.329462,47.655,-122.3035,60.0,7.266666666666667
2026-01-20T23:07:17+00:00,SAT-56322,334.8400409182148,35.98125666078495,2315.950929495539,1.7347402951251492,-60757.943079455545,10.5,10499939242.056921,47.655,-122.3035,60.0,7.283333333333333
2026-01-20T23:07:18+00:00,SAT-56322,334.62955500501533,36.05948151334696,2317.681043816544,1.75619757288984,-61509.46771096997,10.5,10499938490.53229,47.655,-122.3035,60.0,7.3
2026-01-20T23:07:19+00:00,SAT-56322,334.4188501210429,36.137060684606894,2319.432558195906,1.777604473988496,-62259.22793854676,10.5,10499937740.772062,47.655,-122.3035,60.0,7.316666666666666
2026-01-20T23:07:20+00:00,SAT-56322,334.2079324360874,36.213992671147,2321.2054223912974,1.7989605277623477,-63007.207277724956,10.5,10499936992.792723,47.655,-122.3035,60.0,7.333333333333333
2026-01-20T23:07:21+00:00,SAT-56322,333.996808156458,36.29027602678313,2322.9995856909854,1.8202652772618537,-63753.389724198685,10.5,10499936246.610275,47.655,-122.3035,60.0,7.35
2026-01-20T23:07:22+00:00,SAT-56322,333.78548352313993,36.36590936298695,2324.814996927508,1.8415182785499307,-64497.759729413454,10.5,10499935502.24027,47.655,-122.3035,60.0,7.366666666666666
2026-01-20T23:07:23+00:00,SAT-56322,333.57396481030395,36.44089134912287,2326.6516044906484,1.8627190623150998,-65240.30085609607,10.5,10499934759.699144,47.655,-122.3035,60.0,7.383333333333334
2026-01-20T23:07:24+00:00,SAT-56322,333.36225832734715,36.51522071147127,2328.509356302131,1.8838672128427376,-65980.998544162,10.5,10499934019.001455,47.655,-122.3035,60.0,7.4
2026-01-20T23:07:25+00:00,SAT-56322,333.1503704132871,36.58889623486986,2330.3881998690727,1.904962280470158,-66719.83704452185,10.5,10499933280.162956,47.655,-122.3035,60.0,7.416666666666667
2026-01-20T23:07:26+00:00,SAT-56322,332.93830743962,36.661916761417146,2332.288082250128,1.9260038474513848,-67456.80172594449,10.5,10499932543.198275,47.655,-122.3035,60.0,7.433333333333334
2026-01-20T23:07:27+00:00,SAT-56322,332.7260758069132,36.73428119129982,2334.2089500873194,1.946991483787261,-68191.87752804055,10.5,10499931808.122473,47.655,-122.3035,60.0,7.45
2026-01-20T23:07:28+00:00,SAT-56322,332.5136819454198,36.80598848225438,2336.1507495938167,1.9679247904099035,-68925.05047376471,10.5,10499931074.949526,47.655,-122.3035,60.0,7.466666666666667
2026-01-20T23:07:29+00:00,SAT-56322,332.30113231179945,36.877037650284464,2338.113426584786,1.9888033396350975,-69656.30558380666,10.5,10499930343.694416,47.655,-122.3035,60.0,7.483333333333333
2026-01-20T23:07:30+00:00,SAT-56322,332.0884333912675,36.94742776859522,2340.0969264488485,2.0096267527369633,-70385.62959358409,10.5,10499929614.370407,47.655,-122.3035,60.0,7.5
2026-01-20T23:07:31+00:00,SAT-56322,331.87559169256957,37.01715796884042,2342.1011941969114,2.0303946151448815,-71113.00798308026,10.5,10499928886.992018,47.655,-122.3035,60.0,7.516666666666667
2026-01-20T23:07:32+00:00,SAT-56322,331.6626137507928,37.08622743981156,2344.126174426416,2.0511065525453356,-71838.4276422525,10.5,10499928161.572357,47.655,-122.3035,60.0,7.533333333333333
2026-01-20T23:07:33+00:00,SAT-56322,331.4495061231835,37.15463542836604,2346.171811361488,2.0717621797158734,-72561.87507898104,10.5,10499927438.124922,47.655,-122.3035,60.0,7.55
2026-01-20T23:07:34+00:00,SAT-56322,331.2362753895252,37.222381238877766,2348.2380488420577,2.092361124498848,-73283.33725873084,10.5,10499926716.66274,47.655,-122.3035,60.0,7.566666666666666
2026-01-20T23:07:35+00:00,SAT-56322,331.0229281505117,37.28946423330323,2350.324830336891,2.1129030132785283,-74002.80109589864,10.5,10499925997.198904,47.655,-122.3035,60.0,7.583333333333333
2026-01-20T23:07:36+00:00,SAT-56322,330.8094710272591,37.35588383087865,2352.4320989421344,2.1333874923522527,-74720.25420232104,10.5,10499925279.745798,47.655,-122.3035,60.0,7.6
2026-01-20T23:07:37+00:00,SAT-56322,330.5959106589554,37.42163950838226,2354.5597974011735,2.1538142014003365,-75435.68395807855,10.5,10499924564.316042,47.655,-122.3035,60.0,7.616666666666666
2026-01-20T23:07:38+00:00,SAT-56322,330.38225370288785,37.48673079963615,2356.7078680980367,2.17418279278267,-76149.07818734397,10.5,10499923850.921812,47.655,-122.3035,60.0,7.633333333333334
2026-01-20T23:07:39+00:00,SAT-56322,330.1685068327573,37.55115729552335,2358.8762530700387,2.194492926464145,-76860.42498064952,10.5,10499923139.57502,47.655,-122.3035,60.0,7.65
2026-01-20T23:07:40+00:00,SAT-56322,329.95467673730815,37.61491864390207,2361.0648940153656,2.214744272015515,-77569.71276496524,10.5,10499922430.287235,47.655,-122.3035,60.0,7.666666666666667
2026-01-20T23:07:41+00:00,SAT-56322,329.74077011898163,37.6780145494732,2363.273732302656,2.2349365008742237,-78276.93003264062,10.5,10499921723.069967,47.655,-122.3035,60.0,7.683333333333334
2026-01-20T23:07:42+00:00,SAT-56322,329.5267936930358,37.74044477351332,2365.502708972861,2.2550692738162823,-78982.0649026166,10.5,10499921017.935097,47.655,-122.3035,60.0,7.7
2026-01-20T23:07:43+00:00,SAT-56322,329.3127541879335,37.80220913322731,2367.7517647286136,2.2751422992109562,-79685.10716075131,10.5,10499920314.89284,47.655,-122.3035,60.0,7.716666666666667
2026-01-20T23:07:44+00:00,SAT-56322,329.09865834046497,37.863307502601145,2370.020839981694,2.2951552590031343,-80386.04566740939,10.5,10499919613.954332,47.655,-122.3035,60.0,7.733333333333333
2026-01-20T23:07:45+00:00,SAT-56322,328.88451289750947,37.92373981132233,2372.309874826673,2.315107846774412,-81084.86969052213,10.5,10499918915.13031,47.655,-122.3035,60.0,7.75
2026-01-20T23:07:46+00:00,SAT-56322,328.6703246142704,37.98350604472142,2374.6188090525225,2.3349997754431335,-81781.56917527558,10.5,10499918218.430824,47.655,-122.3035,60.0,7.766666666666667
2026-01-20T23:07:47+00:00,SAT-56322,328.4561002520326,38.04260624380337,2376.9475821618976,2.3548307492873937,-82476.13376423776,10.5,10499917523.866236,47.655,-122.3035,60.0,7.783333333333333
2026-01-20T23:07:48+00:00,SAT-56322,328.24184657813294,38.10104050467577,2379.2961333625203,2.3746004843241515,-83168.55351112132,10.5,10499916831.44649,47.655,-122.3035,60.0,7.8
2026-01-20T23:07:49+00:00,SAT-56322,328.0275703644134,38.15880897835705,2381.6644015788866,2.394308718687073,-83858.81924425953,10.5,10499916141.180756,47.655,-122.3035,60.0,7.816666666666666
2026-01-20T23:07:50+00:00,SAT-56322,327.8132783845725,38.21591187088427,2384.052325474324,2.4139551620154656,-84546.92079399273,10.5,10499915453.079206,47.655,-122.3035,60.0,7.833333333333333
2026-01-20T23:07:51+00:00,SAT-56322,327.5989774159115,38.27234944223005,2386.4598434225736,2.4335395636162076,-85232.84937998734,10.5,10499914767.15062,47.655,-122.3035,60.0,7.85
2026-01-20T23:07:52+00:00,SAT-56322,327.3846742353061,38.32812200673899,2388.8868935473533,2.4530616756061216,-85916.59632032597,10.5,10499914083.403679,47.655,-122.3035,60.0,7.866666666666666
2026-01-20T23:07:53+00:00,SAT-56322,327.1703756183441,38.38322993270438,2391.333413725158,2.4725212191057104,-86598.15184746895,10.5,10499913401.848152,47.655,-122.3035,60.0,7.883333333333334
2026-01-20T23:07:54+00:00,SAT-56322,326.95608834100835,38.43767364131275,2393.799341554346,2.4919179808588425,-87277.5084922845,10.5,10499912722.491508,47.655,-122.3035,60.0,7.9
2026-01-20T23:07:55+00:00,SAT-56322,326.7418191738068,38.49145360746873,2396.2846144205896,2.511251700951765,-87954.65715149356,10.5,10499912045.342848,47.655,-122.3035,60.0,7.916666666666667
2026-01-20T23:07:56+00:00,SAT-56322,326.52757488466693,38.544570358421595,2398.7891694503382,2.530522165917436,-88629.59034857736,10.5,10499911370.40965,47.655,-122.3035,60.0,7.933333333333334
2026-01-20T23:07:57+00:00,SAT-56322,326.31336223461346,38.597024474162495,2401.312943557147,2.549729137240696,-89302.29972972604,10.5,10499910697.70027,47.655,-122.3035,60.0,7.95
2026-01-20T23:07:58+00:00,SAT-56322,326.0991879789553,38.64881658647027,2403.855873416688,2.5688723981221067,-89972.77770170628,10.5,10499910027.222298,47.655,-122.3035,60.0,7.966666666666667
2026-01-20T23:07:59+00:00,SAT-56322,325.8850588648588,38.69994737882764,2406.4178954884155,2.587951738112942,-90641.0168937135,10.5,10499909358.983107,47.655,-122.3035,60.0,7.983333333333333
2026-01-20T23:08:00+00:00,SAT-56322,325.6709816301195,38.7504175860246,2408.9989460218935,2.6069669601276124,-91307.01040297661,10.5,10499908692.989597,47.655,-122.3035,60.0,8.0
2026-01-20T23:08:01+00:00,SAT-56322,325.45696300145187,38.80022799386853,2411.598961070127,2.625917842938049,-91970.75048115292,10.5,10499908029.24952,47.655,-122.3035,60.0,8.016666666666667
2026-01-20T23:08:02+00:00,SAT-56322,325.2430096954938,38.84937943827126,2414.217876465484,2.6448042084909824,-92632.23089206373,10.5,10499907367.769108,47.655,-122.3035,60.0,8.033333333333333
2026-01-20T23:08:03+00:00,SAT-56322,325.02912841487006,38.89787280545063,2416.8556278627525,2.6636258666486934,-93291.44497628183,10.5,10499906708.555023,47.655,-122.3035,60.0,8.05
2026-01-20T23:08:04+00:00,SAT-56322,324.8153258483611,38.945709031179746,2419.51215072709,2.6823826304747347,-93948.3861865021,10.5,10499906051.613813,47.655,-122.3035,60.0,8.066666666666666
2026-01-20T23:08:05+00:00,SAT-56322,324.60160866988247,38.99288910032077,2422.187380337217,2.7010743259993824,-94603.04842956895,10.5,10499905396.95157,47.655,-122.3035,60.0,8.083333333333334
2026-01-20T23:08:06+00:00,SAT-56322,324.3879835367777,39.0394140464915,2424.881251798347,2.7197007788661556,-95255.42559878084,10.5,10499904744.574402,47.655,-122.3035,60.0,8.1
2026-01-20T23:08:07+00:00,SAT-56322,324.1744570891801,39.0852849514816,2427.593700041803,2.7382618364363283,-95905.51234808398,10.5,10499904094.487652,47.655,-122.3035,60.0,8.116666666666667
2026-01-20T23:08:08+00:00,SAT-56322,323.9610359476052,39.13050294505596,2430.3246598466753,2.756757333593365,-96553.3028943988,10.5,10499903446.697105,47.655,-122.3035,60.0,8.133333333333333
2026-01-20T23:08:09+00:00,SAT-56322,323.7477267131974,39.17506920417689,2433.074065827379,2.775187112900437,-97198.79172362163,10.5,10499902801.208277,47.655,-122.3035,60.0,8.15
2026-01-20T23:08:10+00:00,SAT-56322,323.5345359663759,39.218984952569706,2435.841852441312,2.793551038005737,-97841.97406013543,10.5,10499902158.02594,47.655,-122.3035,60.0,8.166666666666666
2026-01-20T23:08:11+00:00,SAT-56322,323.3214702646971,39.262251460425524,2438.627954009883,2.811848957713886,-98482.84460843842,10.5,10499901517.155392,47.655,-122.3035,60.0,8.183333333333334
2026-01-20T23:08:12+00:00,SAT-56322,323.10853614304835,39.30487004364784,2441.4323047037096,2.8300807424862695,-99121.39883154043,10.5,10499900878.601168,47.655,-122.3035,60.0,8.2
2026-01-20T23:08:13+00:00,SAT-56322,322.89574011154195,39.34684206352825,2444.254838564216,2.8482462724623065,-99757.63253141685,10.5,10499900242.367468,47.655,-122.3035,60.0,8.216666666666667
2026-01-20T23:08:14+00:00,SAT-56322,322.6830886540247,39.38816892631117,2447.095489513285,2.8663454021097072,-100391.54061091132,10.5,10499899608.459389,47.655,-122.3035,60.0,8.233333333333333
2026-01-20T23:08:15+00:00,SAT-56322,322.4705882292284,39.428852082234826,2449.9541913276557,2.884378032778951,-101023.11961490034,10.5,10499898976.880384,47.655,-122.3035,60.0,8.25
2026-01-20T23:08:16+00:00,SAT-56322,322.2582452667479,39.46889302557108,2452.8308776856807,2.902344040057836,-101652.36518594233,10.5,10499898347.634813,47.655,-122.3035,60.0,8.266666666666667
2026-01-20T23:08:17+00:00,SAT-56322,322.046066168219,39.5082932936537,2455.725482141632,2.9202433215268666,-102279.27373687332,10.5,10499897720.726263,47.655,-122.3035,60.0,8.283333333333333
2026-01-20T23:08:18+00:00,SAT-56322,321.8340573050181,39.547054466579446,2458.6379381476345,2.938075786297544,-102903.84208439363,10.5,10499897096.157915,47.655,-122.3035,60.0,8.3
2026-01-20T23:08:19+00:00,SAT-56322,321.6222250169103,39.58517816669935,2461.5681790651684,2.955841317752743,-103526.06614407826,10.5,10499896473.933855,47.655,-122.3035,60.0,8.316666666666666
2026-01-20T23:08:20+00:00,SAT-56322,321.4105756130238,39.622666057718675,2464.5161381394073,2.9735398327721057,-104145.94300470062,10.5,10499895854.056995,47.655,-122.3035,60.0,8.333333333333334
2026-01-20T23:08:21+00:00,SAT-56322,321.199115368972,39.659519844467624,2467.4817485326253,2.991171256455725,-104763.47004294922,10.5,10499895236.529957,47.655,-122.3035,60.0,8.35
2026-01-20T23:08:22+00:00,SAT-56322,320.9878505256641,39.695741272356415,2470.464943332397,3.0087355014502806,-105378.64419934122,10.5,10499894621.3558,47.655,-122.3035,60.0,8.366666666666667
2026-01-20T23:08:23+00:00,SAT-56322,320.77678728951406,39.73133212659875,2473.465655539177,3.0262324925580506,-105991.46284013432,10.5,10499894008.537159,47.655,-122.3035,60.0,8.383333333333333
2026-01-20T23:08:24+00:00,SAT-56322,320.5659318309293,39.76629423174006,2476.4838180784213,3.0436621524991363,-106601.9232586596,10.5,10499893398.076742,47.655,-122.3035,60.0,8.4
2026-01-20T23:08:25+00:00,SAT-56322,320.35529028387435,39.800629450987934,2479.519363798514,3.061024429914373,-107210.02365610184,10.5,10499892789.976343,47.655,-122.3035,60.0,8.416666666666666
2026-01-20T23:08:26+00:00,SAT-56322,320.1448687435458,39.83433968584884,2482.5722254966154,3.078319263132309,-107815.76187246594,10.5,10499892184.238127,47.655,-122.3035,60.0,8.433333333333334
2026-01-20T23:08:27+00:00,SAT-56322,319.9346732664829,39.8674268753705,2485.6423359083788,3.095546589519939,-108419.13571407911,10.5,10499891580.864286,47.655,-122.3035,60.0,8.45
2026-01-20T23:08:28+00:00,SAT-56322,319.72470986995154,39.89989299551531,2488.729627706994,3.112706368245363,-109020.14375083549,10.5,10499890979.856249,47.655,-122.3035,60.0,8.466666666666667
2026-01-20T23:08:29+00:00,SAT-56322,319.5149845300722,39.9317400587028,2491.8340335249236,3.129798552176787,-109618.78433198029,10.5,10499890381.215668,47.655,-122.3035,60.0,8.483333333333333
2026-01-20T23:08:30+00:00,SAT-56322,319.3055031815756,39.96297011312076,2494.955485947628,3.146823104652254,-110215.05617345672,10.5,10499889784.943827,47.655,-122.3035,60.0,8.5
2026-01-20T23:08:31+00:00,SAT-56322,319.0962717166247,39.993585242169,2498.093917524001,3.1637799855218933,-110808.95786904646,10.5,10499889191.042131,47.655,-122.3035,60.0,8.516666666666667
2026-01-20T23:08:32+00:00,SAT-56322,318.8872959844505,40.02358756378792,2501.249260762895,3.1806691653892583,-111400.48838916158,10.5,10499888599.51161,47.655,-122.3035,60.0,8.533333333333333
2026-01-20T23:08:33+00:00,SAT-56322,318.678581790205,40.052979229889985,2504.421448143843,3.1974906242904595,-111989.64703458225,10.5,10499888010.352966,47.655,-122.3035,60.0,8.55
2026-01-20T23:08:34+00:00,SAT-56322,318.47013489378975,40.08176242581001,2507.610412126469,3.2142443451777716,-112576.433208225,10.5,10499887423.566792,47.655,-122.3035,60.0,8.566666666666666
2026-01-20T23:08:35+00:00,SAT-56322,318.2619610092588,40.10993936965101,2510.816085153393,3.230930292642001,-113160.84566991012,10.5,10499886839.15433,47.655,-122.3035,60.0,8.583333333333334
2026-01-20T23:08:36+00:00,SAT-56322,318.05406580534634,40.13751231151432,2514.038399631921,3.247548480841641,-113742.8849155279,10.5,10499886257.115084,47.655,-122.3035,60.0,8.6
2026-01-20T23:08:37+00:00,SAT-56322,317.84645490206566,40.164483533218245,2517.27728798348,3.264098892013903,-114322.55032295035,10.5,10499885677.449677,47.655,-122.3035,60.0,8.616666666666667
2026-01-20T23:08:38+00:00,SAT-56322,317.6391338721137,40.19085534740774,2520.5326826117825,3.2805815214242107,-114899.8417263526,10.5,10499885100.158274,47.655,-122.3035,60.0,8.633333333333333
2026-01-20T23:08:39+00:00,SAT-56322,317.43210823967854,40.21663009699763,2523.8045159158164,3.2969963741562873,-115474.75930378816,10.5,10499884525.240696,47.655,-122.3035,60.0,8.65
2026-01-20T23:08:40+00:00,SAT-56322,317.2253834793786,40.241810154600074,2527.0927202996413,3.3133434514578117,-116047.30309895596,10.5,10499883952.696901,47.655,-122.3035,60.0,8.666666666666666
2026-01-20T23:08:41+00:00,SAT-56322,317.0189650161,40.26639792183906,2530.397228168562,3.329622781221919,-116617.47408879161,10.5,10499883382.525911,47.655,-122.3035,60.0,8.683333333333334
2026-01-20T23:08:42+00:00,SAT-56322,316.81285822298526,40.29039582889063,2533.7179719557007,3.345834362272587,-117185.27223210587,10.5,10499882814.727768,47.655,-122.3035,60.0,8.7
2026-01-20T23:08:43+00:00,SAT-56322,316.60706842281644,40.31380633361924,2537.054884093007,3.3619782165725343,-117750.698298126,10.5,10499882249.301702,47.655,-122.3035,60.0,8.716666666666667
2026-01-20T23:08:44+00:00,SAT-56322,316.4016008861861,40.33663192110916,2540.4078970343353,3.3780543739476534,-118313.75333148094,10.5,10499881686.246668,47.655,-122.3035,60.0,8.733333333333333
2026-01-20T23:08:45+00:00,SAT-56322,316.1964608307708,40.35887510304403,2543.776943263286,3.394062862218403,-118874.43830656083,10.5,10499881125.561693,47.655,-122.3035,60.0,8.75
2026-01-20T23:08:46+00:00,SAT-56322,315.9916534210466,40.38053841705742,2547.1619552912052,3.4100037047146117,-119432.75404047497,10.5,10499880567.24596,47.655,-122.3035,60.0,8.766666666666667
2026-01-20T23:08:47+00:00,SAT-56322,315.7871837682457,40.401624426059804,2550.562865652707,3.425876951952307,-119988.70230250832,10.5,10499880011.297697,47.655,-122.3035,60.0,8.783333333333333
2026-01-20T23:08:48+00:00,SAT-56322,315.58305692847244,40.4221357177522,2553.9796069327876,3.4416826204857336,-120542.28367246051,10.5,10499879457.716328,47.655,-122.3035,60.0,8.8
2026-01-20T23:08:49+00:00,SAT-56322,315.3792779043386,40.44207490379921,2557.412111732952,3.4574207835544413,-121093.50071549043,10.5,10499878906.499285,47.655,-122.3035,60.0,8.816666666666666
2026-01-20T23:08:50+00:00,SAT-56322,315.17585164148903,40.46144461949227,2560.86031272775,3.473091465295311,-121642.35427697373,10.5,10499878357.645723,47.655,-122.3035,60.0,8.833333333333334
2026-01-20T23:08:51+00:00,SAT-56322,314.9727830310781,40.48024752285714,2564.3241426158047,3.4886947320264485,-122188.846679651,10.5,10499877811.15332,47.655,-122.3035,60.0,8.85
2026-01-20T23:08:52+00:00,SAT-56322,314.7700769071733,40.49848629423402,2567.8035341618793,3.504230630104612,-122732.979547132,10.5,10499877267.020452,47.655,-122.3035,60.0,8.866666666666667
2026-01-20T23:08:53+00:00,SAT-56322,314.56773804762787,40.516163635548374,2571.2984201769705,3.5196992212607165,-123274.75504149449,10.5,10499876725.244959,47.655,-122.3035,60.0,8.883333333333333
2026-01-20T23:08:54+00:00,SAT-56322,314.36577117298367,40.533282269760015,2574.808733533641,3.5351005624113094,-123814.17515619672,10.5,10499876185.824844,47.655,-122.3035,60.0,8.9
2026-01-20T23:08:55+00:00,SAT-56322,314.1641809465924,40.549844940205226,2578.334407161219,3.550434737636778,-124351.2428360895,10.5,10499875648.757164,47.655,-122.3035,60.0,8.916666666666666
2026-01-20T23:08:56+00:00,SAT-56322,313.9629719728964,40.565854410099334,2581.875374072889,3.565701798610365,-124885.95989098844,10.5,10499875114.04011,47.655,-122.3035,60.0,8.933333333333334
2026-01-20T23:08:57+00:00,SAT-56322,313.76214879903955,40.581313461777924,2585.4315673333695,3.580901821392752,-125418.32898486024,10.5,10499874581.671015,47.655,-122.3035,60.0,8.95
2026-01-20T23:08:58+00:00,SAT-56322,313.5617159133673,40.59622489618758,2589.0029200832387,3.596034888907109,-125948.35302202516,10.5,10499874051.646978,47.655,-122.3035,60.0,8.966666666666667
2026-01-20T23:08:59+00:00,SAT-56322,313.3616777449627,40.6105915322888,2592.5893655457753,3.6111010747929546,-126476.03458165056,10.5,10499873523.965418,47.655,-122.3035,60.0,8.983333333333333
2026-01-20T23:09:00+00:00,SAT-56322,313.16203866396535,40.62441620642467,2596.190837017702,3.626100478329496,-127001.37714091431,10.5,10499872998.62286,47.655,-122.3035,60.0,9.0
2026-01-20T23:09:01+00:00,SAT-56322,312.9628029802012,40.63770177178404,2599.807267894756,3.6410331608578432,-127524.38284824147,10.5,10499872475.617151,47.655,-122.3035,60.0,9.016666666666667
2026-01-20T23:09:02+00:00,SAT-56322,312.76397494494665,40.65045109770364,2603.4385916338515,3.6558992247974933,-128045.05529079614,10.5,10499871954.94471,47.655,-122.3035,60.0,9.033333333333333
2026-01-20T23:09:03+00:00,SAT-56322,312.56555874880956,40.66266706918595,2607.08474179405,3.6706987662736417,-128563.39783528922,10.5,10499871436.602165,47.655,-122.3035,60.0,9.05
2026-01-20T23:09:04+00:00,SAT-56322,312.3675585219546,40.674352586289565,2610.74565203028,3.685431884738797,-129079.41396496828,10.5,10499870920.586035,47.655,-122.3035,60.0,9.066666666666666
2026-01-20T23:09:05+00:00,SAT-56322,312.16997833392406,40.68551056354492,2614.4212560966594,3.7000986569870005,-129593.10636948548,10.5,10499870406.893631,47.655,-122.3035,60.0,9.083333333333334
2026-01-20T23:09:06+00:00,SAT-56322,311.97282219468013,40.6961439293273,2618.111487823894,3.714699217374788,-130104.47975457499,10.5,10499869895.520245,47.655,-122.3035,60.0,9.1
2026-01-20T23:09:07+00:00,SAT-56322,311.77609405179476,40.70625562539933,2621.8162811766897,3.7292336452576254,-130613.53689960096,10.5,10499869386.4631,47.655,-122.3035,60.0,9.116666666666667
2026-01-20T23:09:08+00:00,SAT-56322,311.5797977930931,40.715848606228946,2625.535570198893,3.743702064925741,-131120.28215773287,10.5,10499868879.717842,47.655,-122.3035,60.0,9.133333333333333
2026-01-20T23:09:09+00:00,SAT-56322,311.3839372445105,40.72492583850472,2629.269289058312,3.7581045776439557,-131624.71907569314,10.5,10499868375.280924,47.655,-122.3035,60.0,9.15
2026-01-20T23:09:10+00:00,SAT-56322,311.1885161712082,40.733490300532104,2633.017372023749,3.772441294051205,-132126.85152852527,10.5,10499867873.148472,47.655,-122.3035,60.0,9.166666666666666
2026-01-20T23:09:11+00:00,SAT-56322,310.99353827718954,40.74154498168984,2636.7797534743495,3.7867123532462226,-132626.68438805535,10.5,10499867373.315613,47.655,-122.3035,60.0,9.183333333333334
2026-01-20T23:09:12+00:00,SAT-56322,310.7990072039493,40.74909288192445,2640.556367927987,3.8009178454898556,-133124.22081559998,10.5,10499866875.779184,47.655,-122.3035,60.0,9.2
2026-01-20T23:09:13+00:00,SAT-56322,310.6049265329333,40.75613701112119,2644.347149992556,3.8150579056555,-133619.46553499604,10.5,10499866380.534466,47.655,-122.3035,60.0,9.216666666666667
2026-01-20T23:09:14+00:00,SAT-56322,310.4112997834476,40.76268038863276,2648.1520344104633,3.829132661562461,-134112.42302301625,10.5,10499865887.576977,47.655,-122.3035,60.0,9.233333333333333
2026-01-20T23:09:15+00:00,SAT-56322,310.2181304131217,40.768726042727245,2651.9709560515944,3.8431422403536004,-134603.0977327415,10.5,10499865396.902267,47.655,-122.3035,60.0,9.25
2026-01-20T23:09:16+00:00,SAT-56322,310.0254218180412,40.77427701005426,2655.8038499126405,3.8570867618935685,-135091.49386233883,10.5,10499864908.506138,47.655,-122.3035,60.0,9.266666666666667
2026-01-20T23:09:17+00:00,SAT-56322,309.83317733322434,40.77933633511073,2659.6506511098355,3.8709663682780717,-135577.6163886009,10.5,10499864422.383612,47.655,-122.3035,60.0,9.283333333333333
2026-01-20T23:09:18+00:00,SAT-56322,309.6414002317344,40.78390706974073,2663.511294901132,3.8847811905886767,-136061.46990255872,10.5,10499863938.530098,47.655,-122.3035,60.0,9.3
2026-01-20T23:09:19+00:00,SAT-56322,309.4500937253118,40.78799227261301,2667.3857166752123,3.898531372807093,-136543.0594470608,10.5,10499863456.940554,47.655,-122.3035,60.0,9.316666666666666
2026-01-20T23:09:20+00:00,SAT-56322,309.25926096401116,40.791595008709905,2671.2738519643585,3.912217037258262,-137022.38930644395,10.5,10499862977.610693,47.655,-122.3035,60.0,9.333333333333334
2026-01-20T23:09:21+00:00,SAT-56322,309.06890503729977,40.79471834882566,2675.175636422851,3.925838332315927,-137499.46467738436,10.5,10499862500.535322,47.655,-122.3035,60.0,9.35
2026-01-20T23:09:22+00:00,SAT-56322,308.87902897311534,40.7973653690738,2679.091005852947,3.939395421864195,-137974.29129979663,10.5,10499862025.7087,47.655,-122.3035,60.0,9.366666666666667
2026-01-20T23:09:23+00:00,SAT-56322,308.6896357373451,40.79953915039751,2683.019896220353,3.9528884150889985,-138446.872997834,10.5,10499861553.127003,47.655,-122.3035,60.0,9.383333333333333
2026-01-20T23:09:24+00:00,SAT-56322,308.500728236534,40.801242778072556,2686.9622435996685,3.966317493765811,-138917.21613804245,10.5,10499861082.783861,47.655,-122.3035,60.0,9.4
2026-01-20T23:09:25+00:00,SAT-56322,308.3123093148357,40.8024793412388,2690.9179842467843,3.9796827946641966,-139385.32551067066,10.5,10499860614.67449,47.655,-122.3035,60.0,9.416666666666666
2026-01-20T23:09:26+00:00,SAT-56322,308.1243817562834,40.80325193242129,2694.8870545539958,3.9929844668439944,-139851.20633642474,10.5,10499860148.793663,47.655,-122.3035,60.0,9.433333333333334
2026-01-20T23:09:27+00:00,SAT-56322,307.93694828449173,40.80356364706265,2698.8693910622615,4.006222668138955,-140314.86414331017,10.5,10499859685.135857,47.655,-122.3035,60.0,9.45
2026-01-20T23:09:28+00:00,SAT-56322,307.75001156255445,40.80341758305967,2702.8649304699525,4.019397551183227,-140776.30427722062,10.5,10499859223.695723,47.655,-122.3035,60.0,9.466666666666667
2026-01-20T23:09:29+00:00,SAT-56322,307.56357419349763,40.80281684031647,2706.873609627666,4.032509277988126,-141235.53241247757,10.5,10499858764.467588,47.655,-122.3035,60.0,9.483333333333333
2026-01-20T23:09:30+00:00,SAT-56322,307.37763872023487,40.80176452028059,2710.8953655475793,4.045558022187953,-141692.55463048874,10.5,10499858307.44537,47.655,-122.3035,60.0,9.5
2026-01-20T23:09:31+00:00,SAT-56322,307.19220762529847,40.80026372550098,2714.930135415041,4.0585439150634945,-142147.37552926264,10.5,10499857852.624472,47.655,-122.3035,60.0,9.516666666666667
2026-01-20T23:09:32+00:00,SAT-56322,307.007283333029,40.79831755921377,2718.977856546331,4.07146714787615,-142600.0018075824,10.5,10499857399.998192,47.655,-122.3035,60.0,9.533333333333333
2026-01-20T23:09:33+00:00,SAT-56322,306.82286820728336,40.79592912487482,2723.03846644848,4.084327868949347,-143050.43866036198,10.5,10499856949.56134,47.655,-122.3035,60.0,9.55
2026-01-20T23:09:34+00:00,SAT-56322,306.63896455362425,40.793101525767185,2727.1119027764453,4.097126255896748,-143498.69230838303,10.5,10499856501.307692,47.655,-122.3035,60.0,9.566666666666666
2026-01-20T23:09:35+00:00,SAT-56322,306.4555746183935,40.78983786455985,2731.1981033623265,4.109862477793412,-143944.76867336946,10.5,10499856055.231327,47.655,-122.3035,60.0,9.583333333333334
2026-01-20T23:09:36+00:00,SAT-56322,306.272700589457,40.78614124290144,2735.2970062068453,4.122536698138722,-144388.67348176113,10.5,10499855611.326519,47.655,-122.3035,60.0,9.6
2026-01-20T23:09:37+00:00,SAT-56322,306.09034459675973,40.7820147610278,2739.4085494737897,4.135149092714716,-144830.41289018857,10.5,10499855169.58711,47.655,-122.3035,60.0,9.616666666666667
2026-01-20T23:09:38+00:00,SAT-56322,305.9085087122201,40.777461517345515,2743.5326715022566,4.147699835289863,-145269.99298475872,10.5,10499854730.007015,47.655,-122.3035,60.0,9.633333333333333
2026-01-20T23:09:39+00:00,SAT-56322,305.7271949501643,40.77248460804465,2747.6693108046525,4.160189097532162,-145707.4197780109,10.5,10499854292.580221,47.655,-122.3035,60.0,9.65
2026-01-20T23:09:40+00:00,SAT-56322,305.54640526781094,40.76708712671883,2751.8184060645913,4.172617059661424,-146142.69958200533,10.5,10499853857.300419,47.655,-122.3035,60.0,9.666666666666666
2026-01-20T23:09:41+00:00,SAT-56322,305.3661415653007,40.761272163974525,2755.979896145427,4.184983917748837,-146575.83926398435,10.5,10499853424.160736,47.655,-122.3035,60.0,9.683333333333334
2026-01-20T23:09:42+00:00,SAT-56322,305.18640568548585,40.755042807025895,2760.1537201060614,4.197289801454476,-147006.8433651923,10.5,10499852993.156635,47.655,-122.3035,60.0,9.7
2026-01-20T23:09:43+00:00,SAT-56322,305.007199416988,40.74840213945452,2764.3398171347126,4.209534955949147,-147435.72047254784,10.5,10499852564.279528,47.655,-122.3035,60.0,9.716666666666667
2026-01-20T23:09:44+00:00,SAT-56322,304.82852449000256,40.74135324063569,2768.5381266641125,4.221719509847521,-147862.47509068082,10.5,10499852137.52491,47.655,-122.3035,60.0,9.733333333333333
2026-01-20T23:09:45+00:00,SAT-56322,304.65038258135644,40.73389918560854,2772.7485882552674,4.233843679032715,-148287.1147807311,10.5,10499851712.88522,47.655,-122.3035,60.0,9.75
2026-01-20T23:09:46+00:00,SAT-56322,304.4727753115035,40.72604304455688,2776.971141684489,4.245907630228256,-148709.64538206192,10.5,10499851290.354618,47.655,-122.3035,60.0,9.766666666666667
2026-01-20T23:09:47+00:00,SAT-56322,304.29570424686466,40.7177878825743,2781.20572689437,4.25791156029358,-149130.07378952342,10.5,10499850869.92621,47.655,-122.3035,60.0,9.783333333333333
2026-01-20T23:09:48+00:00,SAT-56322,304.11917089912475,40.709136759264325,2785.452284023836,4.2698556527127955,-149548.40642950515,10.5,10499850451.59357,47.655,-122.3035,60.0,9.8
2026-01-20T23:09:49+00:00,SAT-56322,303.9431767261776,40.700092728445505,2789.7107533948083,4.281740103308569,-149964.6501605453,10.5,10499850035.34984,47.655,-122.3035,60.0,9.816666666666666
2026-01-20T23:09:50+00:00,SAT-56322,303.7677231321445,40.69065883779676,2793.981075524508,4.293565079415308,-150378.81084340267,10.5,10499849621.189157,47.655,-122.3035,60.0,9.833333333333334
2026-01-20T23:09:51+00:00,SAT-56322,303.592811468878,40.6808381286235,2798.263191097045,4.305330793650311,-150790.89592483436,10.5,10499849209.104074,47.655,-122.3035,60.0,9.85
2026-01-20T23:09:52+00:00,SAT-56322,303.4184430347537,40.6706336354286,2802.557041008579,4.317037433716926,-151200.91197900558,10.5,10499848799.08802,47.655,-122.3035,60.0,9.866666666666667
2026-01-20T23:09:53+00:00,SAT-56322,303.2446190760396,40.66004838568058,2806.8625663424727,4.328685177624208,-151608.86524054647,10.5,10499848391.13476,47.655,-122.3035,60.0,9.883333333333333
2026-01-20T23:09:54+00:00,SAT-56322,303.07134078778506,40.64908539954208,2811.179708359623,4.340274244479931,-152014.76338353808,10.5,10499847985.236616,47.655,-122.3035,60.0,9.9
2026-01-20T23:09:55+00:00,SAT-56322,302.8986093127187,40.637747689471794,2815.5084085394506,4.35180480681759,-152418.61245083323,10.5,10499847581.387548,47.655,-122.3035,60.0,9.916666666666666
2026-01-20T23:09:56+00:00,SAT-56322,302.72642574352204,40.62603826006869,2819.8486085334503,4.363277067232898,-152820.41953819076,10.5,10499847179.580462,47.655,-122.3035,60.0,9.933333333333334
2026-01-20T23:09:57+00:00,SAT-56322,302.55479112215403,40.61396010771584,2824.2002501951706,4.374691222055215,-153220.19152189535,10.5,10499846779.808477,47.655,-122.3035,60.0,9.95
2026-01-20T23:09:58+00:00,SAT-56322,302.3837064406193,40.601516220324946,2828.563275573967,4.386047460811894,-153617.93503999652,10.5,10499846382.06496,47.655,-122.3035,60.0,9.966666666666667
2026-01-20T23:09:59+00:00,SAT-56322,302.21317264168147,40.588709577097745,2832.9376269082168,4.397346003778084,-154013.65780746186,10.5,10499845986.342192,47.655,-122.3035,60.0,9.983333333333333
2026-01-20T23:10:00+00:00,SAT-56322,302.04319061827584,40.57554314816807,2837.323246655985,4.4085870235035465,-154407.36586771384,10.5,10499845592.634132,47.655,-122.3035,60.0,10.0
2026-01-20T23:10:01+00:00,SAT-56322,301.8737612157225,40.562019894504694,2841.7200774474254,4.419770738092826,-154799.06685969624,10.5,10499845200.93314,47.655,-122.3035,60.0,10.016666666666667
2026-01-20T23:10:02+00:00,SAT-56322,301.70488523061346,40.548142767517675,2846.128062130217,4.430897336385654,-155188.76739737517,10.5,10499844811.232603,47.655,-122.3035,60.0,10.033333333333333
2026-01-20T23:10:03+00:00,SAT-56322,301.53656341234637,40.53391470891732,2850.547143740372,4.4419670155184425,-155576.47438530173,10.5,10499844423.525614,47.655,-122.3035,60.0,10.05
2026-01-20T23:10:04+00:00,SAT-56322,301.3687964633773,40.51933865045127,2854.9772655105157,4.452980006935999,-155962.19592965208,10.5,10499844037.80407,47.655,-122.3035,60.0,10.066666666666666
2026-01-20T23:10:05+00:00,SAT-56322,301.2015850384802,40.504417513559424,2859.4183709041,4.46393646010779,-156345.93726547915,10.5,10499843654.062735,47.655,-122.3035,60.0,10.083333333333334
2026-01-20T23:10:06+00:00,SAT-56322,301.0349297482008,40.48915420943908,2863.8704035336477,4.474836626621914,-156727.70720446244,10.5,10499843272.292795,47.655,-122.3035,60.0,10.1
2026-01-20T23:10:07+00:00,SAT-56322,300.8688311557483,40.47355163846797,2868.3333072625987,4.485680694844439,-157107.51234397833,10.5,10499842892.487656,47.655,-122.3035,60.0,10.116666666666667
2026-01-20T23:10:08+00:00,SAT-56322,300.7032897797712,40.45761269021632,2872.8070261422567,4.49646885323545,-157485.35928469631,10.5,10499842514.640715,47.655,-122.3035,60.0,10.133333333333333
2026-01-20T23:10:09+00:00,SAT-56322,300.53830609483674,40.44134024324932,2877.2915044118836,4.5072013137998415,-157861.25545192443,10.5,10499842138.744549,47.655,-122.3035,60.0,10.15
2026-01-20T23:10:10+00:00,SAT-56322,300.37388053117274,40.424737164837175,2881.78668652218,4.517878296584066,-158235.2085526204,10.5,10499841764.791447,47.655,-122.3035,60.0,10.166666666666666
2026-01-20T23:10:11+00:00,SAT-56322,300.2100134748965,40.407806310730535,2886.292517143306,4.528499999309502,-158607.22551182314,10.5,10499841392.774488,47.655,-122.3035,60.0,10.183333333333334
2026-01-20T23:10:12+00:00,SAT-56322,300.04670526933273,40.39055052505701,2890.8089411426176,4.539066608409454,-158977.31285921566,10.5,10499841022.687141,47.655,-122.3035,60.0,10.2
2026-01-20T23:10:13+00:00,SAT-56322,299.883956215882,40.372972640188884,2895.335903573405,4.549578357046005,-159345.4787611203,10.5,10499840654.521238,47.655,-122.3035,60.0,10.216666666666667
2026-01-20T23:10:14+00:00,SAT-56322,299.72176657302117,40.35507547637436,2899.873349721499,4.560035432308066,-159711.72977018217,10.5,10499840288.27023,47.655,-122.3035,60.0,10.233333333333333
2026-01-20T23:10:15+00:00,SAT-56322,299.56013655832726,40.33686184175682,2904.4212250593205,4.570438060529785,-160076.07381358053,10.5,10499839923.926186,47.655,-122.3035,60.0,10.25
2026-01-20T23:10:16+00:00,SAT-56322,299.3990663477495,40.31833453204204,2908.979475285022,4.580786417964318,-160438.51706444644,10.5,10499839561.482935,47.655,-122.3035,60.0,10.266666666666667
2026-01-20T23:10:17+00:00,SAT-56322,299.23855607775926,40.299496330551044,2913.5480462725386,4.591080746915607,-160799.06800928887,10.5,10499839200.931992,47.655,-122.3035,60.0,10.283333333333333
2026-01-20T23:10:18+00:00,SAT-56322,299.07860584371906,40.28035000778267,2918.126884137462,4.601321243643386,-161157.7335219539,10.5,10499838842.266478,47.655,-122.3035,60.0,10.3
2026-01-20T23:10:19+00:00,SAT-56322,298.91921570191596,40.26089832145783,2922.7159351911228,4.611508096813572,-161514.52021031996,10.5,10499838485.47979,47.655,-122.3035,60.0,10.316666666666666
2026-01-20T23:10:20+00:00,SAT-56322,298.7603856703495,40.241144016409514,2927.3151459330115,4.621641541861513,-161869.43632032894,10.5,10499838130.563679,47.655,-122.3035,60.0,10.333333333333334
2026-01-20T23:10:21+00:00,SAT-56322,298.60211572770834,40.22108982423786,2931.924463097428,4.631721771919363,-162222.4886162857,10.5,10499837777.511383,47.655,-122.3035,60.0,10.35
2026-01-20T23:10:22+00:00,SAT-56322,298.44440581531467,40.200738463356636,2936.543833611289,4.641748995597611,-162573.68440461208,10.5,10499837426.315596,47.655,-122.3035,60.0,10.366666666666667
2026-01-20T23:10:23+00:00,SAT-56322,298.28725583710025,40.18009263879835,2941.173204609565,4.651723429687059,-162923.03127823892,10.5,10499837076.968721,47.655,-122.3035,60.0,10.383333333333333
2026-01-20T23:10:24+00:00,SAT-56322,298.13066565990624,40.15915504204807,2945.8125234434397,4.661645283224595,-163270.53655852226,10.5,10499836729.463442,47.655,-122.3035,60.0,10.4
2026-01-20T23:10:25+00:00,SAT-56322,297.9746351142333,40.137928350957445,2950.461737672576,4.671514753659697,-163616.20716097808,10.5,10499836383.79284,47.655,-122.3035,60.0,10.416666666666666
2026-01-20T23:10:26+00:00,SAT-56322,297.81916399514176,40.116415229681344,2955.120795053559,4.681332066002095,-163960.05096639888,10.5,10499836039.949034,47.655,-122.3035,60.0,10.433333333333334
2026-01-20T23:10:27+00:00,SAT-56322,297.66425206189314,40.094618328437754,2959.789643567385,4.691097413937897,-164302.0747584915,10.5,10499835697.925241,47.655,-122.3035,60.0,10.45
2026-01-20T23:10:28+00:00,SAT-56322,297.50989903946623,40.07254028354681,2964.468231388219,4.70081102264709,-164642.28642401152,10.5,10499835357.713575,47.655,-122.3035,60.0,10.466666666666667
2026-01-20T23:10:29+00:00,SAT-56322,297.35610461806846,40.05018371717807,2969.1565069148055,4.710473085912852,-164980.6927500656,10.5,10499835019.30725,47.655,-122.3035,60.0,10.483333333333333
2026-01-20T23:10:30+00:00,SAT-56322,297.2028684546536,40.027551237401845,2973.8544187391562,4.720083829058992,-165317.3016284466,10.5,10499834682.698372,47.655,-122.3035,60.0,10.5
2026-01-20T23:10:31+00:00,SAT-56322,297.05019017243126,40.00464543794231,2978.5619156780044,4.729643453796411,-165652.1201239236,10.5,10499834347.879875,47.655,-122.3035,60.0,10.516666666666667
2026-01-20T23:10:32+00:00,SAT-56322,296.89806936213506,39.98146889820106,2983.2789467492576,4.739152153620639,-165985.1550135284,10.5,10499834014.844986,47.655,-122.3035,60.0,10.533333333333333
2026-01-20T23:10:33+00:00,SAT-56322,296.7465055827435,39.95802418321595,2988.0054611638016,4.748610166053265,-166316.4146162719,10.5,10499833683.585384,47.655,-122.3035,60.0,10.55
2026-01-20T23:10:34+00:00,SAT-56322,296.5954983606807,39.93431384335533,2992.741408369412,4.758017704515084,-166645.90640705306,10.5,10499833354.093594,47.655,-122.3035,60.0,10.566666666666666
2026-01-20T23:10:35+00:00,SAT-56322,296.44504719103475,39.9103404143608,2997.486738026715,4.767374934548521,-166973.63618386778,10.5,10499833026.363815,47.655,-122.3035,60.0,10.583333333333334
2026-01-20T23:10:36+00:00,SAT-56322,296.2951515395102,39.88610641751894,3002.241399961438,4.776682109382713,-167299.61281587172,10.5,10499832700.387184,47.655,-122.3035,60.0,10.6
2026-01-20T23:10:37+00:00,SAT-56322,296.14581084027145,39.86161435914309,3007.005344251863,4.785939418313264,-167623.84293299756,10.5,10499832376.157066,47.655,-122.3035,60.0,10.616666666666667
2026-01-20T23:10:38+00:00,SAT-56322,295.9970244983822,39.83686673083473,3011.7785211650603,4.795147070363846,-167946.33385613852,10.5,10499832053.666143,47.655,-122.3035,60.0,10.633333333333333
2026-01-20T23:10:39+00:00,SAT-56322,295.8487918896732,39.811866009320724,3016.56088117657,4.804305282643406,-168267.09318936826,10.5,10499831732.90681,47.655,-122.3035,60.0,10.65
2026-01-20T23:10:40+00:00,SAT-56322,295.7011123610318,39.78661465635078,3021.3523749784595,4.813414263980462,-168586.1282467448,10.5,10499831413.871754,47.655,-122.3035,60.0,10.666666666666666
2026-01-20T23:10:41+00:00,SAT-56322,295.55398523109943,39.76111511868662,3026.1529534710694,4.822474214992736,-168903.4460547494,10.5,10499831096.553946,47.655,-122.3035,60.0,10.683333333333334
2026-01-20T23:10:42+00:00,SAT-56322,295.4074097910189,39.7353698280946,3030.9625677548224,4.83148534411894,-169219.0539137875,10.5,10499830780.946087,47.655,-122.3035,60.0,10.7
2026-01-20T23:10:43+00:00,SAT-56322,295.26138530466125,39.70938120125763,3035.7811691380234,4.840447867820549,-169532.95940525547,10.5,10499830467.040594,47.655,-122.3035,60.0,10.716666666666667
2026-01-20T23:10:44+00:00,SAT-56322,295.1159110088944,39.683151639685626,3040.6087091448635,4.849361994182555,-169845.16981717004,10.5,10499830154.830183,47.655,-122.3035,60.0,10.733333333333333
2026-01-20T23:10:45+00:00,SAT-56322,294.97098611428123,39.65668352972077,3045.4451395070614,4.85822791886906,-170155.69200251572,10.5,10499829844.307997,47.655,-122.3035,60.0,10.75
2026-01-20T23:10:46+00:00,SAT-56322,294.8266098059154,39.62997924256861,3050.2904121514803,4.867045865795088,-170464.53380374375,10.5,10499829535.466196,47.655,-122.3035,60.0,10.766666666666667
2026-01-20T23:10:47+00:00,SAT-56322,294.68278124306823,39.60304113410816,3055.1444792282996,4.8758160301322775,-170771.70205659047,10.5,10499829228.297943,47.655,-122.3035,60.0,10.783333333333333
2026-01-20T23:10:48+00:00,SAT-56322,294.53949956048467,39.57587154502001,3060.007293082351,4.884538610360268,-171077.20371265247,10.5,10499828922.796288,47.655,-122.3035,60.0,10.8
2026-01-20T23:10:49+00:00,SAT-56322,294.3967638687165,39.54847280074259,3064.8788062564176,4.893213855552992,-171381.04749555246,10.5,10499828618.952505,47.655,-122.3035,60.0,10.816666666666666
2026-01-20T23:10:50+00:00,SAT-56322,294.25457325321383,39.52084721115803,3069.758971541689,4.901841921680558,-171683.23886802336,10.5,10499828316.761131,47.655,-122.3035,60.0,10.833333333333334
2026-01-20T23:10:51+00:00,SAT-56322,294.11292677731234,39.49299707110185,3074.6477418849117,4.9104230359573515,-171983.78578807405,10.5,10499828016.214212,47.655,-122.3035,60.0,10.85
2026-01-20T23:10:52+00:00,SAT-56322,293.97182348073375,39.464924659938475,3079.54507045944,4.918957416669351,-172282.6959010029,10.5,10499827717.304098,47.655,-122.3035,60.0,10.866666666666667
2026-01-20T23:10:53+00:00,SAT-56322,293.83126238027864,39.43663224159451,3084.4509106563314,4.9274452363505645,-172579.97524968063,10.5,10499827420.02475,47.655,-122.3035,60.0,10.883333333333333
2026-01-20T23:10:54+00:00,SAT-56322,293.6912424715045,39.40812206481244,3089.3652160387182,4.935886737433508,-172875.63232511948,10.5,10499827124.367676,47.655,-122.3035,60.0,10.9
2026-01-20T23:10:55+00:00,SAT-56322,293.55176272726715,39.37939636273345,3094.287940411519,4.944282108271543,-173169.67372425093,10.5,10499826830.326275,47.655,-122.3035,60.0,10.916666666666666
2026-01-20T23:10:56+00:00,SAT-56322,293.412822099625,39.35045735320521,3099.2190377675015,4.952631549163737,-173462.10646239552,10.5,10499826537.893538,47.655,-122.3035,60.0,10.933333333333334
2026-01-20T23:10:57+00:00,SAT-56322,293.2744195199174,39.32130723870889,3104.158462299201,4.96093526425079,-173752.9376894241,10.5,10499826247.062311,47.655,-122.3035,60.0,10.95
2026-01-20T23:10:58+00:00,SAT-56322,293.13655389911213,39.29194820633451,3109.106168402747,4.969193469717703,-174042.1749770499,10.5,10499825957.825024,47.655,-122.3035,60.0,10.966666666666667
2026-01-20T23:10:59+00:00,SAT-56322,292.99922412788305,39.26238242770941,3114.062110689879,4.977406352229531,-174329.8248630727,10.5,10499825670.175137,47.655,-122.3035,60.0,10.983333333333333
2026-01-20T23:11:00+00:00,SAT-56322,292.86242907782287,39.23261205917805,3119.0262439585026,4.9855741355762735,-174615.89518556494,10.5,10499825384.104815,47.655,-122.3035,60.0,11.0
2026-01-20T23:11:01+00:00,SAT-56322,292.72616760086885,39.2026392415843,3123.998523229717,4.993696993017675,-174900.3920128157,10.5,10499825099.607986,47.655,-122.3035,60.0,11.016666666666667
2026-01-20T23:11:02+00:00,SAT-56322,292.59043853102895,39.172466100585034,3128.97890369742,5.001775151566356,-175183.32329576727,10.5,10499824816.676704,47.655,-122.3035,60.0,11.033333333333333
2026-01-20T23:11:03+00:00,SAT-56322,292.45524068337687,39.142094746336014,3133.9673407819155,5.009808808805967,-175464.6959546349,10.5,10499824535.304045,47.655,-122.3035,60.0,11.05
2026-01-20T23:11:04+00:00,SAT-56322,292.3205728552426,39.11152727368041,3138.963790100565,5.017798157409736,-175744.51673764997,10.5,10499824255.483263,47.655,-122.3035,60.0,11.066666666666666
2026-01-20T23:11:05+00:00,SAT-56322,292.18643382669234,39.08076576219652,3143.968207462888,5.025743398076191,-176022.79267412392,10.5,10499823977.207325,47.655,-122.3035,60.0,11.083333333333334
2026-01-20T23:11:06+00:00,SAT-56322,292.0528223607429,39.049812276165035,3148.980548878569,5.0336447393873645,-176299.5310694818,10.5,10499823700.468931,47.655,-122.3035,60.0,11.1
2026-01-20T23:11:07+00:00,SAT-56322,291.9197372035187,39.018668864539954,3154.0007705653184,5.041502385449906,-176574.73907240192,10.5,10499823425.260927,47.655,-122.3035,60.0,11.116666666666667
2026-01-20T23:11:08+00:00,SAT-56322,291.78717708478837,38.98733756099534,3159.028828944407,5.049316514203754,-176848.42291509354,10.5,10499823151.577085,47.655,-122.3035,60.0,11.133333333333333
2026-01-20T23:11:09+00:00,SAT-56322,291.6551407189413,38.95582038411519,3164.064680614573,5.057087332923292,-177120.58985718235,10.5,10499822879.410143,47.655,-122.3035,60.0,11.15
2026-01-20T23:11:10+00:00,SAT-56322,291.52362680466456,38.92411933723393,3169.1082823812753,5.064815060991238,-177391.24758237915,10.5,10499822608.752419,47.655,-122.3035,60.0,11.166666666666666
2026-01-20T23:11:11+00:00,SAT-56322,291.39263402500274,38.89223640838674,3174.1595912687703,5.072499874963649,-177660.40227442383,10.5,10499822339.597725,47.655,-122.3035,60.0,11.183333333333334
2026-01-20T23:11:12+00:00,SAT-56322,291.26216104878114,38.860173570608815,3179.218564477401,5.080141959246542,-177928.0603919952,10.5,10499822071.939608,47.655,-122.3035,60.0,11.2
2026-01-20T23:11:13+00:00,SAT-56322,291.13220653074967,38.82793278191841,3184.285159391423,5.087741548759932,-178194.23016298588,10.5,10499821805.769836,47.655,-122.3035,60.0,11.216666666666667
2026-01-20T23:11:14+00:00,SAT-56322,291.00276911073865,38.79551598502693,3189.359333629386,5.095298805571545,-178458.91726369323,10.5,10499821541.082737,47.655,-122.3035,60.0,11.233333333333333
2026-01-20T23:11:15+00:00,SAT-56322,290.87384741574033,38.76292510783897,3194.441044971476,5.1028139423017285,-178722.1291409811,10.5,10499821277.87086,47.655,-122.3035,60.0,11.25
2026-01-20T23:11:16+00:00,SAT-56322,290.7454400590682,38.730162063164165,3199.5302514099317,5.110287162521468,-178983.87292476653,10.5,10499821016.127075,47.655,-122.3035,60.0,11.266666666666667
2026-01-20T23:11:17+00:00,SAT-56322,290.61754564089114,38.69722874881268,3204.6269111400197,5.117718617887099,-179244.153926696,10.5,10499820755.846073,47.655,-122.3035,60.0,11.283333333333333
2026-01-20T23:11:18+00:00,SAT-56322,290.49016274981534,38.66412704797171,3209.730982508259,5.125108549344598,-179502.98058571666,10.5,10499820497.019415,47.655,-122.3035,60.0,11.3
2026-01-20T23:11:19+00:00,SAT-56322,290.3632899610943,38.63085882866733,3214.842424101472,5.132457150309196,-179760.35967604813,10.5,10499820239.640324,47.655,-122.3035,60.0,11.316666666666666
2026-01-20T23:11:20+00:00,SAT-56322,290.2369258381024,38.59742594411269,3219.9611946993805,5.139764561898784,-180016.29614023588,10.5,10499819983.70386,47.655,-122.3035,60.0,11.333333333333334
2026-01-20T23:11:21+00:00,SAT-56322,290.11106893384147,38.56383023309797,3225.0872532224475,5.147031036458705,-180270.79881648123,10.5,10499819729.201183,47.655,-122.3035,60.0,11.35
2026-01-20T23:11:22+00:00,SAT-56322,289.98571778870814,38.530073519304416,3230.2205588428087,5.154256735407183,-180523.87335833322,10.5,10499819476.126642,47.655,-122.3035,60.0,11.366666666666667
2026-01-20T23:11:23+00:00,SAT-56322,289.86087093288774,38.49615761194885,3235.3610708935885,5.161441836741584,-180775.52600001244,10.5,10499819224.474,47.655,-122.3035,60.0,11.383333333333333
2026-01-20T23:11:24+00:00,SAT-56322,289.7365268863005,38.46208430572321,3240.508748885432,5.168586573921809,-181025.7649182722,10.5,10499818974.235083,47.655,-122.3035,60.0,11.4
2026-01-20T23:11:25+00:00,SAT-56322,289.6126841576166,38.42785538047655,3245.663552561823,5.175691089214322,-181274.5950958859,10.5,10499818725.404903,47.655,-122.3035,60.0,11.416666666666666
2026-01-20T23:11:26+00:00,SAT-56322,289.4893412466688,38.39347260186952,3250.825441808133,5.182755601932727,-181522.0242141436,10.5,10499818477.975786,47.655,-122.3035,60.0,11.433333333333334
2026-01-20T23:11:27+00:00,SAT-56322,289.36649664297005,38.358937720915456,3255.994376728461,5.1897803006265555,-181768.05887684753,10.5,10499818231.941124,47.655,-122.3035,60.0,11.45
2026-01-20T23:11:28+00:00,SAT-56322,289.2441488267178,38.32425247423627,3261.170317614952,5.196765347100788,-182012.70475109242,10.5,10499817987.295248,47.655,-122.3035,60.0,11.466666666666667
2026-01-20T23:11:29+00:00,SAT-56322,289.12229626968514,38.289418584296975,3266.353224921127,5.203710954606978,-182255.96930584984,10.5,10499817744.030695,47.655,-122.3035,60.0,11.483333333333333
2026-01-20T23:11:30+00:00,SAT-56322,289.0009374343404,38.25443775911554,3271.5430593131887,5.210617309808149,-182497.85907884836,10.5,10499817502.14092,47.655,-122.3035,60.0,11.5
