satellites_20260121_005943/SAT-65673.csv

timestamp,satellite,azimuth_deg,elevation_deg,distance_km,relative_velocity_kms,doppler_shift_hz,tx_freq_ghz,rx_freq_hz,ue_lat,ue_lon,ue_alt_m,time_minutes
2026-01-20T23:00:00+00:00,SAT-65673,271.16377210951083,30.210008506005515,4205.350468802715,2.1355584952326923,-74796.29190652711,10.5,10499925203.708094,47.655,-122.3035,60.0,0.0
2026-01-20T23:00:01+00:00,SAT-65673,271.0500494616576,30.17741079920435,4207.480332475294,2.1457252708267003,-75152.37539324739,10.5,10499924847.624607,47.655,-122.3035,60.0,0.016666666666666666
2026-01-20T23:00:02+00:00,SAT-65673,270.9365400717123,30.14464836800009,4209.620335812065,2.1558737837201924,-75507.81924294446,10.5,10499924492.180758,47.655,-122.3035,60.0,0.03333333333333333
2026-01-20T23:00:03+00:00,SAT-65673,270.8232444769758,30.111722032301746,4211.770460599028,2.1660039851037434,-75862.62174610578,10.5,10499924137.378254,47.655,-122.3035,60.0,0.05
2026-01-20T23:00:04+00:00,SAT-65673,270.7101632051254,30.078632612534825,4213.930688573505,2.176115836637761,-76216.78155991666,10.5,10499923783.218441,47.655,-122.3035,60.0,0.06666666666666667
2026-01-20T23:00:05+00:00,SAT-65673,270.59729677372184,30.04538092943329,4216.101001434578,2.186209271591466,-76570.29634718293,10.5,10499923429.703653,47.655,-122.3035,60.0,0.08333333333333333
2026-01-20T23:00:06+00:00,SAT-65673,270.4846456917666,30.011967804446417,4218.2813808147785,2.1962842529532445,-76923.16481160132,10.5,10499923076.835188,47.655,-122.3035,60.0,0.1
