satellites_20260121_005943/SAT-63387.csv

timestamp,satellite,azimuth_deg,elevation_deg,distance_km,relative_velocity_kms,doppler_shift_hz,tx_freq_ghz,rx_freq_hz,ue_lat,ue_lon,ue_alt_m,time_minutes
2026-01-20T23:07:20+00:00,SAT-63387,193.64370638247033,30.043460522261125,1045.6809538559685,-5.207685178791586,182395.1634477464,10.5,10500182395.163448,47.655,-122.3035,60.0,7.333333333333333
2026-01-20T23:07:21+00:00,SAT-63387,193.67340263962467,30.326600538043177,1040.4871558376535,-5.1861551982665635,181641.0924580328,10.5,10500181641.092459,47.655,-122.3035,60.0,7.35
2026-01-20T23:07:22+00:00,SAT-63387,193.7039142203575,30.61229436976049,1035.3148303865823,-5.164295161650288,180875.46150786764,10.5,10500180875.461508,47.655,-122.3035,60.0,7.366666666666666
2026-01-20T23:07:23+00:00,SAT-63387,193.73526079829844,30.900568859916962,1030.1643066786964,-5.142099874390773,180098.0886620674,10.5,10500180098.088661,47.655,-122.3035,60.0,7.383333333333334
2026-01-20T23:07:24+00:00,SAT-63387,193.76746268588172,31.191450922478037,1025.0359190706374,-5.119564089210261,179308.79013876908,10.5,10500179308.790138,47.655,-122.3035,60.0,7.4
2026-01-20T23:07:25+00:00,SAT-63387,193.8005408603677,31.48496752996765,1019.9300071523318,-5.09668246803906,178507.37897619203,10.5,10500178507.378977,47.655,-122.3035,60.0,7.416666666666667
2026-01-20T23:07:26+00:00,SAT-63387,193.834516990952,31.78114569766677,1014.8469158375408,-5.07344966204351,177693.66783555594,10.5,10500177693.667835,47.655,-122.3035,60.0,7.433333333333334
2026-01-20T23:07:27+00:00,SAT-63387,193.86941346764416,32.080012471344105,1009.7869953745961,-5.049860238418703,176867.4664370522,10.5,10500176867.466436,47.655,-122.3035,60.0,7.45
2026-01-20T23:07:28+00:00,SAT-63387,193.90525343118605,32.38159491006669,1004.7506014301465,-5.025908695137406,176028.58207641353,10.5,10500176028.582077,47.655,-122.3035,60.0,7.466666666666667
2026-01-20T23:07:29+00:00,SAT-63387,193.94206080446682,32.68592006871363,999.7380951581961,-5.001589536406461,175176.8222677164,10.5,10500175176.822268,47.655,-122.3035,60.0,7.483333333333333
2026-01-20T23:07:30+00:00,SAT-63387,193.9798603261244,32.99301498407378,994.7498431938867,-4.976897143816434,174311.9902304966,10.5,10500174311.99023,47.655,-122.3035,60.0,7.5
2026-01-20T23:07:31+00:00,SAT-63387,194.0186775848793,33.30290665220367,989.7862177757871,-4.951825887995083,173433.88880032592,10.5,10500173433.8888,47.655,-122.3035,60.0,7.516666666666667
2026-01-20T23:07:32+00:00,SAT-63387,194.05853905644975,33.61562201135288,984.8475967568268,-4.9263701152219905,172542.3199600001,10.5,10500172542.31996,47.655,-122.3035,60.0,7.533333333333333
2026-01-20T23:07:33+00:00,SAT-63387,194.0994721422671,33.931187923046664,979.9343636285786,-4.900524074656703,171637.08229076056,10.5,10500171637.08229,47.655,-122.3035,60.0,7.55
2026-01-20T23:07:34+00:00,SAT-63387,194.14150520966658,34.24963114751493,975.046907618121,-4.874282017163085,170717.97443354095,10.5,10500170717.974434,47.655,-122.3035,60.0,7.566666666666666
2026-01-20T23:07:35+00:00,SAT-63387,194.18466763491793,34.570978323965264,970.1856236863371,-4.847638115688683,169784.7923003159,10.5,10500169784.792301,47.655,-122.3035,60.0,7.583333333333333
2026-01-20T23:07:36+00:00,SAT-63387,194.2289898478906,34.89525594460735,965.3509126056235,-4.820586548539583,168837.33199073884,10.5,10500168837.331991,47.655,-122.3035,60.0,7.6
2026-01-20T23:07:37+00:00,SAT-63387,194.2745033798154,35.22249033269284,960.5431809545466,-4.793121439499045,167875.38769484314,10.5,10500167875.387695,47.655,-122.3035,60.0,7.616666666666666
2026-01-20T23:07:38+00:00,SAT-63387,194.32124091306306,35.552707615333034,955.7628411722196,-4.765236849974985,166898.7514180138,10.5,10500166898.751417,47.655,-122.3035,60.0,7.633333333333334
2026-01-20T23:07:39+00:00,SAT-63387,194.36923633351452,35.88593369420454,951.0103116205112,-4.736926891299783,165907.21691420177,10.5,10500165907.216915,47.655,-122.3035,60.0,7.65
2026-01-20T23:07:40+00:00,SAT-63387,194.41852478690154,36.22219422247422,946.286016534255,-4.708185575000096,164900.57444173933,10.5,10500164900.574442,47.655,-122.3035,60.0,7.666666666666667
2026-01-20T23:07:41+00:00,SAT-63387,194.46914273674344,36.56151456992895,941.5903861207881,-4.679006949340517,163878.61554567667,10.5,10500163878.615545,47.655,-122.3035,60.0,7.683333333333334
2026-01-20T23:07:42+00:00,SAT-63387,194.5211280268791,36.903919795934726,936.9238565233127,-4.649385008552346,162841.12987858965,10.5,10500162841.129879,47.655,-122.3035,60.0,7.7
2026-01-20T23:07:43+00:00,SAT-63387,194.5745199465363,37.24943461434982,932.2868698747831,-4.619313750867469,161787.90723317137,10.5,10500161787.907232,47.655,-122.3035,60.0,7.716666666666667
2026-01-20T23:07:44+00:00,SAT-63387,194.62935929972127,37.598083360855036,927.6798742939179,-4.588787170374504,160718.73725700026,10.5,10500160718.737257,47.655,-122.3035,60.0,7.733333333333333
2026-01-20T23:07:45+00:00,SAT-63387,194.68568847841212,37.94988995787302,923.103323889331,-4.557799274875111,159633.41007794352,10.5,10500159633.410078,47.655,-122.3035,60.0,7.75
2026-01-20T23:07:46+00:00,SAT-63387,194.74355154022248,38.30487787907439,918.5576787458556,-4.526344045679996,158531.71489604303,10.5,10500158531.714895,47.655,-122.3035,60.0,7.766666666666667
2026-01-20T23:07:47+00:00,SAT-63387,194.80299429004094,38.66307010887455,914.043404950964,-4.494415489011395,157413.44178384784,10.5,10500157413.441784,47.655,-122.3035,60.0,7.783333333333333
2026-01-20T23:07:48+00:00,SAT-63387,194.86406436709393,39.0244891038287,909.5609745699234,-4.46200762491983,156278.38129823207,10.5,10500156278.381298,47.655,-122.3035,60.0,7.8
2026-01-20T23:07:49+00:00,SAT-63387,194.92681133693316,39.38915675109046,905.1108656320033,-4.429114531547118,155126.32603067264,10.5,10500155126.32603,47.655,-122.3035,60.0,7.816666666666666
2026-01-20T23:07:50+00:00,SAT-63387,194.99128678960676,39.757094328456645,900.6935620725404,-4.395730229321256,153957.06655126458,10.5,10500153957.066551,47.655,-122.3035,60.0,7.833333333333333
2026-01-20T23:07:51+00:00,SAT-63387,195.05754444203262,40.12832245271402,896.3095537904973,-4.361848860783384,152770.39770702148,10.5,10500152770.397707,47.655,-122.3035,60.0,7.85
2026-01-20T23:07:52+00:00,SAT-63387,195.12564024913578,40.502861040343866,891.959336526676,-4.327464576684297,151566.1146324939,10.5,10500151566.114632,47.655,-122.3035,60.0,7.866666666666666
2026-01-20T23:07:53+00:00,SAT-63387,195.19563252019293,40.880729256696235,887.6434118555295,-4.292571558830953,150344.01354995064,10.5,10500150344.01355,47.655,-122.3035,60.0,7.883333333333334
2026-01-20T23:07:54+00:00,SAT-63387,195.26758204263493,41.26194546447823,883.3622871541887,-4.257164084337277,149103.89401971348,10.5,10500149103.89402,47.655,-122.3035,60.0,7.9
2026-01-20T23:07:55+00:00,SAT-63387,195.34155221460813,41.64652717526394,879.1164755074097,-4.221236469347576,147845.55696911347,10.5,10500147845.556969,47.655,-122.3035,60.0,7.916666666666667
2026-01-20T23:07:56+00:00,SAT-63387,195.41760918500532,42.034490993665315,874.9064956686472,-4.184783108525232,146568.80607555158,10.5,10500146568.806076,47.655,-122.3035,60.0,7.933333333333334
2026-01-20T23:07:57+00:00,SAT-63387,195.49582200302052,42.4258525622003,870.7328719817446,-4.147798490050499,145273.44829178537,10.5,10500145273.448292,47.655,-122.3035,60.0,7.95
2026-01-20T23:07:58+00:00,SAT-63387,195.57626277762444,42.82062650486383,866.5961342876676,-4.110277183136105,143959.2934086724,10.5,10500143959.29341,47.655,-122.3035,60.0,7.966666666666667
2026-01-20T23:07:59+00:00,SAT-63387,195.6590068471778,43.2188263667669,862.4968178436865,-4.072213855392348,142626.15466336932,10.5,10500142626.154663,47.655,-122.3035,60.0,7.983333333333333
2026-01-20T23:08:00+00:00,SAT-63387,195.7441329604524,43.620464552400364,858.4354632252418,-4.033603307007166,141273.84993646253,10.5,10500141273.849936,47.655,-122.3035,60.0,8.0
2026-01-20T23:08:01+00:00,SAT-63387,195.8317234703827,44.02555226424503,854.41261619372,-3.9944404415231176,139902.2007284544,10.5,10500139902.20073,47.655,-122.3035,60.0,8.016666666666667
2026-01-20T23:08:02+00:00,SAT-63387,195.92186454020728,44.434099435543885,850.4288275933743,-3.954720284823459,138511.03282473612,10.5,10500138511.032825,47.655,-122.3035,60.0,8.033333333333333
2026-01-20T23:08:03+00:00,SAT-63387,196.01464636393666,44.8461146616053,846.4846532293104,-3.9144380335662454,137100.1779919546,10.5,10500137100.177992,47.655,-122.3035,60.0,8.05
2026-01-20T23:08:04+00:00,SAT-63387,196.1101634029717,45.26160513276184,842.5806536971669,-3.8735890239092527,135669.47288262722,10.5,10500135669.472883,47.655,-122.3035,60.0,8.066666666666666
2026-01-20T23:08:05+00:00,SAT-63387,196.20851463848444,45.68057656092158,838.7173942439881,-3.8321687542968994,134218.75983323585,10.5,10500134218.759832,47.655,-122.3035,60.0,8.083333333333334
2026-01-20T23:08:06+00:00,SAT-63387,196.30980384193407,46.103033104904966,834.8954446063693,-3.7901729018751102,132747.88743914518,10.5,10500132747.88744,47.655,-122.3035,60.0,8.1
2026-01-20T23:08:07+00:00,SAT-63387,196.41413986509218,46.52897729388763,831.1153788322325,-3.747597348283085,131256.71145793932,10.5,10500131256.711458,47.655,-122.3035,60.0,8.116666666666667
2026-01-20T23:08:08+00:00,SAT-63387,196.52163695161,46.95840995012796,827.3777750768783,-3.704438132927324,129745.09317288062,10.5,10500129745.093172,47.655,-122.3035,60.0,8.133333333333333
2026-01-20T23:08:09+00:00,SAT-63387,196.6324150697651,47.39133010253696,823.6832154456388,-3.660691586681539,128212.90407564607,10.5,10500128212.904076,47.655,-122.3035,60.0,8.15
2026-01-20T23:08:10+00:00,SAT-63387,196.74660027338982,47.82773491147967,820.0322857031883,-3.6163541919661317,126660.02096571884,10.5,10500126660.020966,47.655,-122.3035,60.0,8.166666666666666
2026-01-20T23:08:11+00:00,SAT-63387,196.86432508548614,48.26761957360848,816.4255751224008,-3.571422721568802,125086.33081247301,10.5,10500125086.330812,47.655,-122.3035,60.0,8.183333333333334
2026-01-20T23:08:12+00:00,SAT-63387,196.9857289147808,48.71097723849837,812.8636761947562,-3.5258941549323666,123491.72782321913,10.5,10500123491.727823,47.655,-122.3035,60.0,8.2
2026-01-20T23:08:13+00:00,SAT-63387,197.1109585011352,49.15779891092166,809.347184424237,-3.4797658175992106,121876.11832713854,10.5,10500121876.118326,47.655,-122.3035,60.0,8.216666666666667
2026-01-20T23:08:14+00:00,SAT-63387,197.24016839995943,49.6080733657945,805.8766979821514,-3.433035218297375,120239.4150693492,10.5,10500120239.41507,47.655,-122.3035,60.0,8.233333333333333
2026-01-20T23:08:15+00:00,SAT-63387,197.37352149847166,50.06178703810857,802.4528175244361,-3.3857002536200964,118581.54437964883,10.5,10500118581.54438,47.655,-122.3035,60.0,8.25
2026-01-20T23:08:16+00:00,SAT-63387,197.5111895800425,50.518923933766004,799.0761458048257,-3.3377590575489213,116902.44090217797,10.5,10500116902.440903,47.655,-122.3035,60.0,8.266666666666667
2026-01-20T23:08:17+00:00,SAT-63387,197.65335392772946,50.979465516031105,795.7472874380968,-3.289210145613293,115202.05264449841,10.5,10500115202.052645,47.655,-122.3035,60.0,8.283333333333333
2026-01-20T23:08:18+00:00,SAT-63387,197.80020598223774,51.443390605540266,792.4668485195385,-3.2400523294716423,113480.33798586168,10.5,10500113480.337986,47.655,-122.3035,60.0,8.3
2026-01-20T23:08:19+00:00,SAT-63387,197.95194805002038,51.910675263292156,789.2354363296122,-3.19028480465845,111737.26875048247,10.5,10500111737.268751,47.655,-122.3035,60.0,8.316666666666666
2026-01-20T23:08:20+00:00,SAT-63387,198.108794073704,52.38129267969987,786.0536589510995,-3.139907092527639,109972.82817415042,10.5,10500109972.828175,47.655,-122.3035,60.0,8.333333333333334
2026-01-20T23:08:21+00:00,SAT-63387,198.2709704643328,52.85521304916917,782.922124944152,-3.088919161866001,108187.01516364701,10.5,10500108187.015163,47.655,-122.3035,60.0,8.35
2026-01-20T23:08:22+00:00,SAT-63387,198.43871701006114,53.33240345567474,779.8414429000509,-3.0373213172040314,106379.84038491832,10.5,10500106379.840385,47.655,-122.3035,60.0,8.366666666666667
2026-01-20T23:08:23+00:00,SAT-63387,198.61228785732226,53.81282773503268,776.8122211063594,-2.9851142888565865,104551.32941667984,10.5,10500104551.329416,47.655,-122.3035,60.0,8.383333333333333
2026-01-20T23:08:24+00:00,SAT-63387,198.7919525819403,54.2964463427479,773.8350671222731,-2.9322992470963714,102701.52324683197,10.5,10500102701.523247,47.655,-122.3035,60.0,8.4
2026-01-20T23:08:25+00:00,SAT-63387,198.9779973554938,54.78321621622068,770.9105873398356,-2.878877785453712,100830.47768754735,10.5,10500100830.477688,47.655,-122.3035,60.0,8.416666666666666
2026-01-20T23:08:26+00:00,SAT-63387,199.17072621494313,55.27309062577886,768.0393865618098,-2.8248519557918508,98938.26460375609,10.5,10500098938.264605,47.655,-122.3035,60.0,8.433333333333334
2026-01-20T23:08:27+00:00,SAT-63387,199.37046244919438,55.76601902185159,765.2220675445667,-2.7702242553487375,97024.97145929451,10.5,10500097024.971458,47.655,-122.3035,60.0,8.45
2026-01-20T23:08:28+00:00,SAT-63387,199.5775501118629,56.26194686979812,762.4592305538989,-2.7149976849055815,95090.70335421382,10.5,10500095090.703354,47.655,-122.3035,60.0,8.466666666666667
2026-01-20T23:08:29+00:00,SAT-63387,199.7923556785113,56.76081548347353,759.7514728628198,-2.659175705749781,93135.58151743999,10.5,10500093135.581518,47.655,-122.3035,60.0,8.483333333333333
2026-01-20T23:08:30+00:00,SAT-63387,200.01526985677816,57.26256183934462,757.0993882922853,-2.6027622955691894,91159.74526442721,10.5,10500091159.745264,47.655,-122.3035,60.0,8.5
2026-01-20T23:08:31+00:00,SAT-63387,200.2467095732326,57.7671183869855,754.503566696171,-2.545761937203816,89163.351603195,10.5,10500089163.351603,47.655,-122.3035,60.0,8.516666666666667
2026-01-20T23:08:32+00:00,SAT-63387,200.4871201513455,58.27441284303347,751.9645934574663,-2.488179639033057,87146.57594837525,10.5,10500087146.575949,47.655,-122.3035,60.0,8.533333333333333
2026-01-20T23:08:33+00:00,SAT-63387,200.73697770430863,58.78436797261171,749.4830489641374,-2.430020927492545,85109.61185912062,10.5,10500085109.611858,47.655,-122.3035,60.0,8.55
2026-01-20T23:08:34+00:00,SAT-63387,200.9967917644695,59.29690135125882,747.0595080924514,-2.3712918738437327,83052.67197668861,10.5,10500083052.671976,47.655,-122.3035,60.0,8.566666666666666
2026-01-20T23:08:35+00:00,SAT-63387,201.26710817915662,59.81192511169949,744.6945396636047,-2.3119991017190564,80975.98828870503,10.5,10500080975.988289,47.655,-122.3035,60.0,8.583333333333334
2026-01-20T23:08:36+00:00,SAT-63387,201.5485123021959,60.32934566990782,742.3887058928235,-2.252149792465351,78879.81231631312,10.5,10500078879.812317,47.655,-122.3035,60.0,8.6
2026-01-20T23:08:37+00:00,SAT-63387,201.84163251489366,60.849063427060166,740.1425618331381,-2.191751667408255,76764.41449299794,10.5,10500076764.414494,47.655,-122.3035,60.0,8.616666666666667
2026-01-20T23:08:38+00:00,SAT-63387,202.1471441119537,61.37097243891165,737.9566548368429,-2.1308130241443104,74630.08543568918,10.5,10500074630.085436,47.655,-122.3035,60.0,8.633333333333333
2026-01-20T23:08:39+00:00,SAT-63387,202.46577360209892,61.894960060781216,735.831523980763,-2.0693427455157445,72477.136259096,10.5,10500072477.13626,47.655,-122.3035,60.0,8.65
2026-01-20T23:08:40+00:00,SAT-63387,202.79830347010494,62.420906558788424,733.7676994825687,-2.007350255511727,70305.89703118261,10.5,10500070305.897032,47.655,-122.3035,60.0,8.666666666666666
2026-01-20T23:08:41+00:00,SAT-63387,203.14557744683626,62.94868466898956,731.7657021610715,-1.9448455788392314,68116.71885959162,10.5,10500068116.718859,47.655,-122.3035,60.0,8.683333333333334
2026-01-20T23:08:42+00:00,SAT-63387,203.5085063647538,63.478159124022554,729.8260428371093,-1.8818393013415995,65909.972505335,10.5,10500065909.972506,47.655,-122.3035,60.0,8.7
2026-01-20T23:08:43+00:00,SAT-63387,203.88807465386006,64.00918611637387,727.9492217739046,-1.8183425834451548,63686.0488537511,10.5,10500063686.048853,47.655,-122.3035,60.0,8.716666666666667
2026-01-20T23:08:44+00:00,SAT-63387,204.28534756504175,64.54161270393634,726.1357281040154,-1.7543671628847808,61445.35900996615,10.5,10500061445.35901,47.655,-122.3035,60.0,8.733333333333333
2026-01-20T23:08:45+00:00,SAT-63387,204.70147920756554,65.07527614628272,724.386039253565,-1.689925337336147,59188.33369060119,10.5,10500059188.33369,47.655,-122.3035,60.0,8.75
2026-01-20T23:08:46+00:00,SAT-63387,205.13772149600078,65.61000315598845,722.700620383795,-1.625029978879517,56915.42373035592,10.5,10500056915.42373,47.655,-122.3035,60.0,8.766666666666667
2026-01-20T23:08:47+00:00,SAT-63387,205.59543412429792,66.14560906209638,721.0799238181925,-1.559694507250871,54627.09914514976,10.5,10500054627.099146,47.655,-122.3035,60.0,8.783333333333333
2026-01-20T23:08:48+00:00,SAT-63387,206.07609568161953,66.68189685988766,719.5243884962943,-1.4939328952445348,52323.84932134489,10.5,10500052323.849321,47.655,-122.3035,60.0,8.8
2026-01-20T23:08:49+00:00,SAT-63387,206.58131605454756,67.21865614023311,718.0344394221037,-1.4277596542949873,50006.18251076005,10.5,10500050006.18251,47.655,-122.3035,60.0,8.816666666666666
2026-01-20T23:08:50+00:00,SAT-63387,207.1128502629833,67.75566187407219,716.6104871268868,-1.361189827466857,47674.625585150636,10.5,10500047674.625586,47.655,-122.3035,60.0,8.833333333333334
2026-01-20T23:08:51+00:00,SAT-63387,207.67261389764298,68.29267303244379,715.2529271389599,-1.2942389796716904,45329.72369355853,10.5,10500045329.723694,47.655,-122.3035,60.0,8.85
2026-01-20T23:08:52+00:00,SAT-63387,208.26270033951698,68.82943101649415,713.9621394632339,-1.2269231704732424,42972.03930983829,10.5,10500042972.03931,47.655,-122.3035,60.0,8.866666666666667
2026-01-20T23:08:53+00:00,SAT-63387,208.88539994586165,69.36565786106463,712.738488087882,-1.159258954373727,40602.15224268295,10.5,10500040602.152243,47.655,-122.3035,60.0,8.883333333333333
2026-01-20T23:08:54+00:00,SAT-63387,209.54322141504076,69.9010541886395,711.58232049072,-1.0912633568564676,38220.658796536205,10.5,10500038220.658796,47.655,-122.3035,60.0,8.9
2026-01-20T23:08:55+00:00,SAT-63387,210.23891552477372,70.4352968650624,710.4939671694818,-1.0229538576378945,35828.17118500657,10.5,10500035828.171185,47.655,-122.3035,60.0,8.916666666666666
2026-01-20T23:08:56+00:00,SAT-63387,210.97550144488488,70.96803631494059,709.4737411887975,-0.9543483792328543,33425.31713037614,10.5,10500033425.317131,47.655,-122.3035,60.0,8.933333333333334
2026-01-20T23:08:57+00:00,SAT-63387,211.75629580554553,71.49889344757976,708.521937738576,-0.8854652449502455,31012.738392430067,10.5,10500031012.738392,47.655,-122.3035,60.0,8.95
2026-01-20T23:08:58+00:00,SAT-63387,212.5849446338187,72.02745611927185,707.6388337342789,-0.8163231819194688,28591.09087445563,10.5,10500028591.090874,47.655,-122.3035,60.0,8.966666666666667
2026-01-20T23:08:59+00:00,SAT-63387,213.4654582476147,72.55327508742029,706.8246874141779,-0.7469412800309695,26161.04318516638,10.5,10500026161.043184,47.655,-122.3035,60.0,8.983333333333333
2026-01-20T23:09:00+00:00,SAT-63387,214.4022490121114,73.07585935954873,706.0797379775604,-0.6773389841520893,23723.276366068345,10.5,10500023723.276365,47.655,-122.3035,60.0,9.0
2026-01-20T23:09:01+00:00,SAT-63387,215.40017173501641,73.59467087333309,705.4042052306994,-0.6075360421939948,21278.48207254415,10.5,10500021278.482073,47.655,-122.3035,60.0,9.016666666666667
2026-01-20T23:09:02+00:00,SAT-63387,216.46456611663874,74.10911839105326,704.7982892846179,-0.5375525099012676,18827.362741604764,10.5,10500018827.362741,47.655,-122.3035,60.0,9.033333333333333
2026-01-20T23:09:03+00:00,SAT-63387,217.60130037405443,74.6185505531581,704.2621702480764,-0.4674087030775941,16370.629918631033,10.5,10500016370.62992,47.655,-122.3035,60.0,9.05
2026-01-20T23:09:04+00:00,SAT-63387,218.8168144415244,75.12224796534156,703.796007968207,-0.39712517192905195,13909.003358767102,10.5,10500013909.003359,47.655,-122.3035,60.0,9.066666666666666
2026-01-20T23:09:05+00:00,SAT-63387,220.11816040124864,75.6194142491727,703.3999417967365,-0.32672267399188004,11443.210078736338,10.5,10500011443.21008,47.655,-122.3035,60.0,9.083333333333334
2026-01-20T23:09:06+00:00,SAT-63387,221.51303663765185,76.10916599521848,703.0740903832085,-0.25622214971632895,8973.983501684535,10.5,10500008973.983501,47.655,-122.3035,60.0,9.1
2026-01-20T23:09:07+00:00,SAT-63387,223.00981068436846,76.59052160406988,702.8185514925581,-0.1856446789565696,6502.061933272454,10.5,10500006502.061934,47.655,-122.3035,60.0,9.116666666666667
2026-01-20T23:09:08+00:00,SAT-63387,224.61752360922557,77.06238904096048,702.6334018660788,-0.11501146068154328,4028.1878510639663,10.5,10500004028.18785,47.655,-122.3035,60.0,9.133333333333333
2026-01-20T23:09:09+00:00,SAT-63387,226.34586630007752,77.52355268912059,702.5186971026257,-0.04434377765572084,1553.1066674968483,10.5,10500001553.106667,47.655,-122.3035,60.0,9.15
2026-01-20T23:09:10+00:00,SAT-63387,228.2051146752688,77.97265961299067,702.4744715750437,0.026337036410952596,-922.4344206651198,10.5,10499999077.565578,47.655,-122.3035,60.0,9.166666666666666
2026-01-20T23:09:11+00:00,SAT-63387,230.20600707870824,78.40820579633949,702.5007383793575,0.09700962756219987,-3397.6875075459657,10.5,10499996602.312492,47.655,-122.3035,60.0,9.183333333333334
2026-01-20T23:09:12+00:00,SAT-63387,232.3595430890064,78.82852326556886,702.5974893145797,0.16765265376114907,-5871.90510473771,10.5,10499994128.094894,47.655,-122.3035,60.0,9.2
2026-01-20T23:09:13+00:00,SAT-63387,234.6766792164214,79.23176944782598,702.7646948945974,0.2382448182942214,-8344.341311245811,10.5,10499991655.65869,47.655,-122.3035,60.0,9.216666666666667
2026-01-20T23:09:14+00:00,SAT-63387,237.16789475428206,79.61592068220439,703.0023043933761,0.3087648989833492,-10814.252836624617,10.5,10499989185.747164,47.655,-122.3035,60.0,9.233333333333333
2026-01-20T23:09:15+00:00,SAT-63387,239.84260217878574,79.97877245261857,703.3102459192955,0.37919178346811705,-13280.900236707184,10.5,10499986719.099764,47.655,-122.3035,60.0,9.25
2026-01-20T23:09:16+00:00,SAT-63387,242.70838397071583,80.31794961386828,703.6884265246744,0.449504496998014,-15743.548887007513,10.5,10499984256.451113,47.655,-122.3035,60.0,9.266666666666667
2026-01-20T23:09:17+00:00,SAT-63387,245.77005444959005,80.63093040689074,704.1367323430137,0.5196822364907808,-18201.470175587936,10.5,10499981798.529825,47.655,-122.3035,60.0,9.283333333333333
2026-01-20T23:09:18+00:00,SAT-63387,249.02857515785803,80.91508827469512,704.6550287602072,0.589704395648759,-20653.942382739893,10.5,10499979346.057617,47.655,-122.3035,60.0,9.3
2026-01-20T23:09:19+00:00,SAT-63387,252.47989619201417,81.1677549454345,705.2431606108009,0.6595506041098538,-23100.252052216285,10.5,10499976899.747948,47.655,-122.3035,60.0,9.316666666666666
2026-01-20T23:09:20+00:00,SAT-63387,256.11385110327626,81.38630665037398,705.9009524132998,0.7292007425397558,-25539.694519824898,10.5,10499974460.305481,47.655,-122.3035,60.0,9.333333333333334
2026-01-20T23:09:21+00:00,SAT-63387,259.91328792999866,81.5682723305516,706.6282086205262,0.7986349820204977,-27971.575292982274,10.5,10499972028.424707,47.655,-122.3035,60.0,9.35
2026-01-20T23:09:22+00:00,SAT-63387,263.8536548274695,81.71145839640329,707.4247139092613,0.8678338089420422,-30395.21092252242,10.5,10499969604.789078,47.655,-122.3035,60.0,9.366666666666667
2026-01-20T23:09:23+00:00,SAT-63387,267.9032491496131,81.81407956371436,708.2902334947128,0.936778042799249,-32809.92962602186,10.5,10499967190.070374,47.655,-122.3035,60.0,9.383333333333333
2026-01-20T23:09:24+00:00,SAT-63387,272.0242643037045,81.87488087315752,709.2245134627312,1.0054488721563004,-35215.072547425974,10.5,10499964784.927452,47.655,-122.3035,60.0,9.4
2026-01-20T23:09:25+00:00,SAT-63387,276.1746284160068,81.89323387616056,710.227281137895,1.0738278692315923,-37609.99426787354,10.5,10499962390.005732,47.655,-122.3035,60.0,9.416666666666666
2026-01-20T23:09:26+00:00,SAT-63387,280.3104527977867,81.86919159218182,711.2982454661421,1.14189702003631,-39994.06386127718,10.5,10499960005.936138,47.655,-122.3035,60.0,9.433333333333334
2026-01-20T23:09:27+00:00,SAT-63387,284.3887537708804,81.80349257911938,712.4370974274583,1.2096387318616506,-42366.66515655751,10.5,10499957633.334843,47.655,-122.3035,60.0,9.45
2026-01-20T23:09:28+00:00,SAT-63387,288.37003729480296,81.69751305383865,713.6435104560351,1.277035879532916,-44727.19835765721,10.5,10499955272.801641,47.655,-122.3035,60.0,9.466666666666667
2026-01-20T23:09:29+00:00,SAT-63387,292.22037351888457,81.55317496002216,714.9171409065558,1.3440717880130282,-47075.07943424246,10.5,10499952924.920567,47.655,-122.3035,60.0,9.483333333333333
2026-01-20T23:09:30+00:00,SAT-63387,295.9127211260733,81.37282453944754,716.2576285031341,1.4107302759272307,-49409.74164612214,10.5,10499950590.258354,47.655,-122.3035,60.0,9.5
2026-01-20T23:09:31+00:00,SAT-63387,299.42743756551755,81.15909863916414,717.6645968316589,1.4769956629000014,-51730.63580021755,10.5,10499948269.3642,47.655,-122.3035,60.0,9.516666666666667
2026-01-20T23:09:32+00:00,SAT-63387,302.75206834533327,80.91479465577333,719.1376538394578,1.5428527808126316,-54037.230644850424,10.5,10499945962.769356,47.655,-122.3035,60.0,9.533333333333333
2026-01-20T23:09:33+00:00,SAT-63387,305.88060697411015,80.64275590739588,720.6763923461883,1.6082869950656151,-56329.013614441756,10.5,10499943670.986385,47.655,-122.3035,60.0,9.55
2026-01-20T23:09:34+00:00,SAT-63387,308.81244699502093,80.34577909105082,722.2803905759338,1.6732841989105995,-58605.490630992776,10.5,10499941394.509369,47.655,-122.3035,60.0,9.566666666666666
2026-01-20T23:09:35+00:00,SAT-63387,311.5512242551717,80.0265458108041,723.9492126836473,1.7378308392923458,-60866.18700917964,10.5,10499939133.81299,47.655,-122.3035,60.0,9.583333333333334
2026-01-20T23:09:36+00:00,SAT-63387,314.1036964982416,79.68757673970653,725.6824093073681,1.8019139143838634,-63110.64737002345,10.5,10499936889.35263,47.655,-122.3035,60.0,9.6
2026-01-20T23:09:37+00:00,SAT-63387,316.4787504714415,79.3312050231454,727.4795181179803,1.8655209933984658,-65338.436334792284,10.5,10499934661.563665,47.655,-122.3035,60.0,9.616666666666667
2026-01-20T23:09:38+00:00,SAT-63387,318.6865783970089,78.95956477060467,729.3400643887297,1.9286402041270814,-67549.13808850506,10.5,10499932450.861912,47.655,-122.3035,60.0,9.633333333333333
2026-01-20T23:09:39+00:00,SAT-63387,320.7380309715325,78.57459057054702,731.2635615523125,1.9912602447846,-69742.35679484071,10.5,10499930257.643206,47.655,-122.3035,60.0,9.65
2026-01-20T23:09:40+00:00,SAT-63387,322.6441331944635,78.17802448363241,733.2495117697777,2.0533703986285614,-71917.7171081465,10.5,10499928082.282892,47.655,-122.3035,60.0,9.666666666666666
2026-01-20T23:09:41+00:00,SAT-63387,324.4157390984448,77.77142768082805,735.2974065140098,2.1149605104350595,-74074.8633495247,10.5,10499925925.13665,47.655,-122.3035,60.0,9.683333333333334
2026-01-20T23:09:42+00:00,SAT-63387,326.0632985040208,77.3561946084378,737.4067271297504,2.1760209946930233,-76213.45979383093,10.5,10499923786.540207,47.655,-122.3035,60.0,9.7
2026-01-20T23:09:43+00:00,SAT-63387,327.5967103176886,76.93356816566902,739.5769454017909,2.2365428639682183,-78333.19166310146,10.5,10499921666.808336,47.655,-122.3035,60.0,9.716666666666667
2026-01-20T23:09:44+00:00,SAT-63387,329.0252402422545,76.50465487905463,741.8075241514553,2.2965176798360236,-80433.76340801157,10.5,10499919566.236591,47.655,-122.3035,60.0,9.733333333333333
2026-01-20T23:09:45+00:00,SAT-63387,330.3574847465671,76.07043945269383,744.097917784145,2.3559375716261,-82514.89936439312,10.5,10499917485.100636,47.655,-122.3035,60.0,9.75
2026-01-20T23:09:46+00:00,SAT-63387,331.6013671787592,75.63179831467636,746.4475728555801,2.4147952335277023,-84576.34365185023,10.5,10499915423.656347,47.655,-122.3035,60.0,9.766666666666667
2026-01-20T23:09:47+00:00,SAT-63387,332.7641552664728,75.18951198505322,748.8559286351517,2.4730839154438784,-86617.85985343475,10.5,10499913382.140146,47.655,-122.3035,60.0,9.783333333333333
2026-01-20T23:09:48+00:00,SAT-63387,333.8524920920161,74.7442762108856,751.3224176601544,2.530797422289748,-88639.230991069,10.5,10499911360.769009,47.655,-122.3035,60.0,9.8
2026-01-20T23:09:49+00:00,SAT-63387,334.8724348637743,74.29671188913728,753.8464662893181,2.587930092149722,-90640.2587605192,10.5,10499909359.74124,47.655,-122.3035,60.0,9.816666666666666
2026-01-20T23:09:50+00:00,SAT-63387,335.8294974934506,73.84737384913473,756.4274952345554,2.644476790301224,-92620.7633220808,10.5,10499907379.236677,47.655,-122.3035,60.0,9.833333333333334
2026-01-20T23:09:51+00:00,SAT-63387,336.7286942728402,73.39675858380552,759.0649200867491,2.700432916163448,-94580.5835439536,10.5,10499905419.416456,47.655,-122.3035,60.0,9.85
2026-01-20T23:09:52+00:00,SAT-63387,337.57458286494926,72.94531102939187,761.7581518484695,2.7557943819204915,-96519.57625353323,10.5,10499903480.423746,47.655,-122.3035,60.0,9.866666666666667
2026-01-20T23:09:53+00:00,SAT-63387,338.37130547156727,72.49343050192795,764.5065974453715,2.810557585952011,-98437.61530684044,10.5,10499901562.384693,47.655,-122.3035,60.0,9.883333333333333
2026-01-20T23:09:54+00:00,SAT-63387,339.1226275197066,72.04147588958897,767.3096602110943,2.864719437705112,-100334.5924596398,10.5,10499899665.407541,47.655,-122.3035,60.0,9.9
2026-01-20T23:09:55+00:00,SAT-63387,339.83197354379456,71.58977018409182,770.1667403969657,2.9182773165486258,-102210.41592634251,10.5,10499897789.584074,47.655,-122.3035,60.0,9.916666666666666
2026-01-20T23:09:56+00:00,SAT-63387,340.5024601237953,71.1386044450762,773.0772356406701,2.971229065451487,-104065.0101585965,10.5,10499895934.989841,47.655,-122.3035,60.0,9.933333333333334
2026-01-20T23:09:57+00:00,SAT-63387,341.13692591266397,70.68824126569088,776.0405414286137,3.023572978282706,-105898.31540047753,10.5,10499894101.684599,47.655,-122.3035,60.0,9.95
2026-01-20T23:09:58+00:00,SAT-63387,341.7379588629726,70.23891780581042,779.056051545621,3.07530780674806,-107710.28793144166,10.5,10499892289.712069,47.655,-122.3035,60.0,9.966666666666667
2026-01-20T23:09:59+00:00,SAT-63387,342.30792082048555,69.79084844737969,782.123158531551,3.1264327042199924,-109500.89809901062,10.5,10499890499.1019,47.655,-122.3035,60.0,9.983333333333333
2026-01-20T23:10:00+00:00,SAT-63387,342.84896966433644,69.34422713116685,785.2412540818931,3.1769472572880213,-111270.1314238006,10.5,10499888729.868576,47.655,-122.3035,60.0,10.0
2026-01-20T23:10:01+00:00,SAT-63387,343.36307921433195,68.89922940508495,788.4097294798283,3.226851438828077,-113017.98695581197,10.5,10499886982.013044,47.655,-122.3035,60.0,10.016666666666667
2026-01-20T23:10:02+00:00,SAT-63387,343.85205709244156,68.4560142331733,791.6279759814863,3.2761456170954406,-114744.47759290239,10.5,10499885255.522408,47.655,-122.3035,60.0,10.033333333333333
2026-01-20T23:10:03+00:00,SAT-63387,344.3175607441753,68.01472558938462,794.8953852102695,3.3248305177419266,-116449.62875046785,10.5,10499883550.37125,47.655,-122.3035,60.0,10.05
2026-01-20T23:10:04+00:00,SAT-63387,344.7611117961914,67.57549387066463,798.2113495132975,3.372907250400598,-118133.47929255206,10.5,10499881866.520708,47.655,-122.3035,60.0,10.066666666666666
2026-01-20T23:10:05+00:00,SAT-63387,345.1841089301255,67.13843714459311,801.5752623443636,3.420377213520356,-119796.07819875087,10.5,10499880203.9218,47.655,-122.3035,60.0,10.083333333333334
2026-01-20T23:10:06+00:00,SAT-63387,345.5878394124511,66.70366226840312,804.9865185519812,3.4672421982348656,-121437.48820214179,10.5,10499878562.511797,47.655,-122.3035,60.0,10.1
2026-01-20T23:10:07+00:00,SAT-63387,345.9734894485026,66.27126587105647,808.4445147710207,3.5135042730302217,-123057.78174985752,10.5,10499876942.21825,47.655,-122.3035,60.0,10.116666666666667
2026-01-20T23:10:08+00:00,SAT-63387,346.3421534599006,65.84133524254544,811.9486496993229,3.559165786798837,-124657.04111004616,10.5,10499875342.958889,47.655,-122.3035,60.0,10.133333333333333
2026-01-20T23:10:09+00:00,SAT-63387,346.6948424167698,65.41394912781438,815.4983243773569,3.6042294339040244,-126235.36065070808,10.5,10499873764.639349,47.655,-122.3035,60.0,10.15
2026-01-20T23:10:10+00:00,SAT-63387,347.0324913325672,64.98917842973357,819.0929425327706,3.648698113754935,-127792.84192141623,10.5,10499872207.15808,47.655,-122.3035,60.0,10.166666666666666
2026-01-20T23:10:11+00:00,SAT-63387,347.3559659916819,64.56708685608959,822.7319107848888,3.692575029866852,-129329.5971228267,10.5,10499870670.402878,47.655,-122.3035,60.0,10.183333333333334
2026-01-20T23:10:12+00:00,SAT-63387,347.666069016552,64.14773149001657,826.4146389480094,3.735863616018509,-130845.7465203956,10.5,10499869154.253479,47.655,-122.3035,60.0,10.2
2026-01-20T23:10:13+00:00,SAT-63387,347.9635453288761,63.731163312315644,830.1405402610518,3.7785675198777566,-132341.4178708807,10.5,10499867658.582129,47.655,-122.3035,60.0,10.216666666666667
2026-01-20T23:10:14+00:00,SAT-63387,348.249087075952,63.31742767491716,833.9090316008766,3.820690640439828,-133816.74773358772,10.5,10499866183.252266,47.655,-122.3035,60.0,10.233333333333333
2026-01-20T23:10:15+00:00,SAT-63387,348.52333808304013,62.90656472537429,837.719533732942,3.8622370542453854,-135271.8788862145,10.5,10499864728.121115,47.655,-122.3035,60.0,10.25
2026-01-20T23:10:16+00:00,SAT-63387,348.78689787375095,62.4986097996457,841.5714714883759,3.903211025940953,-136706.9606947217,10.5,10499863293.039305,47.655,-122.3035,60.0,10.266666666666667
2026-01-20T23:10:17+00:00,SAT-63387,349.040325310403,62.09359377795915,845.464273951581,3.9436170368582704,-138122.15011430287,10.5,10499861877.849886,47.655,-122.3035,60.0,10.283333333333333
2026-01-20T23:10:18+00:00,SAT-63387,349.2841418950564,61.69154340593128,849.3973746763411,3.9834597006932593,-139517.60873610512,10.5,10499860482.391264,47.655,-122.3035,60.0,10.3
2026-01-20T23:10:19+00:00,SAT-63387,349.518834758975,61.29248159607795,853.3702118178325,4.0227438112917815,-140893.50446088842,10.5,10499859106.495539,47.655,-122.3035,60.0,10.316666666666666
2026-01-20T23:10:20+00:00,SAT-63387,349.74485938127964,60.89642769866308,857.3822283122942,4.061474284176524,-142250.00945104996,10.5,10499857749.99055,47.655,-122.3035,60.0,10.333333333333334
2026-01-20T23:10:21+00:00,SAT-63387,349.96264205770274,60.50339775545999,861.4328719983795,4.099656190235757,-143587.3013105468,10.5,10499856412.698689,47.655,-122.3035,60.0,10.35
2026-01-20T23:10:22+00:00,SAT-63387,350.17258215024685,60.11340472929512,865.521595772108,4.137294724151064,-144905.56197910148,10.5,10499855094.43802,47.655,-122.3035,60.0,10.366666666666667
2026-01-20T23:10:23+00:00,SAT-63387,350.37505413573444,59.72645871801864,869.6478577103279,4.17439517021677,-146204.97653505372,10.5,10499853795.023464,47.655,-122.3035,60.0,10.383333333333333
2026-01-20T23:10:24+00:00,SAT-63387,350.5704094734607,59.34256715458938,873.8111211600908,4.210962944135931,-147485.73465923304,10.5,10499852514.26534,47.655,-122.3035,60.0,10.4
2026-01-20T23:10:25+00:00,SAT-63387,350.75897831330235,58.961734987731276,878.0108548697091,4.247003556645396,-148748.02936095433,10.5,10499851251.970638,47.655,-122.3035,60.0,10.416666666666666
2026-01-20T23:10:26+00:00,SAT-63387,350.9410710559395,58.583964852023406,882.2465330835367,4.282522585533997,-149992.05599797633,10.5,10499850007.944002,47.655,-122.3035,60.0,10.433333333333334
2026-01-20T23:10:27+00:00,SAT-63387,351.11697977995743,58.20925722763303,886.5176356088427,4.317525666476405,-151218.01195546504,10.5,10499848781.988045,47.655,-122.3035,60.0,10.45
2026-01-20T23:10:28+00:00,SAT-63387,351.286979549472,57.8376105889553,890.8236478735419,4.352018571522991,-152426.09939504016,10.5,10499847573.900604,47.655,-122.3035,60.0,10.466666666666667
2026-01-20T23:10:29+00:00,SAT-63387,351.4513296168661,57.46902153575582,895.1640610622075,4.386007045101108,-153616.5195108465,10.5,10499846383.48049,47.655,-122.3035,60.0,10.483333333333333
2026-01-20T23:10:30+00:00,SAT-63387,351.61027452079685,57.10348492868288,899.5383720885216,4.419496974797647,-154789.47851108146,10.5,10499845210.521488,47.655,-122.3035,60.0,10.5
2026-01-20T23:10:31+00:00,SAT-63387,351.76404510217367,56.74099400104538,903.9460837380531,4.452494200145924,-155945.18092090296,10.5,10499844054.819078,47.655,-122.3035,60.0,10.516666666666667
2026-01-20T23:10:32+00:00,SAT-63387,351.91285943198,56.38154047839118,908.386704620332,4.485004667786442,-157083.83501681566,10.5,10499842916.164984,47.655,-122.3035,60.0,10.533333333333333
2026-01-20T23:10:33+00:00,SAT-63387,352.05692367150215,56.02511467737901,912.859749275671,4.517034317524911,-158205.6488359409,10.5,10499841794.351164,47.655,-122.3035,60.0,10.55
2026-01-20T23:10:34+00:00,SAT-63387,352.1964328614755,55.67170560697374,917.3647381683492,4.548589126990153,-159310.8317401254,10.5,10499840689.16826,47.655,-122.3035,60.0,10.566666666666666
2026-01-20T23:10:35+00:00,SAT-63387,352.33157165188834,55.32130105936399,921.901197724334,4.579675096239113,-160399.5938767435,10.5,10499839600.406124,47.655,-122.3035,60.0,10.583333333333334
2026-01-20T23:10:36+00:00,SAT-63387,352.4625149756424,54.9738876960299,926.4686603536497,4.610298212224156,-161472.1449341919,10.5,10499838527.855066,47.655,-122.3035,60.0,10.6
2026-01-20T23:10:37+00:00,SAT-63387,352.5894286702911,54.629451130858655,931.066664437308,4.640464495572295,-162528.6957802958,10.5,10499837471.30422,47.655,-122.3035,60.0,10.616666666666667
2026-01-20T23:10:38+00:00,SAT-63387,352.7124700548687,54.28797600436038,935.6947543608921,4.670179951278334,-163569.4567353743,10.5,10499836430.543264,47.655,-122.3035,60.0,10.633333333333333
2026-01-20T23:10:39+00:00,SAT-63387,352.83178846266543,53.94944605675039,940.352480498967,4.699450572002714,-164594.63768774498,10.5,10499835405.362312,47.655,-122.3035,60.0,10.65
2026-01-20T23:10:40+00:00,SAT-63387,352.94752573532355,53.613844196102505,945.0393992027778,4.728282376276292,-165604.4494318168,10.5,10499834395.550568,47.655,-122.3035,60.0,10.666666666666666
2026-01-20T23:10:41+00:00,SAT-63387,353.0598166821863,53.28115255950853,949.7550728260507,4.756681337534823,-166599.10118257758,10.5,10499833400.898817,47.655,-122.3035,60.0,10.683333333333334
2026-01-20T23:10:42+00:00,SAT-63387,353.1687895050631,52.95135257536577,954.4990696800187,4.784653406269973,-167578.80135141598,10.5,10499832421.198648,47.655,-122.3035,60.0,10.7
2026-01-20T23:10:43+00:00,SAT-63387,353.2745661935569,52.624425020229104,959.2709640105387,4.8122045312557535,-168543.75828956114,10.5,10499831456.24171,47.655,-122.3035,60.0,10.716666666666667
2026-01-20T23:10:44+00:00,SAT-63387,353.3772628932695,52.300350070697554,964.0703359963777,4.839340626842161,-169494.17914256768,10.5,10499830505.820858,47.655,-122.3035,60.0,10.733333333333333
2026-01-20T23:10:45+00:00,SAT-63387,353.47699024774,51.97910735431937,968.8967717148817,4.86606758661791,-170430.27032884213,10.5,10499829569.729671,47.655,-122.3035,60.0,10.75
2026-01-20T23:10:46+00:00,SAT-63387,353.57385371730356,51.66067599645788,973.7498631212686,4.892391246205816,-171352.23623658027,10.5,10499828647.763763,47.655,-122.3035,60.0,10.766666666666667
2026-01-20T23:10:47+00:00,SAT-63387,353.6679538755321,51.34503466671755,978.6292079908178,4.918317430321412,-172260.28087195856,10.5,10499827739.719128,47.655,-122.3035,60.0,10.783333333333333
2026-01-20T23:10:48+00:00,SAT-63387,353.75938668682466,51.03216161951272,983.5344099079916,4.943851920743538,-173154.60673732872,10.5,10499826845.393263,47.655,-122.3035,60.0,10.8
2026-01-20T23:10:49+00:00,SAT-63387,353.8482437648489,50.72203473422218,988.4650782236132,4.9690004453571195,-174035.41444745002,10.5,10499825964.585552,47.655,-122.3035,60.0,10.816666666666666
2026-01-20T23:10:50+00:00,SAT-63387,353.9346126138465,50.41463155358678,993.4208280011161,4.993768704687581,-174902.90365883592,10.5,10499825097.096342,47.655,-122.3035,60.0,10.833333333333334
2026-01-20T23:10:51+00:00,SAT-63387,354.01857685470327,50.10992931815135,998.4012799892578,5.018162336414401,-175757.27182686902,10.5,10499824242.728172,47.655,-122.3035,60.0,10.85
2026-01-20T23:10:52+00:00,SAT-63387,354.10021643582587,49.80790500078483,1003.4060605594418,5.042186946664232,-176598.71530181868,10.5,10499823401.284698,47.655,-122.3035,60.0,10.866666666666667
2026-01-20T23:10:53+00:00,SAT-63387,354.17960783111283,49.50853533724587,1008.4348016742483,5.065848078759066,-177427.42823426932,10.5,10499822572.571766,47.655,-122.3035,60.0,10.883333333333333
2026-01-20T23:10:54+00:00,SAT-63387,354.25682422488853,49.21179685674929,1013.4871408247973,5.0891512193766335,-178243.6027908836,10.5,10499821756.39721,47.655,-122.3035,60.0,10.9
2026-01-20T23:10:55+00:00,SAT-63387,354.3319356853604,48.91766591032449,1018.5627209742556,5.112101831759123,-179047.4303175125,10.5,10499820952.569683,47.655,-122.3035,60.0,10.916666666666666
2026-01-20T23:10:56+00:00,SAT-63387,354.40500932788075,48.62611869556248,1023.6611905344633,5.134705280687749,-179839.09871148717,10.5,10499820160.901289,47.655,-122.3035,60.0,10.933333333333334
2026-01-20T23:10:57+00:00,SAT-63387,354.47610946697426,48.33713128411602,1028.782203267736,5.156966904943713,-180618.79495950823,10.5,10499819381.20504,47.655,-122.3035,60.0,10.95
2026-01-20T23:10:58+00:00,SAT-63387,354.5452977602872,48.050679643469685,1033.9254182609332,5.178891980924618,-181386.703863339,10.5,10499818613.296137,47.655,-122.3035,60.0,10.966666666666667
2026-01-20T23:10:59+00:00,SAT-63387,354.61263334325423,47.766739659410625,1039.0904998632418,5.200485713523201,-182143.0077203397,10.5,10499817856.99228,47.655,-122.3035,60.0,10.983333333333333
2026-01-20T23:11:00+00:00,SAT-63387,354.6781729556576,47.48528715761219,1044.2771176148624,5.2217532650538,-182887.88733659504,10.5,10499817112.112663,47.655,-122.3035,60.0,11.0
2026-01-20T23:11:01+00:00,SAT-63387,354.7419710610661,47.20629792235055,1049.4849462045427,5.242699720159523,-183621.5207978147,10.5,10499816378.479202,47.655,-122.3035,60.0,11.016666666666667
2026-01-20T23:11:02+00:00,SAT-63387,354.8040799588219,46.92974771592342,1054.7136653921152,5.263330118684926,-184344.08462067353,10.5,10499815655.915379,47.655,-122.3035,60.0,11.033333333333333
2026-01-20T23:11:03+00:00,SAT-63387,354.8645498899387,46.655612295158,1059.962959963817,5.283649422208842,-185055.75258064977,10.5,10499814944.24742,47.655,-122.3035,60.0,11.05
2026-01-20T23:11:04+00:00,SAT-63387,354.92342913650293,46.38386742860836,1065.2325196542333,5.303662551069474,-185756.69700880026,10.5,10499814243.302992,47.655,-122.3035,60.0,11.066666666666666
2026-01-20T23:11:05+00:00,SAT-63387,354.9807641158218,46.11448891080077,1070.5220391051664,5.323374322912992,-186447.08663947246,10.5,10499813552.91336,47.655,-122.3035,60.0,11.083333333333334
2026-01-20T23:11:06+00:00,SAT-63387,355.03659946856754,45.847452578665305,1075.8312177632183,5.342789558986301,-187127.09033312695,10.5,10499812872.909666,47.655,-122.3035,60.0,11.1
2026-01-20T23:11:07+00:00,SAT-63387,355.09097814315646,45.58273432165101,1081.1597598833807,5.361912941460573,-187796.8720792036,10.5,10499812203.12792,47.655,-122.3035,60.0,11.116666666666667
2026-01-20T23:11:08+00:00,SAT-63387,355.1439414738708,45.32031009818416,1086.5073743903308,5.380749132230788,-188456.5951569845,10.5,10499811543.404842,47.655,-122.3035,60.0,11.133333333333333
2026-01-20T23:11:09+00:00,SAT-63387,355.19552925596514,45.06015594531438,1091.873774858209,5.399302735537441,-189106.42082644766,10.5,10499810893.579174,47.655,-122.3035,60.0,11.15
2026-01-20T23:11:10+00:00,SAT-63387,355.2457798162734,44.802247989513134,1097.2586794531182,5.4175782634555025,-189746.5071195446,10.5,10499810253.49288,47.655,-122.3035,60.0,11.166666666666666
2026-01-20T23:11:11+00:00,SAT-63387,355.2947300796207,44.54656245839649,1102.6618108412047,5.43558019669541,-190377.0109697083,10.5,10499809622.98903,47.655,-122.3035,60.0,11.183333333333334
2026-01-20T23:11:12+00:00,SAT-63387,355.3424156323025,44.29307568882213,1108.0828961573754,5.453312896913822,-190998.08514060458,10.5,10499809001.91486,47.655,-122.3035,60.0,11.2
2026-01-20T23:11:13+00:00,SAT-63387,355.38887078130335,44.04176413848005,1113.5216668865642,5.470780740258388,-191609.8829034354,10.5,10499808390.117096,47.655,-122.3035,60.0,11.216666666666667
2026-01-20T23:11:14+00:00,SAT-63387,355.43412861169213,43.79260439061325,1118.9778588781817,5.487987970116547,-192212.55287957823,10.5,10499807787.44712,47.655,-122.3035,60.0,11.233333333333333
2026-01-20T23:11:15+00:00,SAT-63387,355.4782210395888,43.54557316502346,1124.4512122137114,5.504938808699485,-192806.24294872888,10.5,10499807193.757051,47.655,-122.3035,60.0,11.25
2026-01-20T23:11:16+00:00,SAT-63387,355.5211788634507,43.300647323346666,1129.9414711855877,5.521637386797913,-193391.09778865112,10.5,10499806608.902212,47.655,-122.3035,60.0,11.266666666666667
2026-01-20T23:11:17+00:00,SAT-63387,355.563031812041,43.05780387702674,1135.4483842060208,5.538087810569512,-193967.26121435608,10.5,10499806032.738785,47.655,-122.3035,60.0,11.283333333333333
2026-01-20T23:11:18+00:00,SAT-63387,355.60380859056045,42.81701999181104,1140.9717037824287,5.554294076490384,-194534.8731993419,10.5,10499805465.1268,47.655,-122.3035,60.0,11.3
2026-01-20T23:11:19+00:00,SAT-63387,355.64353692368894,42.57827299554508,1146.5111864080484,5.570260157444563,-195094.07289081273,10.5,10499804905.927109,47.655,-122.3035,60.0,11.316666666666666
2026-01-20T23:11:20+00:00,SAT-63387,355.6822435971969,42.34154038173401,1152.0665925384067,5.58598993577851,-195644.99626496393,10.5,10499804355.003735,47.655,-122.3035,60.0,11.333333333333334
2026-01-20T23:11:21+00:00,SAT-63387,355.7199544969231,42.10679981561697,1157.6376865010232,5.601487266738374,-196187.77834882334,10.5,10499803812.221651,47.655,-122.3035,60.0,11.35
2026-01-20T23:11:22+00:00,SAT-63387,355.7566946463297,41.874029137132204,1163.2242364683834,5.616755921008126,-196722.55120769358,10.5,10499803277.448792,47.655,-122.3035,60.0,11.366666666666667
2026-01-20T23:11:23+00:00,SAT-63387,355.79248824174397,41.64320636597048,1168.8260143736024,5.63179959554836,-197249.44432477278,10.5,10499802750.555676,47.655,-122.3035,60.0,11.383333333333333
2026-01-20T23:11:24+00:00,SAT-63387,355.8273586860133,41.41430970577039,1174.4427958368958,5.6466219648998095,-197768.58639802074,10.5,10499802231.413603,47.655,-122.3035,60.0,11.4
2026-01-20T23:11:25+00:00,SAT-63387,355.86132862084526,41.18731754590302,1180.0743601432225,5.6612266373349085,-198280.10380440103,10.5,10499801719.896196,47.655,-122.3035,60.0,11.416666666666666
2026-01-20T23:11:26+00:00,SAT-63387,355.89441995732363,40.9622084647779,1185.7204901761913,5.675617117802977,-198784.11930206482,10.5,10499801215.880697,47.655,-122.3035,60.0,11.433333333333334
2026-01-20T23:11:27+00:00,SAT-63387,355.92665390469193,40.738961234300994,1191.3809723150134,5.689796912147297,-199280.75568047352,10.5,10499800719.24432,47.655,-122.3035,60.0,11.45
2026-01-20T23:11:28+00:00,SAT-63387,355.95805099848394,40.51755481989929,1197.055596435395,5.703769440536222,-199770.13272839013,10.5,10499800229.867271,47.655,-122.3035,60.0,11.466666666666667
2026-01-20T23:11:29+00:00,SAT-63387,355.98863112676946,40.29796838376217,1202.7441558240896,5.717538085713309,-200252.3689238031,10.5,10499799747.631077,47.655,-122.3035,60.0,11.483333333333333
2026-01-20T23:11:30+00:00,SAT-63387,356.0184135554518,40.08018128593948,1208.4464471415745,5.731106121909573,-200727.57894413246,10.5,10499799272.421057,47.655,-122.3035,60.0,11.5
2026-01-20T23:11:31+00:00,SAT-63387,356.04741695200937,39.86417308793264,1214.1622703138257,5.744476845381256,-201195.87823821502,10.5,10499798804.121761,47.655,-122.3035,60.0,11.516666666666667
2026-01-20T23:11:32+00:00,SAT-63387,356.0756594088766,39.64992355109546,1219.8914285542858,5.757653440604715,-201657.3783398831,10.5,10499798342.62166,47.655,-122.3035,60.0,11.533333333333333
2026-01-20T23:11:33+00:00,SAT-63387,356.10315846501135,39.43741263994146,1225.6337282523823,5.770639076487752,-202112.19023769235,10.5,10499797887.809763,47.655,-122.3035,60.0,11.55
2026-01-20T23:11:34+00:00,SAT-63387,356.12993112700383,39.22662052163316,1231.3889789579996,5.783436816105723,-202560.4212134986,10.5,10499797439.578787,47.655,-122.3035,60.0,11.566666666666666
2026-01-20T23:11:35+00:00,SAT-63387,356.15599388876194,39.01752756863269,1237.1569932759287,5.796049732650354,-203002.17890347567,10.5,10499796997.821096,47.655,-122.3035,60.0,11.583333333333334
2026-01-20T23:11:36+00:00,SAT-63387,356.18136275092826,38.8101143569444,1242.937586875959,5.808480800507318,-203437.5674831914,10.5,10499796562.432516,47.655,-122.3035,60.0,11.6
2026-01-20T23:11:37+00:00,SAT-63387,356.20605323887156,38.60436166818251,1248.7305783943316,5.8207329855501095,-203866.69083008135,10.5,10499796133.30917,47.655,-122.3035,60.0,11.616666666666667
2026-01-20T23:11:38+00:00,SAT-63387,356.2300804203245,38.40025048824827,1254.5357894252534,5.8328091561629725,-204289.64940709487,10.5,10499795710.350594,47.655,-122.3035,60.0,11.633333333333333
2026-01-20T23:11:39+00:00,SAT-63387,356.25345892184333,38.19776200903645,1260.3530444236665,5.844712164074769,-204706.54309383954,10.5,10499795293.456905,47.655,-122.3035,60.0,11.65
2026-01-20T23:11:40+00:00,SAT-63387,356.27620294490805,37.99687762716073,1266.1821706886374,5.856444808628085,-205117.4699351339,10.5,10499794882.530066,47.655,-122.3035,60.0,11.666666666666666
2026-01-20T23:11:41+00:00,SAT-63387,356.29832628119124,37.797578943838275,1272.022998311109,5.868009820542876,-205522.52557234178,10.5,10499794477.474428,47.655,-122.3035,60.0,11.683333333333334
2026-01-20T23:11:42+00:00,SAT-63387,356.31984232706986,37.59984776521281,1277.8753601054639,5.879409938627418,-205921.80593011412,10.5,10499794078.19407,47.655,-122.3035,60.0,11.7
2026-01-20T23:11:43+00:00,SAT-63387,356.34076409787707,37.40366609998671,1283.7390916175882,5.890647739693157,-206315.40125928767,10.5,10499793684.598742,47.655,-122.3035,60.0,11.716666666666667
2026-01-20T23:11:44+00:00,SAT-63387,356.36110424080925,37.20901616267193,1289.6140309633088,5.901725905583283,-206703.40548935512,10.5,10499793296.594511,47.655,-122.3035,60.0,11.733333333333333
2026-01-20T23:11:45+00:00,SAT-63387,356.38087504843514,37.01588036782864,1295.500018933144,5.912646961532558,-207085.90706471962,10.5,10499792914.092936,47.655,-122.3035,60.0,11.75
2026-01-20T23:11:46+00:00,SAT-63387,356.40008847051985,36.82424133296867,1301.3968988361123,5.923413419476648,-207462.9939639936,10.5,10499792537.006037,47.655,-122.3035,60.0,11.766666666666667
2026-01-20T23:11:47+00:00,SAT-63387,356.4187561259922,36.63408187658952,1307.3045164864704,5.934027782247481,-207834.7538469382,10.5,10499792165.246153,47.655,-122.3035,60.0,11.783333333333333
2026-01-20T23:11:48+00:00,SAT-63387,356.43688931438305,36.44538501607442,1313.2227201946316,5.9444924294512225,-208201.27005742697,10.5,10499791798.729942,47.655,-122.3035,60.0,11.8
2026-01-20T23:11:49+00:00,SAT-63387,356.4544990264043,36.25813396917621,1319.151360644271,5.954809813736906,-208562.62849760387,10.5,10499791437.371502,47.655,-122.3035,60.0,11.816666666666666
2026-01-20T23:11:50+00:00,SAT-63387,356.4715959547893,36.07231214920636,1325.0902909651716,5.964982220405439,-208918.90920837346,10.5,10499791081.090792,47.655,-122.3035,60.0,11.833333333333334
2026-01-20T23:11:51+00:00,SAT-63387,356.4881905038542,35.887903167778724,1331.0393665663225,5.97501198433355,-209270.19396699523,10.5,10499790729.806032,47.655,-122.3035,60.0,11.85
2026-01-20T23:11:52+00:00,SAT-63387,356.5042927994261,35.704890830675495,1336.9984451853645,5.98490136998208,-209616.5620844666,10.5,10499790383.437916,47.655,-122.3035,60.0,11.866666666666667
2026-01-20T23:11:53+00:00,SAT-63387,356.5199126979659,35.52325913745888,1342.9673868183597,5.994652601811174,-209958.09147079117,10.5,10499790041.90853,47.655,-122.3035,60.0,11.883333333333333
2026-01-20T23:11:54+00:00,SAT-63387,356.5350597954287,35.34299228008302,1348.9460536798995,6.004267845380836,-210294.85797304072,10.5,10499789705.142027,47.655,-122.3035,60.0,11.9
2026-01-20T23:11:55+00:00,SAT-63387,356.54974343572627,35.16407464203613,1354.9343101443594,6.013749268065419,-210626.93750183305,10.5,10499789373.062498,47.655,-122.3035,60.0,11.916666666666666
2026-01-20T23:11:56+00:00,SAT-63387,356.5639727190308,34.986490795640385,1360.93202274771,6.023098984908906,-210954.40413495494,10.5,10499789045.595865,47.655,-122.3035,60.0,11.933333333333334
2026-01-20T23:11:57+00:00,SAT-63387,356.57775650961304,34.81022550096985,1366.939060135326,6.03231903744662,-211277.3293756093,10.5,10499788722.670624,47.655,-122.3035,60.0,11.95
2026-01-20T23:11:58+00:00,SAT-63387,356.5911034432836,34.63526370533523,1372.9552929886727,6.0414115030637126,-211595.78598261127,10.5,10499788404.214018,47.655,-122.3035,60.0,11.966666666666667
2026-01-20T23:11:59+00:00,SAT-63387,356.60402193490563,34.46159053956706,1378.9805940610615,6.0503783510152225,-211909.84292760238,10.5,10499788090.157072,47.655,-122.3035,60.0,11.983333333333333
2026-01-20T23:12:00+00:00,SAT-63387,356.61652018517293,34.28919131847987,1385.0148380698072,6.0592215724467415,-212219.56994892377,10.5,10499787780.430052,47.655,-122.3035,60.0,12.0
2026-01-20T23:12:01+00:00,SAT-63387,356.62860618751836,34.11805153755896,1391.057901718061,6.067943051293121,-212525.03302994292,10.5,10499787474.96697,47.655,-122.3035,60.0,12.016666666666667
2026-01-20T23:12:02+00:00,SAT-63387,356.6402877344034,33.94815687332249,1397.109663587884,6.076544741004275,-212826.30058873893,10.5,10499787173.699411,47.655,-122.3035,60.0,12.033333333333333
2026-01-20T23:12:03+00:00,SAT-63387,356.65157242384504,33.77949317868869,1403.1700042095788,6.085028468597746,-213123.4366151944,10.5,10499786876.563385,47.655,-122.3035,60.0,12.05
2026-01-20T23:12:04+00:00,SAT-63387,356.662467665171,33.61204648385576,1409.2388059355935,6.093396085578879,-213416.50595685845,10.5,10499786583.494043,47.655,-122.3035,60.0,12.066666666666666
2026-01-20T23:12:05+00:00,SAT-63387,356.6729806849809,33.445802992948515,1415.3159529649442,6.101649363518952,-213705.57066165085,10.5,10499786294.429338,47.655,-122.3035,60.0,12.083333333333334
2026-01-20T23:12:06+00:00,SAT-63387,356.6831185325915,33.28074908355757,1421.4013312634938,6.109790101063369,-213990.69372574202,10.5,10499786009.306274,47.655,-122.3035,60.0,12.1
2026-01-20T23:12:07+00:00,SAT-63387,356.69288808557496,33.11687130335823,1427.4948285909545,6.117820001843827,-214271.9348175203,10.5,10499785728.065182,47.655,-122.3035,60.0,12.116666666666667
2026-01-20T23:12:08+00:00,SAT-63387,356.7022960547761,32.954156370045496,1433.5963344061265,6.12574079725479,-214549.35457774356,10.5,10499785450.645422,47.655,-122.3035,60.0,12.133333333333333
2026-01-20T23:12:09+00:00,SAT-63387,356.711348989462,32.79259116796604,1439.7057398945888,6.133554151725912,-214823.01130177887,10.5,10499785176.988699,47.655,-122.3035,60.0,12.15
2026-01-20T23:12:10+00:00,SAT-63387,356.7200532820453,32.632162747298565,1445.82293790191,6.141261706163888,-215092.96246111978,10.5,10499784907.037539,47.655,-122.3035,60.0,12.166666666666666
2026-01-20T23:12:11+00:00,SAT-63387,356.72841517275367,32.472858322076156,1451.9478229101908,6.14886508719826,-215359.26502721335,10.5,10499784640.734972,47.655,-122.3035,60.0,12.183333333333334
2026-01-20T23:12:12+00:00,SAT-63387,356.7364407541439,32.31466526798706,1458.0802910238233,6.156365873137278,-215621.97427909085,10.5,10499784378.02572,47.655,-122.3035,60.0,12.2
2026-01-20T23:12:13+00:00,SAT-63387,356.74413597539467,32.15757112107064,1464.2202399212988,6.1637656294165,-215881.14504492722,10.5,10499784118.854956,47.655,-122.3035,60.0,12.216666666666667
2026-01-20T23:12:14+00:00,SAT-63387,356.7515066465,32.00156357550732,1470.3675688423702,6.171065899805563,-216136.83139406535,10.5,10499783863.168606,47.655,-122.3035,60.0,12.233333333333333
2026-01-20T23:12:15+00:00,SAT-63387,356.75855844232893,31.846630481661514,1476.522178566443,6.17826816976148,-216389.08535349325,10.5,10499783610.914646,47.655,-122.3035,60.0,12.25
2026-01-20T23:12:16+00:00,SAT-63387,356.76529690644185,31.692759845051917,1482.6839713544184,6.185373924493503,-216637.9589415214,10.5,10499783362.041058,47.655,-122.3035,60.0,12.266666666666667
2026-01-20T23:12:17+00:00,SAT-63387,356.7717274549177,31.53993982387449,1488.8528509484468,6.192384633515282,-216883.50362673387,10.5,10499783116.496374,47.655,-122.3035,60.0,12.283333333333333
2026-01-20T23:12:18+00:00,SAT-63387,356.7778553799865,31.38815872694672,1495.0287225562724,6.199301709926039,-217125.76890184276,10.5,10499782874.231098,47.655,-122.3035,60.0,12.3
2026-01-20T23:12:19+00:00,SAT-63387,356.78368585349136,31.237405012668628,1501.2114927949722,6.206126583429802,-217364.80484113086,10.5,10499782635.195158,47.655,-122.3035,60.0,12.316666666666666
2026-01-20T23:12:20+00:00,SAT-63387,356.789223930343,31.087667286210525,1507.4010697075125,6.212860575988269,-217600.65774528866,10.5,10499782399.342255,47.655,-122.3035,60.0,12.333333333333334
2026-01-20T23:12:21+00:00,SAT-63387,356.794474551674,30.93893429972859,1513.5973626552984,6.219505105056359,-217833.37725958324,10.5,10499782166.62274,47.655,-122.3035,60.0,12.35
2026-01-20T23:12:22+00:00,SAT-63387,356.7994425481744,30.791194947703723,1519.800282413408,6.226061466386366,-218063.008766741,10.5,10499781936.991234,47.655,-122.3035,60.0,12.366666666666667
2026-01-20T23:12:23+00:00,SAT-63387,356.80413264302337,30.644438267526848,1526.0097410492174,6.232530983388916,-218289.5986182001,10.5,10499781710.401382,47.655,-122.3035,60.0,12.383333333333333
2026-01-20T23:12:24+00:00,SAT-63387,356.80854945490603,30.498653436516662,1532.2256519499838,6.238914926362624,-218513.1913051914,10.5,10499781486.808695,47.655,-122.3035,60.0,12.4
2026-01-20T23:12:25+00:00,SAT-63387,356.81269750085517,30.35382977088308,1538.4479297698763,6.245214584870433,-218733.83199366392,10.5,10499781266.168007,47.655,-122.3035,60.0,12.416666666666666
2026-01-20T23:12:26+00:00,SAT-63387,356.8165811990549,30.20995672301707,1544.676490449187,6.251431179530948,-218951.5634348445,10.5,10499781048.436565,47.655,-122.3035,60.0,12.433333333333334
2026-01-20T23:12:27+00:00,SAT-63387,356.8202048714791,30.06702388085374,1550.9112511455724,6.257565929840626,-219166.42834065753,10.5,10499780833.57166,47.655,-122.3035,60.0,12.45
