satellites_20260121_005943/SAT-65672.csv

timestamp,satellite,azimuth_deg,elevation_deg,distance_km,relative_velocity_kms,doppler_shift_hz,tx_freq_ghz,rx_freq_hz,ue_lat,ue_lon,ue_alt_m,time_minutes
2026-01-20T23:00:00+00:00,SAT-65672,275.9157106518402,31.375678249752525,4126.4079426581675,1.7162794363521923,-60111.36571587141,10.5,10499939888.634285,47.655,-122.3035,60.0,0.0
2026-01-20T23:00:01+00:00,SAT-65672,275.79384456575104,31.350563499500492,4128.119645349357,1.7271425812415375,-60491.8390009536,10.5,10499939508.161,47.655,-122.3035,60.0,0.016666666666666666
2026-01-20T23:00:02+00:00,SAT-65672,275.6721616877967,31.325251608023684,4129.842182217048,1.7379899299672705,-60871.75903756838,10.5,10499939128.240963,47.655,-122.3035,60.0,0.03333333333333333
2026-01-20T23:00:03+00:00,SAT-65672,275.55066296192376,31.29974332899605,4131.575537507201,1.7488214101888813,-61251.12329204511,10.5,10499938748.876707,47.655,-122.3035,60.0,0.05
2026-01-20T23:00:04+00:00,SAT-65672,275.4293493217871,31.27403941883056,4133.31969539363,1.7596369412285147,-61629.928938704,10.5,10499938370.071062,47.655,-122.3035,60.0,0.06666666666666667
2026-01-20T23:00:05+00:00,SAT-65672,275.30822169133694,31.248140636750968,4135.074639969682,1.7704364560194565,-62008.17362858506,10.5,10499937991.826372,47.655,-122.3035,60.0,0.08333333333333333
2026-01-20T23:00:06+00:00,SAT-65672,275.1872809839378,31.222047744541218,4136.840355261818,1.7812198822242467,-62385.85482812443,10.5,10499937614.145172,47.655,-122.3035,60.0,0.1
2026-01-20T23:00:07+00:00,SAT-65672,275.0665281027634,31.19576150657272,4138.616825224357,1.7919871438970645,-62762.96987737822,10.5,10499937237.030123,47.655,-122.3035,60.0,0.11666666666666667
2026-01-20T23:00:08+00:00,SAT-65672,274.9459639410675,31.169282689809577,4140.40403373587,1.8027381725283593,-63139.516376852196,10.5,10499936860.483624,47.655,-122.3035,60.0,0.13333333333333333
2026-01-20T23:00:09+00:00,SAT-65672,274.8255893817351,31.14261206364793,4142.2019646066055,1.8134729039421726,-63515.492078832795,10.5,10499936484.507921,47.655,-122.3035,60.0,0.15
2026-01-20T23:00:10+00:00,SAT-65672,274.7054052970282,31.115750399800792,4144.010601582804,1.8241912560472897,-63890.89410813845,10.5,10499936109.105892,47.655,-122.3035,60.0,0.16666666666666666
2026-01-20T23:00:11+00:00,SAT-65672,274.58541254981924,31.088698472518384,4145.829928328835,1.83489316690341,-64265.720295357816,10.5,10499935734.279705,47.655,-122.3035,60.0,0.18333333333333332
2026-01-20T23:00:12+00:00,SAT-65672,274.4656119922954,31.061457058237018,4147.659928447293,1.8455785661749498,-64639.96817704124,10.5,10499935360.031822,47.655,-122.3035,60.0,0.2
2026-01-20T23:00:13+00:00,SAT-65672,274.3460044665542,31.034026935655348,4149.500585470625,1.8562473856928674,-65013.63536562054,10.5,10499934986.364634,47.655,-122.3035,60.0,0.21666666666666667
2026-01-20T23:00:14+00:00,SAT-65672,274.22659080451047,31.006408885654597,4151.35188286329,1.8668995577282388,-65386.719488942275,10.5,10499934613.280512,47.655,-122.3035,60.0,0.23333333333333334
2026-01-20T23:00:15+00:00,SAT-65672,274.1073718279101,30.97860369124223,4153.213804022197,1.8775350183149997,-65759.21830664431,10.5,10499934240.781693,47.655,-122.3035,60.0,0.25
2026-01-20T23:00:16+00:00,SAT-65672,273.9883483481329,30.950612137447727,4155.0863322804635,1.888153691767537,-66131.12916789635,10.5,10499933868.870832,47.655,-122.3035,60.0,0.26666666666666666
2026-01-20T23:00:17+00:00,SAT-65672,273.8695211669814,30.92243501145132,4156.969450895719,1.8987555213451466,-66502.45008539887,10.5,10499933497.549915,47.655,-122.3035,60.0,0.2833333333333333
2026-01-20T23:00:18+00:00,SAT-65672,273.7508910755291,30.894073102250427,4158.8631430690075,1.909340443218983,-66873.17882359576,10.5,10499933126.821177,47.655,-122.3035,60.0,0.3
2026-01-20T23:00:19+00:00,SAT-65672,273.6324588546311,30.865527200717967,4160.767391937711,1.9199083788873887,-67243.31263302689,10.5,10499932756.687366,47.655,-122.3035,60.0,0.31666666666666665
2026-01-20T23:00:20+00:00,SAT-65672,273.51422527585555,30.836798099779312,4162.682180560922,1.9304592809629348,-67612.84985398404,10.5,10499932387.150146,47.655,-122.3035,60.0,0.3333333333333333
2026-01-20T23:00:21+00:00,SAT-65672,273.3961910996309,30.807886593890892,4164.607491950469,1.9409930721743642,-67981.78778010095,10.5,10499932018.21222,47.655,-122.3035,60.0,0.35
2026-01-20T23:00:22+00:00,SAT-65672,273.27835707712813,30.778793479450297,4166.543309041117,1.9515097016905518,-68350.12463105658,10.5,10499931649.875368,47.655,-122.3035,60.0,0.36666666666666664
2026-01-20T23:00:23+00:00,SAT-65672,273.16072394868746,30.74951955434357,4168.489614716937,1.9620090962973564,-68717.85784258203,10.5,10499931282.142157,47.655,-122.3035,60.0,0.38333333333333336
2026-01-20T23:00:24+00:00,SAT-65672,273.0432924452359,30.720065618242973,4170.446391788977,1.972491200336076,-69084.9854652741,10.5,10499930915.014534,47.655,-122.3035,60.0,0.4
2026-01-20T23:00:25+00:00,SAT-65672,272.92606328728147,30.69043247229138,4172.413623012779,1.9829559542367456,-69451.50541274066,10.5,10499930548.494587,47.655,-122.3035,60.0,0.4166666666666667
2026-01-20T23:00:26+00:00,SAT-65672,272.8090371851973,30.66062091911714,4174.391291084471,1.993403290881829,-69817.41533424168,10.5,10499930182.584665,47.655,-122.3035,60.0,0.43333333333333335
2026-01-20T23:00:27+00:00,SAT-65672,272.69221483972814,30.630631762902805,4176.379378633244,2.003833148566841,-70182.71306862506,10.5,10499929817.286932,47.655,-122.3035,60.0,0.45
2026-01-20T23:00:28+00:00,SAT-65672,272.5755969417048,30.60046580925782,4178.3778682267475,2.014245482195916,-70547.39703644285,10.5,10499929452.602964,47.655,-122.3035,60.0,0.4666666666666667
2026-01-20T23:00:29+00:00,SAT-65672,272.4591841711596,30.57012386491897,4180.386742387658,2.0246402183958416,-70911.46466785477,10.5,10499929088.535332,47.655,-122.3035,60.0,0.48333333333333334
2026-01-20T23:00:30+00:00,SAT-65672,272.3429771990044,30.539606738138033,4182.405983565472,2.0350173035153816,-71274.9140837676,10.5,10499928725.085917,47.655,-122.3035,60.0,0.5
2026-01-20T23:00:31+00:00,SAT-65672,272.2269766859454,30.50891523833509,4184.435574156178,2.0453766799498574,-71637.74326662182,10.5,10499928362.256733,47.655,-122.3035,60.0,0.5166666666666667
2026-01-20T23:00:32+00:00,SAT-65672,272.11118328278275,30.478050176116543,4186.475496498314,2.0557182870711928,-71999.95009296572,10.5,10499928000.049908,47.655,-122.3035,60.0,0.5333333333333333
2026-01-20T23:00:33+00:00,SAT-65672,271.9955976306157,30.447012363275068,4188.525732869953,2.0660420798368855,-72361.53298522039,10.5,10499927638.467014,47.655,-122.3035,60.0,0.55
2026-01-20T23:00:34+00:00,SAT-65672,271.88022036005225,30.415802612508042,4190.586265504244,2.0763479891290477,-72722.48952258499,10.5,10499927277.510477,47.655,-122.3035,60.0,0.5666666666666667
2026-01-20T23:00:35+00:00,SAT-65672,271.7650520925953,30.3844217377442,4192.657076565401,2.0866359608146494,-73082.81780909185,10.5,10499926917.182192,47.655,-122.3035,60.0,0.5833333333333334
2026-01-20T23:00:36+00:00,SAT-65672,271.650093439862,30.352870553867863,4194.738148163654,2.0969059502953744,-73442.51628271927,10.5,10499926557.483717,47.655,-122.3035,60.0,0.6
2026-01-20T23:00:37+00:00,SAT-65672,271.53534500313737,30.32114987653295,4196.829462364749,2.1071578947928673,-73801.5827447037,10.5,10499926198.417255,47.655,-122.3035,60.0,0.6166666666666667
2026-01-20T23:00:38+00:00,SAT-65672,271.4208073744199,30.289260522397207,4198.931001171823,2.117391735537611,-74160.01513668803,10.5,10499925839.984863,47.655,-122.3035,60.0,0.6333333333333333
2026-01-20T23:00:39+00:00,SAT-65672,271.30648113625966,30.257203309020223,4201.042746529399,2.127607434543225,-74517.81212822862,10.5,10499925482.187872,47.655,-122.3035,60.0,0.65
2026-01-20T23:00:40+00:00,SAT-65672,271.1923668607051,30.22497905450004,4203.164680344116,2.137804925828556,-74874.97140838625,10.5,10499925125.028591,47.655,-122.3035,60.0,0.6666666666666666
2026-01-20T23:00:41+00:00,SAT-65672,271.0784651108644,30.19258857786464,4205.296784456809,2.147984167335875,-75231.49150412146,10.5,10499924768.508495,47.655,-122.3035,60.0,0.6833333333333333
2026-01-20T23:00:42+00:00,SAT-65672,270.96477643968836,30.16003269865812,4207.439040666365,2.158145097636152,-75587.3702639297,10.5,10499924412.629736,47.655,-122.3035,60.0,0.7
2026-01-20T23:00:43+00:00,SAT-65672,270.8513013910647,30.127312237203324,4209.591430710408,2.1682876691407023,-75942.60602105399,10.5,10499924057.393978,47.655,-122.3035,60.0,0.7166666666666667
2026-01-20T23:00:44+00:00,SAT-65672,270.73804049914816,30.09442801434448,4211.753936279098,2.178411842150957,-76297.19738508247,10.5,10499923702.802614,47.655,-122.3035,60.0,0.7333333333333333
2026-01-20T23:00:45+00:00,SAT-65672,270.62499428802,30.061380851286554,4213.926539023003,2.18851755467935,-76651.14218494843,10.5,10499923348.857815,47.655,-122.3035,60.0,0.75
2026-01-20T23:00:46+00:00,SAT-65672,270.5121632729026,30.02817156989758,4216.10922053087,2.1986047558815436,-77004.438639868,10.5,10499922995.56136,47.655,-122.3035,60.0,0.7666666666666667
