satellites_20260121_005943/SAT-61546.csv

timestamp,satellite,azimuth_deg,elevation_deg,distance_km,relative_velocity_kms,doppler_shift_hz,tx_freq_ghz,rx_freq_hz,ue_lat,ue_lon,ue_alt_m,time_minutes
2026-01-20T23:01:34+00:00,SAT-61546,214.26503305296404,30.00357871625547,1577.5884365067152,-6.339290578053335,222028.77121598573,10.5,10500222028.771215,47.655,-122.3035,60.0,1.5666666666666667
2026-01-20T23:01:35+00:00,SAT-61546,214.25786912993172,30.13857894132579,1571.2660507035366,-6.333967133914977,221842.32168411408,10.5,10500221842.321684,47.655,-122.3035,60.0,1.5833333333333333
2026-01-20T23:01:36+00:00,SAT-61546,214.25084269896414,30.274455807824328,1564.9489741486454,-6.328571614925499,221653.34778607986,10.5,10500221653.347786,47.655,-122.3035,60.0,1.6
2026-01-20T23:01:37+00:00,SAT-61546,214.2439560121372,30.411219197939083,1558.637278724693,-6.323102923683156,221461.811086232,10.5,10500221461.811087,47.655,-122.3035,60.0,1.6166666666666667
2026-01-20T23:01:38+00:00,SAT-61546,214.23721137088592,30.54887912803654,1552.3310374088064,-6.317560018311252,221267.67509364145,10.5,10500221267.675093,47.655,-122.3035,60.0,1.6333333333333333
2026-01-20T23:01:39+00:00,SAT-61546,214.23061112731398,30.687445752258448,1546.0303242172106,-6.311941687177012,221070.8973718032,10.5,10500221070.897371,47.655,-122.3035,60.0,1.65
2026-01-20T23:01:40+00:00,SAT-61546,214.22415768565781,30.826929361231368,1539.7352143745327,-6.306246858557261,220871.44038443835,10.5,10500220871.440384,47.655,-122.3035,60.0,1.6666666666666667
2026-01-20T23:01:41+00:00,SAT-61546,214.2178535036645,30.967340387579238,1533.4457841742649,-6.300474360394044,220669.26308111948,10.5,10500220669.26308,47.655,-122.3035,60.0,1.6833333333333333
2026-01-20T23:01:42+00:00,SAT-61546,214.2117010941229,31.108689406220343,1527.1621110788321,-6.2946229827418785,220464.3230844377,10.5,10500220464.323084,47.655,-122.3035,60.0,1.7
2026-01-20T23:01:43+00:00,SAT-61546,214.2057030263958,31.25098713603437,1520.8842737573775,-6.288691548337114,220256.5791616402,10.5,10500220256.57916,47.655,-122.3035,60.0,1.7166666666666666
2026-01-20T23:01:44+00:00,SAT-61546,214.1998619280165,31.394244443159952,1514.6123520531692,-6.282678809326916,220045.98760764228,10.5,10500220045.987608,47.655,-122.3035,60.0,1.7333333333333334
2026-01-20T23:01:45+00:00,SAT-61546,214.19418048633173,31.5384723420009,1508.3464270540005,-6.276583544373293,219832.50564602122,10.5,10500219832.505646,47.655,-122.3035,60.0,1.75
2026-01-20T23:01:46+00:00,SAT-61546,214.1886614502154,31.68368199847218,1502.0865810657456,-6.270404433273244,219616.08703768346,10.5,10500219616.087038,47.655,-122.3035,60.0,1.7666666666666666
2026-01-20T23:01:47+00:00,SAT-61546,214.1833076318272,31.829884730395865,1495.832897710961,-6.264140251232374,219396.68888514844,10.5,10500219396.688885,47.655,-122.3035,60.0,1.7833333333333334
2026-01-20T23:01:48+00:00,SAT-61546,214.1781219084353,31.97709201243221,1489.5854618337319,-6.257789615612375,219174.262762574,10.5,10500219174.262762,47.655,-122.3035,60.0,1.8
2026-01-20T23:01:49+00:00,SAT-61546,214.17310722431196,32.125315475154196,1483.3443596570946,-6.251351237224613,218948.76351712103,10.5,10500218948.763517,47.655,-122.3035,60.0,1.8166666666666667
2026-01-20T23:01:50+00:00,SAT-61546,214.16826659268403,32.274566910027936,1477.1096786898358,-6.244823689834672,218720.1411960272,10.5,10500218720.141195,47.655,-122.3035,60.0,1.8333333333333333
2026-01-20T23:01:51+00:00,SAT-61546,214.1636030977521,32.424858268991684,1470.881507863174,-6.238205640434192,218488.3491117012,10.5,10500218488.349112,47.655,-122.3035,60.0,1.85
2026-01-20T23:01:52+00:00,SAT-61546,214.15911989679552,32.57620166955066,1464.659937437781,-6.231495627606736,218253.33607915757,10.5,10500218253.336079,47.655,-122.3035,60.0,1.8666666666666667
2026-01-20T23:01:53+00:00,SAT-61546,214.15482022232752,32.72860939459588,1458.445059131848,-6.224692234126595,218015.05246115712,10.5,10500218015.052462,47.655,-122.3035,60.0,1.8833333333333333
2026-01-20T23:01:54+00:00,SAT-61546,214.15070738435998,32.882093896413906,1452.2369660770123,-6.217793962280525,217773.4458014468,10.5,10500217773.4458,47.655,-122.3035,60.0,1.9
2026-01-20T23:01:55+00:00,SAT-61546,214.14678477271008,33.03666779769784,1446.0357528986312,-6.210799351318116,217528.46493836815,10.5,10500217528.46494,47.655,-122.3035,60.0,1.9166666666666667
2026-01-20T23:01:56+00:00,SAT-61546,214.14305585943646,33.19234389548487,1439.8415156789165,-6.2037068380300635,217280.0551217191,10.5,10500217280.055122,47.655,-122.3035,60.0,1.9333333333333333
2026-01-20T23:01:57+00:00,SAT-61546,214.13952420131838,33.34913516166498,1433.6543520591213,-6.196514895201992,217028.16286199205,10.5,10500217028.162863,47.655,-122.3035,60.0,1.95
2026-01-20T23:01:58+00:00,SAT-61546,214.13619344246166,33.50705474697371,1427.4743612036398,-6.189221928895855,216772.73233273425,10.5,10500216772.732332,47.655,-122.3035,60.0,1.9666666666666666
2026-01-20T23:01:59+00:00,SAT-61546,214.133067316979,33.66611598244672,1421.3016438665543,-6.181826300614423,216513.7061468419,10.5,10500216513.706146,47.655,-122.3035,60.0,1.9833333333333334
2026-01-20T23:02:00+00:00,SAT-61546,214.1301496517776,33.82633238143243,1415.1363024360749,-6.174326431068576,216251.02899092963,10.5,10500216251.028992,47.655,-122.3035,60.0,2.0
2026-01-20T23:02:01+00:00,SAT-61546,214.12744436946008,33.98771764434408,1408.9784408754892,-6.166720595031604,215984.64044026032,10.5,10500215984.64044,47.655,-122.3035,60.0,2.0166666666666666
2026-01-20T23:02:02+00:00,SAT-61546,214.1249554913156,34.150285658122,1402.828164868711,-6.159007098680456,215714.4811699859,10.5,10500215714.48117,47.655,-122.3035,60.0,2.033333333333333
2026-01-20T23:02:03+00:00,SAT-61546,214.12268714042688,34.31405050031276,1396.6855817889605,-6.151184216940377,215440.49076069138,10.5,10500215440.49076,47.655,-122.3035,60.0,2.05
2026-01-20T23:02:04+00:00,SAT-61546,214.1206435449262,34.479026441571214,1390.5508007299318,-6.1432501815488605,215162.60728034403,10.5,10500215162.60728,47.655,-122.3035,60.0,2.066666666666667
2026-01-20T23:02:05+00:00,SAT-61546,214.11882904132813,34.64522794786716,1384.423932548867,-6.135203175712475,214880.7670971529,10.5,10500214880.767097,47.655,-122.3035,60.0,2.0833333333333335
2026-01-20T23:02:06+00:00,SAT-61546,214.11724807802565,34.81266968255789,1378.3050899149566,-6.127041380068487,214594.9064893391,10.5,10500214594.906488,47.655,-122.3035,60.0,2.1
2026-01-20T23:02:07+00:00,SAT-61546,214.1159052189104,34.981366509735636,1372.1943873119017,-6.118762920581911,214304.9598202703,10.5,10500214304.95982,47.655,-122.3035,60.0,2.1166666666666667
2026-01-20T23:02:08+00:00,SAT-61546,214.1148051471392,35.15133349619038,1366.0919410924412,-6.110365903269375,214010.86075463725,10.5,10500214010.860754,47.655,-122.3035,60.0,2.1333333333333333
2026-01-20T23:02:09+00:00,SAT-61546,214.11395266903696,35.32258591434534,1359.9978694982474,-6.1018483524293226,213712.54009501426,10.5,10500213712.540094,47.655,-122.3035,60.0,2.15
2026-01-20T23:02:10+00:00,SAT-61546,214.11335271815136,35.495139243478754,1353.9122927414244,-6.093208343640084,213409.93044001423,10.5,10500213409.93044,47.655,-122.3035,60.0,2.1666666666666665
2026-01-20T23:02:11+00:00,SAT-61546,214.11301035951615,35.66900917471521,1347.8353329533675,-6.084443827955217,213102.96002686556,10.5,10500213102.960028,47.655,-122.3035,60.0,2.183333333333333
2026-01-20T23:02:12+00:00,SAT-61546,214.11293079401085,35.84421161107835,1341.7671143089533,-6.075552754457913,212791.5570237864,10.5,10500212791.557024,47.655,-122.3035,60.0,2.2
2026-01-20T23:02:13+00:00,SAT-61546,214.11311936293563,36.02076267100497,1335.7077630285073,-6.06653306533609,212475.649357493,10.5,10500212475.649357,47.655,-122.3035,60.0,2.216666666666667
2026-01-20T23:02:14+00:00,SAT-61546,214.11358155281772,36.198678691790974,1329.6574073846787,-6.057382590847854,212155.16103444627,10.5,10500212155.161034,47.655,-122.3035,60.0,2.2333333333333334
2026-01-20T23:02:15+00:00,SAT-61546,214.11432300029156,36.377976229965704,1323.6161778140731,-6.048099209499917,211830.01775097733,10.5,10500211830.017752,47.655,-122.3035,60.0,2.25
2026-01-20T23:02:16+00:00,SAT-61546,214.1153494973402,36.5586720663838,1317.5842068691318,-6.038680661032375,211500.1403432235,10.5,10500211500.140343,47.655,-122.3035,60.0,2.2666666666666666
2026-01-20T23:02:17+00:00,SAT-61546,214.11666699657488,36.74078320578649,1311.5616293565288,-6.029124736920069,211165.45145929162,10.5,10500211165.45146,47.655,-122.3035,60.0,2.283333333333333
2026-01-20T23:02:18+00:00,SAT-61546,214.11828161692785,36.92432688205017,1305.548582285574,-6.019429108476641,210825.8695387351,10.5,10500210825.86954,47.655,-122.3035,60.0,2.3
2026-01-20T23:02:19+00:00,SAT-61546,214.12019964938787,37.10932055827177,1299.5452049880532,-6.009591497502287,210481.3147893601,10.5,10500210481.314789,47.655,-122.3035,60.0,2.316666666666667
2026-01-20T23:02:20+00:00,SAT-61546,214.12242756320674,37.29578193205848,1293.5516390678779,-5.99960945852937,210131.70156054557,10.5,10500210131.701561,47.655,-122.3035,60.0,2.3333333333333335
2026-01-20T23:02:21+00:00,SAT-61546,214.1249720120716,37.483728934104136,1287.5680285679043,-5.989480614381779,209776.94659352864,10.5,10500209776.946594,47.655,-122.3035,60.0,2.35
2026-01-20T23:02:22+00:00,SAT-61546,214.12783984086832,37.673179734047665,1281.5945199018277,-5.979202470951685,209416.96253410314,10.5,10500209416.962534,47.655,-122.3035,60.0,2.3666666666666667
2026-01-20T23:02:23+00:00,SAT-61546,214.13103809247497,37.86415274056548,1275.6312619707985,-5.968772534441278,209051.662038921,10.5,10500209051.662039,47.655,-122.3035,60.0,2.3833333333333333
2026-01-20T23:02:24+00:00,SAT-61546,214.1345740150288,38.056666605131646,1269.6784061631158,-5.958188222526963,208680.9546640867,10.5,10500208680.954664,47.655,-122.3035,60.0,2.4
2026-01-20T23:02:25+00:00,SAT-61546,214.13845506937463,38.25074022292811,1263.7361064425154,-5.94744694156658,208304.74956928066,10.5,10500208304.749569,47.655,-122.3035,60.0,2.4166666666666665
2026-01-20T23:02:26+00:00,SAT-61546,214.1426889369711,38.44639273622038,1257.8045193594598,-5.936546028376735,207922.9534785552,10.5,10500207922.953478,47.655,-122.3035,60.0,2.433333333333333
2026-01-20T23:02:27+00:00,SAT-61546,214.1472835280378,38.64364353582204,1251.883804120492,-5.925482781029897,207535.47175897908,10.5,10500207535.47176,47.655,-122.3035,60.0,2.45
2026-01-20T23:02:28+00:00,SAT-61546,214.15224699015576,38.84251226353527,1245.9741226268784,-5.914254431473051,207142.20746162676,10.5,10500207142.207462,47.655,-122.3035,60.0,2.466666666666667
2026-01-20T23:02:29+00:00,SAT-61546,214.15758771716528,39.04301881363663,1240.0756395405556,-5.902858171890821,206743.06224492684,10.5,10500206743.062244,47.655,-122.3035,60.0,2.4833333333333334
2026-01-20T23:02:30+00:00,SAT-61546,214.16331435856446,39.245183335206086,1234.18852232379,-5.891291155768428,206337.936411891,10.5,10500206337.936413,47.655,-122.3035,60.0,2.5
2026-01-20T23:02:31+00:00,SAT-61546,214.16943582929446,39.44902623446001,1228.3129412777703,-5.879550454971757,205926.72740687642,10.5,10500205926.727407,47.655,-122.3035,60.0,2.5166666666666666
2026-01-20T23:02:32+00:00,SAT-61546,214.17596131994762,39.65456817555686,1222.4490696240118,-5.867633097073561,205509.3311229077,10.5,10500205509.331123,47.655,-122.3035,60.0,2.533333333333333
2026-01-20T23:02:33+00:00,SAT-61546,214.1829003074791,39.861830082604136,1216.5970835485305,-5.855536085333871,205085.6426014748,10.5,10500205085.642601,47.655,-122.3035,60.0,2.55
2026-01-20T23:02:34+00:00,SAT-61546,214.1902625664987,40.07083314234321,1210.7571622260907,-5.843256326840251,204655.5535157013,10.5,10500204655.553516,47.655,-122.3035,60.0,2.566666666666667
2026-01-20T23:02:35+00:00,SAT-61546,214.19805818092829,40.28159880420821,1204.9294879161223,-5.83079068357577,204218.95395896042,10.5,10500204218.953959,47.655,-122.3035,60.0,2.5833333333333335
2026-01-20T23:02:36+00:00,SAT-61546,214.20629755634508,40.494148782097746,1199.1142460077026,-5.818135968412688,203775.73230455723,10.5,10500203775.732304,47.655,-122.3035,60.0,2.6
2026-01-20T23:02:37+00:00,SAT-61546,214.21499143287548,40.70850505592083,1193.311625068539,-5.805288927979618,203325.774605664,10.5,10500203325.774605,47.655,-122.3035,60.0,2.6166666666666667
2026-01-20T23:02:38+00:00,SAT-61546,214.22415089873,40.92468987243445,1187.5218169110337,-5.792246262959309,202868.96530623446,10.5,10500202868.965305,47.655,-122.3035,60.0,2.6333333333333333
2026-01-20T23:02:39+00:00,SAT-61546,214.23378740439256,41.14272574671014,1181.7450166381093,-5.779004605783139,202405.18645977063,10.5,10500202405.18646,47.655,-122.3035,60.0,2.65
2026-01-20T23:02:40+00:00,SAT-61546,214.24391277751388,41.36263546267192,1175.9814227112747,-5.765560511628756,201934.31741402225,10.5,10500201934.317413,47.655,-122.3035,60.0,2.6666666666666665
2026-01-20T23:02:41+00:00,SAT-61546,214.25453923846257,41.584442073122545,1170.231237027677,-5.751910505326738,201456.23645385623,10.5,10500201456.236454,47.655,-122.3035,60.0,2.683333333333333
2026-01-20T23:02:42+00:00,SAT-61546,214.26567941683382,41.80816890144537,1164.4946649503645,-5.738051037614309,200970.8192690766,10.5,10500200970.81927,47.655,-122.3035,60.0,2.7
2026-01-20T23:02:43+00:00,SAT-61546,214.2773463686451,42.03383954148394,1158.7719153821838,-5.723978457208135,200477.93797629632,10.5,10500200477.937977,47.655,-122.3035,60.0,2.716666666666667
2026-01-20T23:02:44+00:00,SAT-61546,214.28955359431873,42.26147785611748,1153.0632008675284,-5.709689132092014,199977.46536694444,10.5,10500199977.465366,47.655,-122.3035,60.0,2.7333333333333334
2026-01-20T23:02:45+00:00,SAT-61546,214.3023150579991,42.491107980482624,1147.368737573122,-5.695179281366756,199469.2690179382,10.5,10500199469.269018,47.655,-122.3035,60.0,2.75
2026-01-20T23:02:46+00:00,SAT-61546,214.3156452072917,42.722754318318,1141.6887454365053,-5.680445092845131,198953.21541035527,10.5,10500198953.21541,47.655,-122.3035,60.0,2.7666666666666666
2026-01-20T23:02:47+00:00,SAT-61546,214.32955899445903,42.95644154276971,1136.0234481972411,-5.66548271598266,198429.16968184014,10.5,10500198429.169682,47.655,-122.3035,60.0,2.783333333333333
2026-01-20T23:02:48+00:00,SAT-61546,214.34407189868736,43.19219459676828,1130.3730734351677,-5.650288175345569,197896.99259588603,10.5,10500197896.992596,47.655,-122.3035,60.0,2.8
2026-01-20T23:02:49+00:00,SAT-61546,214.35919994925578,43.430038689581735,1124.7378526949565,-5.634857469413165,197356.5440023119,10.5,10500197356.544003,47.655,-122.3035,60.0,2.816666666666667
2026-01-20T23:02:50+00:00,SAT-61546,214.37495975028216,43.66999929719057,1119.1180215121285,-5.619186490130966,196807.68001967264,10.5,10500196807.68002,47.655,-122.3035,60.0,2.8333333333333335
2026-01-20T23:02:51+00:00,SAT-61546,214.39136850653443,43.91210215902538,1113.5138195193044,-5.603271120931174,196250.25646835094,10.5,10500196250.256468,47.655,-122.3035,60.0,2.85
2026-01-20T23:02:52+00:00,SAT-61546,214.40844405100677,44.15637327861376,1107.9254904546958,-5.587107113015715,195684.12453746586,10.5,10500195684.124537,47.655,-122.3035,60.0,2.8666666666666667
2026-01-20T23:02:53+00:00,SAT-61546,214.42620487356302,44.40283891859594,1102.3532822939815,-5.570690179041481,195109.13406612637,10.5,10500195109.134066,47.655,-122.3035,60.0,2.8833333333333333
2026-01-20T23:02:54+00:00,SAT-61546,214.44467015150408,44.65152559944436,1096.7974472887506,-5.554015945936441,194525.13189085174,10.5,10500194525.131891,47.655,-122.3035,60.0,2.9
2026-01-20T23:02:55+00:00,SAT-61546,214.4638597817083,44.90246009578279,1091.2582420520034,-5.537079953459212,193931.96179512207,10.5,10500193931.961796,47.655,-122.3035,60.0,2.9166666666666665
2026-01-20T23:02:56+00:00,SAT-61546,214.48379441452846,45.15566943221526,1085.7359276450868,-5.519877725026227,193329.46699004475,10.5,10500193329.46699,47.655,-122.3035,60.0,2.933333333333333
2026-01-20T23:02:57+00:00,SAT-61546,214.5044954900044,45.41118088202818,1080.230769593994,-5.502404662557247,192717.48643140012,10.5,10500192717.486431,47.655,-122.3035,60.0,2.95
2026-01-20T23:02:58+00:00,SAT-61546,214.5259852756453,45.66902196067174,1074.743038010537,-5.484656057141754,192095.85519322308,10.5,10500192095.855194,47.655,-122.3035,60.0,2.966666666666667
2026-01-20T23:02:59+00:00,SAT-61546,214.5482869064565,45.9292204191433,1069.2730077028807,-5.466627245725775,191464.4099556388,10.5,10500191464.409956,47.655,-122.3035,60.0,2.9833333333333334
2026-01-20T23:03:00+00:00,SAT-61546,214.57142442812167,46.191804244365635,1063.8209581298104,-5.448313364983709,190822.98038441295,10.5,10500190822.980385,47.655,-122.3035,60.0,3.0
2026-01-20T23:03:01+00:00,SAT-61546,214.59542284149302,46.456801647389646,1058.3871736004667,-5.429709535869961,190171.39559473036,10.5,10500190171.395596,47.655,-122.3035,60.0,3.0166666666666666
2026-01-20T23:03:02+00:00,SAT-61546,214.62030815067718,46.72424105977927,1052.9719432900256,-5.410810808655598,189509.48222614653,10.5,10500189509.482225,47.655,-122.3035,60.0,3.033333333333333
2026-01-20T23:03:03+00:00,SAT-61546,214.6461074138066,46.99415112688626,1047.575561310193,-5.3916121249753965,188837.06311331442,10.5,10500188837.063114,47.655,-122.3035,60.0,3.05
2026-01-20T23:03:04+00:00,SAT-61546,214.67284879662748,47.266560698579006,1042.1983268175509,-5.372108387208474,188153.95971598785,10.5,10500188153.959717,47.655,-122.3035,60.0,3.066666666666667
2026-01-20T23:03:05+00:00,SAT-61546,214.70056162986927,47.54149882280377,1036.8405440527085,-5.35229438455391,187459.98952987688,10.5,10500187459.98953,47.655,-122.3035,60.0,3.0833333333333335
2026-01-20T23:03:06+00:00,SAT-61546,214.72927646968836,47.8189947347158,1031.5025224531798,-5.332164867152449,186754.96868270353,10.5,10500186754.968683,47.655,-122.3035,60.0,3.1
2026-01-20T23:03:07+00:00,SAT-61546,214.75902516243747,48.09907784889301,1026.18457669234,-5.311714471877639,186038.70933509344,10.5,10500186038.709335,47.655,-122.3035,60.0,3.1166666666666667
2026-01-20T23:03:08+00:00,SAT-61546,214.78984091303195,48.3817777469156,1020.8870267923872,-5.290937796245981,185311.02226922195,10.5,10500185311.022268,47.655,-122.3035,60.0,3.1333333333333333
2026-01-20T23:03:09+00:00,SAT-61546,214.8217583582546,48.66712416802698,1015.6101981635979,-5.269829325717359,184571.71434256787,10.5,10500184571.714342,47.655,-122.3035,60.0,3.15
2026-01-20T23:03:10+00:00,SAT-61546,214.85481364427253,48.95514699505608,1010.3544217160825,-5.248383502321489,183820.59089150146,10.5,10500183820.59089,47.655,-122.3035,60.0,3.1666666666666665
2026-01-20T23:03:11+00:00,SAT-61546,214.88904450979905,49.24587624312957,1005.1200339031005,-5.22659467923081,183057.45414023558,10.5,10500183057.45414,47.655,-122.3035,60.0,3.183333333333333
2026-01-20T23:03:12+00:00,SAT-61546,214.92449037438786,49.539342044967135,999.9073768096811,-5.204457127030144,182282.10342041528,10.5,10500182282.10342,47.655,-122.3035,60.0,3.2
2026-01-20T23:03:13+00:00,SAT-61546,214.9611924327436,49.83557463546413,994.7167982349896,-5.181965051517857,181494.33579458992,10.5,10500181494.335794,47.655,-122.3035,60.0,3.216666666666667
2026-01-20T23:03:14+00:00,SAT-61546,214.99919375553742,50.13460433619142,989.5486517569425,-5.159112599379872,180693.946254941,10.5,10500180693.946255,47.655,-122.3035,60.0,3.2333333333333334
2026-01-20T23:03:15+00:00,SAT-61546,215.03853939723675,50.4364615391383,984.403296791161,-5.135893822959629,179880.7264893772,10.5,10500179880.72649,47.655,-122.3035,60.0,3.25
2026-01-20T23:03:16+00:00,SAT-61546,215.07927651106996,50.741176687186744,979.2810986850625,-5.112302696509548,179054.46545072945,10.5,10500179054.46545,47.655,-122.3035,60.0,3.2666666666666666
2026-01-20T23:03:17+00:00,SAT-61546,215.12145447222528,51.04878025420463,974.1824287957437,-5.088333181115348,178214.95163067497,10.5,10500178214.951632,47.655,-122.3035,60.0,3.283333333333333
2026-01-20T23:03:18+00:00,SAT-61546,215.16512501040785,51.35930272775805,969.1076645031113,-5.063979096801266,177361.96858032132,10.5,10500177361.96858,47.655,-122.3035,60.0,3.3
2026-01-20T23:03:19+00:00,SAT-61546,215.21034235068507,51.67277458267318,964.0571893505683,-5.039234253471998,176495.2994963468,10.5,10500176495.299496,47.655,-122.3035,60.0,3.316666666666667
2026-01-20T23:03:20+00:00,SAT-61546,215.25716336584668,51.989226261029856,959.0313930551055,-5.014092363071732,175614.72414443854,10.5,10500175614.724144,47.655,-122.3035,60.0,3.3333333333333335
2026-01-20T23:03:21+00:00,SAT-61546,215.30564773910817,52.30868814521206,954.0306716050019,-4.988547087762752,174720.02054671067,10.5,10500174720.020546,47.655,-122.3035,60.0,3.35
2026-01-20T23:03:22+00:00,SAT-61546,215.35585813937146,52.63119053222473,949.0554273094732,-4.962592043040192,173810.9650907963,10.5,10500173810.965092,47.655,-122.3035,60.0,3.3666666666666667
2026-01-20T23:03:23+00:00,SAT-61546,215.4078604098115,52.95676360653178,944.1060688452144,-4.936220761251761,172887.33125215405,10.5,10500172887.331253,47.655,-122.3035,60.0,3.3833333333333333
2026-01-20T23:03:24+00:00,SAT-61546,215.4617237703425,53.28543740860899,939.1830113393261,-4.90942672902813,171948.8909050386,10.5,10500171948.890905,47.655,-122.3035,60.0,3.4
2026-01-20T23:03:25+00:00,SAT-61546,215.5175210362026,53.61724180393817,934.2866764149086,-4.8822034098465,170995.41511277194,10.5,10500170995.415113,47.655,-122.3035,60.0,3.4166666666666665
2026-01-20T23:03:26+00:00,SAT-61546,215.5753288539302,53.95220645150405,929.417492214155,-4.854544164913474,170026.6713567273,10.5,10500170026.671356,47.655,-122.3035,60.0,3.433333333333333
2026-01-20T23:03:27+00:00,SAT-61546,215.63522795497252,54.29036076466745,924.575893500348,-4.826442363602501,169042.4274043154,10.5,10500169042.427404,47.655,-122.3035,60.0,3.45
2026-01-20T23:03:28+00:00,SAT-61546,215.69730343113147,54.631733877248436,919.7623216497151,-4.797891284845888,168042.44785531537,10.5,10500168042.447855,47.655,-122.3035,60.0,3.466666666666667
2026-01-20T23:03:29+00:00,SAT-61546,215.76164503103288,54.97635460027916,914.9772247416289,-4.7688842024411455,167026.49712966435,10.5,10500167026.49713,47.655,-122.3035,60.0,3.4833333333333334
2026-01-20T23:03:30+00:00,SAT-61546,215.82834748221188,55.32425138208376,910.2210575637275,-4.739414373034505,165994.33904658904,10.5,10500165994.339046,47.655,-122.3035,60.0,3.5
2026-01-20T23:03:31+00:00,SAT-61546,215.8975108400131,55.67545226487204,905.4942816290211,-4.709474959547332,164945.73414267477,10.5,10500164945.734142,47.655,-122.3035,60.0,3.5166666666666666
2026-01-20T23:03:32+00:00,SAT-61546,215.9692408646583,56.02998483258615,900.797365269366,-4.679059174103649,163880.44467779214,10.5,10500163880.444677,47.655,-122.3035,60.0,3.533333333333333
2026-01-20T23:03:33+00:00,SAT-61546,216.0436494331365,56.38787616623887,896.1307835863932,-4.648160156801051,162798.23038914154,10.5,10500162798.230389,47.655,-122.3035,60.0,3.55
2026-01-20T23:03:34+00:00,SAT-61546,216.12085498475713,56.74915278678183,891.4950185233436,-4.616771071390949,161698.85184238013,10.5,10500161698.851843,47.655,-122.3035,60.0,3.566666666666667
2026-01-20T23:03:35+00:00,SAT-61546,216.20098300783175,57.11384060170732,886.8905588414764,-4.584885045389321,160582.06833404684,10.5,10500160582.068335,47.655,-122.3035,60.0,3.5833333333333335
2026-01-20T23:03:36+00:00,SAT-61546,216.28416656868637,57.48196484315036,882.3179001562081,-4.552495218144897,159447.63957511375,10.5,10500159447.639576,47.655,-122.3035,60.0,3.6
2026-01-20T23:03:37+00:00,SAT-61546,216.37054688976275,57.85355000568833,877.7775449253115,-4.519594740594331,158295.32568241088,10.5,10500158295.325682,47.655,-122.3035,60.0,3.6166666666666667
2026-01-20T23:03:38+00:00,SAT-61546,216.46027398090587,58.228619779783905,873.2700024373588,-4.486176773243542,157124.88710792447,10.5,10500157124.887108,47.655,-122.3035,60.0,3.6333333333333333
2026-01-20T23:03:39+00:00,SAT-61546,216.55350732981682,58.607196980448826,868.7957888021773,-4.452234464907744,155936.08389418293,10.5,10500155936.083895,47.655,-122.3035,60.0,3.65
2026-01-20T23:03:40+00:00,SAT-61546,216.65041665741379,58.98930346892635,864.3554269625093,-4.417761056667545,154728.67931523887,10.5,10500154728.679316,47.655,-122.3035,60.0,3.6666666666666665
2026-01-20T23:03:41+00:00,SAT-61546,216.7511827486898,59.374960077926865,859.9494466019928,-4.382749760395272,153502.4356221475,10.5,10500153502.435621,47.655,-122.3035,60.0,3.683333333333333
2026-01-20T23:03:42+00:00,SAT-61546,216.8559983619043,59.76418652058024,855.578384174292,-4.347193866298851,152257.11780960794,10.5,10500152257.11781,47.655,-122.3035,60.0,3.7
2026-01-20T23:03:43+00:00,SAT-61546,216.9650692310458,60.15700130238004,851.2427828249698,-4.311086709607745,150992.49244916404,10.5,10500150992.492449,47.655,-122.3035,60.0,3.716666666666667
2026-01-20T23:03:44+00:00,SAT-61546,217.0786151688248,60.553421623443946,846.9431923465878,-4.274421684619133,149708.3281811609,10.5,10500149708.32818,47.655,-122.3035,60.0,3.7333333333333334
2026-01-20T23:03:45+00:00,SAT-61546,217.19687128348943,60.95346327461458,842.6801691197943,-4.237192272205303,148404.3966781702,10.5,10500148404.396679,47.655,-122.3035,60.0,3.75
2026-01-20T23:03:46+00:00,SAT-61546,217.32008932365693,61.35714052808055,838.4542760269816,-4.199392010356984,147080.47161329302,10.5,10500147080.471613,47.655,-122.3035,60.0,3.7666666666666666
2026-01-20T23:03:47+00:00,SAT-61546,217.44853916520233,61.76446601638108,834.2660823953189,-4.161014558976152,145736.3309294779,10.5,10500145736.330929,47.655,-122.3035,60.0,3.783333333333333
2026-01-20T23:03:48+00:00,SAT-61546,217.58251046103015,62.175450607984665,830.1161638751666,-4.122053657375013,144371.75535095562,10.5,10500144371.75535,47.655,-122.3035,60.0,3.8
2026-01-20T23:03:49+00:00,SAT-61546,217.72231447096445,62.59010326816688,826.0051023608779,-4.082503171735469,142986.53004547043,10.5,10500142986.530045,47.655,-122.3035,60.0,3.816666666666667
2026-01-20T23:03:50+00:00,SAT-61546,217.8682860981839,63.0084309128448,821.9334858642671,-4.0423571102035,141580.44515294893,10.5,10500141580.445152,47.655,-122.3035,60.0,3.8333333333333335
2026-01-20T23:03:51+00:00,SAT-61546,218.02078615851138,63.43043825116502,817.9019083730242,-4.001609579961358,140153.29428198712,10.5,10500140153.294283,47.655,-122.3035,60.0,3.85
2026-01-20T23:03:52+00:00,SAT-61546,218.18020391123062,63.8561276091811,813.9109697519426,-3.960254900091887,138704.87846283583,10.5,10500138704.878464,47.655,-122.3035,60.0,3.8666666666666667
2026-01-20T23:03:53+00:00,SAT-61546,218.3469598940508,64.28549874948185,809.9612755315844,-3.918287518756084,137235.00324660898,10.5,10500137235.003246,47.655,-122.3035,60.0,3.8833333333333333
2026-01-20T23:03:54+00:00,SAT-61546,218.52150909593948,64.71854866425134,806.053436779545,-3.8757020460429215,135743.47985582307,10.5,10500135743.479856,47.655,-122.3035,60.0,3.9
2026-01-20T23:03:55+00:00,SAT-61546,218.70434452084248,65.15527135150103,802.1880699389582,-3.832493346295712,134230.12841805705,10.5,10500134230.128418,47.655,-122.3035,60.0,3.9166666666666665
2026-01-20T23:03:56+00:00,SAT-61546,218.89600120215545,65.59565757913883,798.3657965749193,-3.7886564412900254,132694.77457483357,10.5,10500132694.774574,47.655,-122.3035,60.0,3.933333333333333
2026-01-20T23:03:57+00:00,SAT-61546,219.09706072464132,66.03969461258582,794.5872432174726,-3.7441866070576784,131137.2528728045,10.5,10500131137.252872,47.655,-122.3035,60.0,3.95
2026-01-20T23:03:58+00:00,SAT-61546,219.30815634027002,66.48736592427147,790.8530411080338,-3.6990793501904906,129557.40593380822,10.5,10500129557.405933,47.655,-122.3035,60.0,3.966666666666667
2026-01-20T23:03:59+00:00,SAT-61546,219.52997876247233,66.93865086726329,787.1638259694438,-3.65333042449273,127955.08503810881,10.5,10500127955.085037,47.655,-122.3035,60.0,3.9833333333333334
2026-01-20T23:04:00+00:00,SAT-61546,219.76328274697244,67.39352431268824,783.5202377594164,-3.606935881226646,126330.15188420711,10.5,10500126330.151884,47.655,-122.3035,60.0,4.0
2026-01-20T23:04:01+00:00,SAT-61546,220.008894587195,67.85195624956793,779.9229203738731,-3.5598920267379954,124682.47710470739,10.5,10500124682.477104,47.655,-122.3035,60.0,4.016666666666667
2026-01-20T23:04:02+00:00,SAT-61546,220.26772066633563,68.31391132858748,776.3725213925397,-3.512195498297295,123011.94292259881,10.5,10500123011.942923,47.655,-122.3035,60.0,4.033333333333333
2026-01-20T23:04:03+00:00,SAT-61546,220.54075725046926,68.77934835659417,772.8696917489045,-3.463843264187746,121318.4431543349,10.5,10500121318.443153,47.655,-122.3035,60.0,4.05
2026-01-20T23:04:04+00:00,SAT-61546,220.82910172746122,69.2482197226532,769.4150854000878,-3.414832603925827,119601.88251707515,10.5,10500119601.882517,47.655,-122.3035,60.0,4.066666666666666
2026-01-20T23:04:05+00:00,SAT-61546,221.13396553988656,69.72047074085404,766.0093590164391,-3.3651611638709538,117862.17857637038,10.5,10500117862.178576,47.655,-122.3035,60.0,4.083333333333333
2026-01-20T23:04:06+00:00,SAT-61546,221.45668911787018,70.19603890568152,762.6531716156719,-3.3148269917624487,116099.2629557936,10.5,10500116099.262957,47.655,-122.3035,60.0,4.1
2026-01-20T23:04:07+00:00,SAT-61546,221.7987591720443,70.67485304047624,759.3471841625542,-3.2638284832999176,114313.07946595886,10.5,10500114313.079466,47.655,-122.3035,60.0,4.116666666666666
2026-01-20T23:04:08+00:00,SAT-61546,222.16182877149805,71.1568323050132,756.0920592218764,-3.212164503827587,112503.58836642136,10.5,10500112503.588366,47.655,-122.3035,60.0,4.133333333333334
2026-01-20T23:04:09+00:00,SAT-61546,222.54774075149683,71.64188506197485,752.888460490059,-3.15983427123373,110670.7622643201,10.5,10500110670.762264,47.655,-122.3035,60.0,4.15
2026-01-20T23:04:10+00:00,SAT-61546,222.95855506179953,72.1299075353486,749.7370524435486,-3.106837539395011,108814.59253937473,10.5,10500108814.592539,47.655,-122.3035,60.0,4.166666666666667
2026-01-20T23:04:11+00:00,SAT-61546,223.39658086907522,72.62078226716655,746.6384998042586,-3.053174451649604,106935.0842118945,10.5,10500106935.084211,47.655,-122.3035,60.0,4.183333333333334
2026-01-20T23:04:12+00:00,SAT-61546,223.86441431985068,73.11437627364475,743.5934671511467,-2.9988456736363203,105032.26059536614,10.5,10500105032.260595,47.655,-122.3035,60.0,4.2
2026-01-20T23:04:13+00:00,SAT-61546,224.36498316243228,73.61053888368575,740.6026183993068,-2.943852352204522,103106.16185730556,10.5,10500103106.161858,47.655,-122.3035,60.0,4.216666666666667
2026-01-20T23:04:14+00:00,SAT-61546,224.901599630084,74.1090991570748,737.6666163200415,-2.8881961612690215,101156.84662529011,10.5,10500101156.846624,47.655,-122.3035,60.0,4.233333333333333
2026-01-20T23:04:15+00:00,SAT-61546,225.4780233536716,74.60986280146447,734.7861220152025,-2.831879316872313,99184.39251450179,10.5,10500099184.392515,47.655,-122.3035,60.0,4.25
2026-01-20T23:04:16+00:00,SAT-61546,226.09853646314127,75.11260846336717,731.9617943765086,-2.7749045583017966,97188.89546637249,10.5,10500097188.895466,47.655,-122.3035,60.0,4.266666666666667
2026-01-20T23:04:17+00:00,SAT-61546,226.7680335391209,75.61708323465895,729.1942895636955,-2.7172752067319825,95170.47180248216,10.5,10500095170.471802,47.655,-122.3035,60.0,4.283333333333333
2026-01-20T23:04:18+00:00,SAT-61546,227.49212972432073,76.12299719389966,726.4842604241815,-2.658995168237859,93129.25833009955,10.5,10500093129.25833,47.655,-122.3035,60.0,4.3
2026-01-20T23:04:19+00:00,SAT-61546,228.27729104225835,76.63001672416344,723.8323559097256,-2.600068931708266,91065.41226909982,10.5,10500091065.41227,47.655,-122.3035,60.0,4.316666666666666
2026-01-20T23:04:20+00:00,SAT-61546,229.130991897291,77.13775628530324,721.2392204951686,-2.540501593087088,88979.11210099362,10.5,10500088979.1121,47.655,-122.3035,60.0,4.333333333333333
2026-01-20T23:04:21+00:00,SAT-61546,230.0619058287868,77.64576823176901,718.7054935729964,-2.4802988886199744,86870.55873336791,10.5,10500086870.558733,47.655,-122.3035,60.0,4.35
2026-01-20T23:04:22+00:00,SAT-61546,231.08013682644363,78.15353014177565,716.231808814746,-2.4194671623435267,84739.97436121968,10.5,10500084739.974361,47.655,-122.3035,60.0,4.366666666666666
2026-01-20T23:04:23+00:00,SAT-61546,232.19749979380128,78.66042894838434,713.8187935648355,-2.358013432972601,82587.60480963238,10.5,10500082587.604809,47.655,-122.3035,60.0,4.383333333333334
2026-01-20T23:04:24+00:00,SAT-61546,233.42786001687494,79.16574098953737,711.4670681676841,-2.295945329365681,80413.7172735001,10.5,10500080413.717274,47.655,-122.3035,60.0,4.4
2026-01-20T23:04:25+00:00,SAT-61546,234.78754209970793,79.66860678015121,709.1772453591968,-2.233271188384622,78218.6037449899,10.5,10500078218.603745,47.655,-122.3035,60.0,4.416666666666667
2026-01-20T23:04:26+00:00,SAT-61546,236.29581839463054,80.16799903776092,706.9499295606478,-2.1699999930991947,76002.57884920356,10.5,10500076002.57885,47.655,-122.3035,60.0,4.433333333333334
2026-01-20T23:04:27+00:00,SAT-61546,237.9754834480509,80.66268201960816,704.7857162341969,-2.106141404656659,73765.98096038467,10.5,10500073765.98096,47.655,-122.3035,60.0,4.45
2026-01-20T23:04:28+00:00,SAT-61546,239.85351226542696,81.15115982664358,702.6851912066193,-2.041705760296272,71509.17213237852,10.5,10500071509.172132,47.655,-122.3035,60.0,4.466666666666667
2026-01-20T23:04:29+00:00,SAT-61546,241.96178093822982,81.63161085851999,700.6489299950172,-1.9767041047457128,69232.53919826756,10.5,10500069232.539198,47.655,-122.3035,60.0,4.483333333333333
2026-01-20T23:04:30+00:00,SAT-61546,244.33779040040835,82.10180535121356,698.6774971012173,-1.9111481342437198,66936.4918098075,10.5,10500066936.49181,47.655,-122.3035,60.0,4.5
2026-01-20T23:04:31+00:00,SAT-61546,247.0252641117442,82.55900316832887,696.7714453619984,-1.845050255660539,64621.46450807532,10.5,10500064621.464508,47.655,-122.3035,60.0,4.516666666666667
2026-01-20T23:04:32+00:00,SAT-61546,250.07436921894657,82.99983058952598,694.9313152403529,-1.7784235482297333,62287.9153831555,10.5,10500062287.915382,47.655,-122.3035,60.0,4.533333333333333
2026-01-20T23:04:33+00:00,SAT-61546,253.54111373777357,83.42013888865357,693.1576341549185,-1.7112817773355504,59936.326557031934,10.5,10500059936.326557,47.655,-122.3035,60.0,4.55
2026-01-20T23:04:34+00:00,SAT-61546,257.4851857875359,83.81485637879354,691.4509157956558,-1.643639382834544,57567.20377456164,10.5,10500057567.203775,47.655,-122.3035,60.0,4.566666666666666
2026-01-20T23:04:35+00:00,SAT-61546,261.9651584578649,84.17786213440999,689.8116594511755,-1.575511456659213,55181.075619059564,10.5,10500055181.075619,47.655,-122.3035,60.0,4.583333333333333
2026-01-20T23:04:36+00:00,SAT-61546,267.02975631610457,84.50193628940404,688.2403493584006,-1.506913780331613,52778.494826183836,10.5,10500052778.494825,47.655,-122.3035,60.0,4.6
2026-01-20T23:04:37+00:00,SAT-61546,272.70420329579093,84.77887626467898,686.7374540148166,-1.437862755452356,50360.03584936663,10.5,10500050360.035849,47.655,-122.3035,60.0,4.616666666666666
2026-01-20T23:04:38+00:00,SAT-61546,278.97228394315835,84.9998945672356,685.3034255600455,-1.3683754321768031,47926.295857170735,10.5,10500047926.295856,47.655,-122.3035,60.0,4.633333333333334
2026-01-20T23:04:39+00:00,SAT-61546,285.7582341767591,85.15639397516763,683.9386991290212,-1.2984694795307061,45477.893693617916,10.5,10500045477.893694,47.655,-122.3035,60.0,4.65
2026-01-20T23:04:40+00:00,SAT-61546,292.9169776351847,85.24110007910942,682.6436922347692,-1.2281631653636098,43015.46917607214,10.5,10500043015.469175,47.655,-122.3035,60.0,4.666666666666667
2026-01-20T23:04:41+00:00,SAT-61546,300.24265760211017,85.24931474073709,681.4188041711799,-1.1574753522218495,40539.68295069458,10.5,10500040539.682951,47.655,-122.3035,60.0,4.683333333333334
2026-01-20T23:04:42+00:00,SAT-61546,307.4990888086786,85.17985460671103,680.2644154198973,-1.0864254610202435,38051.21522007254,10.5,10500038051.21522,47.655,-122.3035,60.0,4.7
2026-01-20T23:04:43+00:00,SAT-61546,314.46290474586965,85.03526171514633,679.1808870934398,-1.0150334540178707,35550.765146959246,10.5,10500035550.765146,47.655,-122.3035,60.0,4.716666666666667
2026-01-20T23:04:44+00:00,SAT-61546,320.96120508951185,84.82118956768632,678.1685603952993,-0.9433198186357208,33039.050287499456,10.5,10500033039.050287,47.655,-122.3035,60.0,4.733333333333333
2026-01-20T23:04:45+00:00,SAT-61546,326.8895070743766,84.54525898262943,677.22775609618,-0.8713055268119433,30516.805167678383,10.5,10500030516.805168,47.655,-122.3035,60.0,4.75
2026-01-20T23:04:46+00:00,SAT-61546,332.20859361752053,84.21584313007251,676.3587740507728,-0.7990120204917935,27984.780775118208,10.5,10500027984.780775,47.655,-122.3035,60.0,4.766666666666667
2026-01-20T23:04:47+00:00,SAT-61546,336.9286547952422,83.84112125505948,675.5618927290022,-0.7264611767026421,25443.743335857176,10.5,10500025443.743336,47.655,-122.3035,60.0,4.783333333333333
2026-01-20T23:04:48+00:00,SAT-61546,341.09051634349663,83.4285123560538,674.8373687821042,-0.6536752790926519,22894.473317513693,10.5,10500022894.473318,47.655,-122.3035,60.0,4.8
2026-01-20T23:04:49+00:00,SAT-61546,344.74995678270426,82.98443525769844,674.1854366370891,-0.5806769805142407,20337.764118800904,10.5,10500020337.764118,47.655,-122.3035,60.0,4.816666666666666
2026-01-20T23:04:50+00:00,SAT-61546,347.9669771823423,82.51428341696337,673.606308128523,-0.5074892726348265,17774.42100516644,10.5,10500017774.421005,47.655,-122.3035,60.0,4.833333333333333
2026-01-20T23:04:51+00:00,SAT-61546,350.79951474060135,82.02251299226644,673.1001721606152,-0.4341354547003699,15205.260014759557,10.5,10500015205.260015,47.655,-122.3035,60.0,4.85
2026-01-20T23:04:52+00:00,SAT-61546,353.300327721984,81.5127753197494,672.6671944004607,-0.36063909305579644,12631.106540665083,10.5,10500012631.10654,47.655,-122.3035,60.0,4.866666666666666
2026-01-20T23:04:53+00:00,SAT-61546,355.5158483257541,80.98805509900463,672.3075170116531,-0.28702398363888587,10052.794017280787,10.5,10500010052.794018,47.655,-122.3035,60.0,4.883333333333334
2026-01-20T23:04:54+00:00,SAT-61546,357.48612735006657,80.45079609978087,672.0212584253038,-0.21331411721969196,7471.1627028548055,10.5,10500007471.162703,47.655,-122.3035,60.0,4.9
2026-01-20T23:04:55+00:00,SAT-61546,359.24531392341385,79.90300797576077,671.80851314573,-0.13953363920417036,4887.058271638671,10.5,10500004887.058271,47.655,-122.3035,60.0,4.916666666666667
2026-01-20T23:04:56+00:00,SAT-61546,0.8223476968611514,79.34635369046732,671.6693515962304,-0.06570681014956822,2301.3304309692353,10.5,10500002301.330431,47.655,-122.3035,60.0,4.933333333333334
2026-01-20T23:04:57+00:00,SAT-61546,2.241691094510334,78.78221958546591,671.6038200042414,0.00814203354726405,-285.16845559294404,10.5,10499999714.831545,47.655,-122.3035,60.0,4.95
2026-01-20T23:04:58+00:00,SAT-61546,3.52401797137012,78.21177089628539,671.611940325699,0.08198851891239116,-2871.584743403075,10.5,10499997128.415257,47.655,-122.3035,60.0,4.966666666666667
2026-01-20T23:04:59+00:00,SAT-61546,4.686824265756468,77.63599550701365,671.693710208561,0.15580827771890451,-5457.064954077322,10.5,10499994542.935045,47.655,-122.3035,60.0,4.983333333333333
2026-01-20T23:05:00+00:00,SAT-61546,5.744952027833112,77.05573836875718,671.8491029975394,0.22957698485192438,-8040.757119197462,10.5,10499991959.24288,47.655,-122.3035,60.0,5.0
2026-01-20T23:05:01+00:00,SAT-61546,6.7110305685520055,76.47172861201244,672.0780677770982,0.3032703996577414,-10621.81222853273,10.5,10499989378.18777,47.655,-122.3035,60.0,5.016666666666667
2026-01-20T23:05:02+00:00,SAT-61546,7.595843765224919,75.88460094421258,672.3805294556903,0.37686440724671005,-13199.385676641858,10.5,10499986800.614323,47.655,-122.3035,60.0,5.033333333333333
2026-01-20T23:05:03+00:00,SAT-61546,8.408634008606006,75.29491260037409,672.7563888911843,0.4503350499651391,-15772.638365151804,10.5,10499984227.361635,47.655,-122.3035,60.0,5.05
2026-01-20T23:05:04+00:00,SAT-61546,9.157352986219504,74.70315683692819,673.205523047683,0.5236585778502065,-18340.738469902295,10.5,10499981659.26153,47.655,-122.3035,60.0,5.066666666666666
2026-01-20T23:05:05+00:00,SAT-61546,9.848868486106134,74.10977369819706,673.7277852026589,0.5968114728336721,-20902.862288662232,10.5,10499979097.13771,47.655,-122.3035,60.0,5.083333333333333
2026-01-20T23:05:06+00:00,SAT-61546,10.489135021687861,73.51515867565405,674.3230051782316,0.6697704987608661,-23458.19599300625,10.5,10499976541.804007,47.655,-122.3035,60.0,5.1
2026-01-20T23:05:07+00:00,SAT-61546,11.083334888168702,72.91966967850732,674.9909896223292,0.7425127280286496,-26005.93656128875,10.5,10499973994.063438,47.655,-122.3035,60.0,5.116666666666666
2026-01-20T23:05:08+00:00,SAT-61546,11.635995033047855,72.32363269147882,675.7315223164164,0.8150155783073393,-28545.29306480106,10.5,10499971454.706936,47.655,-122.3035,60.0,5.133333333333334
2026-01-20T23:05:09+00:00,SAT-61546,12.151084180641464,71.727346378072,676.5443645198483,0.8872568466567398,-31075.4878626592,10.5,10499968924.512136,47.655,-122.3035,60.0,5.15
2026-01-20T23:05:10+00:00,SAT-61546,12.632093801721346,71.1310858446413,677.4292553482472,0.9592147407952535,-33595.75769698036,10.5,10499966404.242304,47.655,-122.3035,60.0,5.166666666666667
2026-01-20T23:05:11+00:00,SAT-61546,13.082105843651409,70.53510573197754,678.385912183067,1.0308679150051,-36105.35495043558,10.5,10499963894.64505,47.655,-122.3035,60.0,5.183333333333334
2026-01-20T23:05:12+00:00,SAT-61546,13.50384958541272,69.93964276246345,679.4140311169655,1.1021954910561051,-38603.54837908932,10.5,10499961396.45162,47.655,-122.3035,60.0,5.2
2026-01-20T23:05:13+00:00,SAT-61546,13.899749527901951,69.3449178537868,680.5132874200455,1.1731770827424215,-41089.623971779256,10.5,10499958910.376028,47.655,-122.3035,60.0,5.216666666666667
2026-01-20T23:05:14+00:00,SAT-61546,14.271965878466567,68.7511378775817,681.6833360305671,1.2437928384604229,-43562.88644137419,10.5,10499956437.113558,47.655,-122.3035,60.0,5.233333333333333
2026-01-20T23:05:15+00:00,SAT-61546,14.622428900867707,68.15849711915928,682.923812088125,1.3140234490872507,-46022.65950071409,10.5,10499953977.3405,47.655,-122.3035,60.0,5.25
2026-01-20T23:05:16+00:00,SAT-61546,14.952868151338699,67.56717850869117,684.2343314746814,1.383850166807435,-48468.28652199806,10.5,10499951531.713478,47.655,-122.3035,60.0,5.266666666666667
2026-01-20T23:05:17+00:00,SAT-61546,15.264837451741398,66.97735465772801,685.6144913743774,1.45325484995427,-50899.13210731884,10.5,10499949100.867893,47.655,-122.3035,60.0,5.283333333333333
2026-01-20T23:05:18+00:00,SAT-61546,15.559736297089556,66.38918872516184,687.0638708780651,1.5222199442074578,-53314.58143012493,10.5,10499946685.41857,47.655,-122.3035,60.0,5.3
2026-01-20T23:05:19+00:00,SAT-61546,15.83882825450784,65.80283516597092,688.582031569088,1.5907285401840676,-55714.042252299456,10.5,10499944285.957748,47.655,-122.3035,60.0,5.316666666666666
2026-01-20T23:05:20+00:00,SAT-61546,16.10325684005868,65.21844035418376,690.1685181664983,1.6587643424100653,-58096.94383741197,10.5,10499941903.056162,47.655,-122.3035,60.0,5.333333333333333
2026-01-20T23:05:21+00:00,SAT-61546,16.35405924760365,64.63614313182485,691.8228591373286,1.72631173679894,-60462.73931410533,10.5,10499939537.260685,47.655,-122.3035,60.0,5.35
2026-01-20T23:05:22+00:00,SAT-61546,16.592178269641405,64.05607526317175,693.5445673761626,1.7933557307399624,-62810.903577733116,10.5,10499937189.096422,47.655,-122.3035,60.0,5.366666666666666
2026-01-20T23:05:23+00:00,SAT-61546,16.818472662178266,63.47836184998883,695.3331408249541,1.8598820394388789,-65140.93631437595,10.5,10499934859.063686,47.655,-122.3035,60.0,5.383333333333334
2026-01-20T23:05:24+00:00,SAT-61546,17.033726199385004,62.9031216690608,697.1880631789544,1.9258770292996865,-67452.36001783176,10.5,10499932547.639982,47.655,-122.3035,60.0,5.4
2026-01-20T23:05:25+00:00,SAT-61546,17.238655589318498,62.33046748674763,699.108804536176,1.9913277571687311,-69744.72136411008,10.5,10499930255.278635,47.655,-122.3035,60.0,5.416666666666667
2026-01-20T23:05:26+00:00,SAT-61546,17.43391742245197,61.76050632640453,701.0948220859922,2.0562219588584694,-72017.5908094857,10.5,10499927982.409191,47.655,-122.3035,60.0,5.433333333333334
2026-01-20T23:05:27+00:00,SAT-61546,17.62011428172855,61.193339710100744,703.1455607862937,2.120548073920129,-74270.56345814194,10.5,10499925729.436543,47.655,-122.3035,60.0,5.45
2026-01-20T23:05:28+00:00,SAT-61546,17.797800131744502,60.62906386902745,705.2604540653501,2.1842951903096366,-76503.25712413747,10.5,10499923496.742876,47.655,-122.3035,60.0,5.466666666666667
2026-01-20T23:05:29+00:00,SAT-61546,17.96748507743877,60.06776994748459,707.4389244684855,2.247453116207069,-78715.31484682721,10.5,10499921284.685154,47.655,-122.3035,60.0,5.483333333333333
2026-01-20T23:05:30+00:00,SAT-61546,18.129639585011322,59.50954417024647,709.6803843763827,2.3100123229315073,-80906.4028914991,10.5,10499919093.597109,47.655,-122.3035,60.0,5.5
2026-01-20T23:05:31+00:00,SAT-61546,18.284698225266546,58.95446800961574,711.9842366664531,2.3719639504088437,-83076.21094087984,10.5,10499916923.789059,47.655,-122.3035,60.0,5.516666666666667
2026-01-20T23:05:32+00:00,SAT-61546,18.433063004971626,58.40261833752106,714.3498753796608,2.4332998296643193,-85224.4528829186,10.5,10499914775.547117,47.655,-122.3035,60.0,5.533333333333333
2026-01-20T23:05:33+00:00,SAT-61546,18.575106338536497,57.85406756127553,716.7766864097794,2.494012419084778,-87350.8645784217,10.5,10499912649.135422,47.655,-122.3035,60.0,5.55
2026-01-20T23:05:34+00:00,SAT-61546,18.71117369973925,57.30888376386605,719.2640481290799,2.5540948714148617,-89455.20620754258,10.5,10499910544.793793,47.655,-122.3035,60.0,5.566666666666666
2026-01-20T23:05:35+00:00,SAT-61546,18.8415859992018,56.76713082080307,721.8113320808377,2.6135409343949654,-91537.2587897029,10.5,10499908462.74121,47.655,-122.3035,60.0,5.583333333333333
2026-01-20T23:05:36+00:00,SAT-61546,18.96664171203344,56.22886853078255,724.417903572741,2.6723450273495755,-93596.82686603992,10.5,10499906403.173134,47.655,-122.3035,60.0,5.6
2026-01-20T23:05:37+00:00,SAT-61546,19.086618793631736,55.69415272314669,727.0831223466843,2.7305021621439742,-95633.73573097603,10.5,10499904366.264269,47.655,-122.3035,60.0,5.616666666666666
2026-01-20T23:05:38+00:00,SAT-61546,19.20177640083361,55.16303537566741,729.8063431697291,2.78800796978116,-97647.83236375541,10.5,10499902352.167637,47.655,-122.3035,60.0,5.633333333333334
2026-01-20T23:05:39+00:00,SAT-61546,19.312356445418327,54.6355647211379,732.5869164515909,2.8448586588055877,-99638.983971567,10.5,10499900361.01603,47.655,-122.3035,60.0,5.65
2026-01-20T23:05:40+00:00,SAT-61546,19.418584996000316,54.111785356803026,735.4241888206396,2.9010510386084674,-101607.07880579474,10.5,10499898392.921194,47.655,-122.3035,60.0,5.666666666666667
2026-01-20T23:05:41+00:00,SAT-61546,19.5206735474673,53.59173834466642,738.3175037231453,2.9565824547137343,-103552.0238954584,10.5,10499896447.976105,47.655,-122.3035,60.0,5.683333333333334
2026-01-20T23:05:42+00:00,SAT-61546,19.61882016930354,53.07546131914746,741.2662019579797,3.01145081999481,-105473.74614055669,10.5,10499894526.253859,47.655,-122.3035,60.0,5.7
2026-01-20T23:05:43+00:00,SAT-61546,19.71321054918977,52.56298858464822,744.2696222424546,3.065654565938868,-107372.19060513562,10.5,10499892627.809395,47.655,-122.3035,60.0,5.716666666666667
2026-01-20T23:05:44+00:00,SAT-61546,19.804018940185603,52.05435121772262,747.3271017295509,3.1191926218347255,-109247.31978836044,10.5,10499890752.680212,47.655,-122.3035,60.0,5.733333333333333
2026-01-20T23:05:45+00:00,SAT-61546,19.89140902280561,51.54957716824724,750.4379765043941,3.172064460287229,-111099.11521862201,10.5,10499888900.88478,47.655,-122.3035,60.0,5.75
2026-01-20T23:05:46+00:00,SAT-61546,19.975534692031953,51.048691349840006,753.6015821261204,3.224269965944339,-112927.572855804,10.5,10499887072.427145,47.655,-122.3035,60.0,5.766666666666667
2026-01-20T23:05:47+00:00,SAT-61546,20.056540772831468,50.55171574709475,756.8172540388224,3.2758095536988883,-114732.70723120835,10.5,10499885267.292768,47.655,-122.3035,60.0,5.783333333333333
2026-01-20T23:05:48+00:00,SAT-61546,20.134563677108105,50.0586695007766,760.084328100378,3.326684037906096,-116514.54686699959,10.5,10499883485.453133,47.655,-122.3035,60.0,5.8
2026-01-20T23:05:49+00:00,SAT-61546,20.209732002134317,49.569569009537176,763.4021409808497,3.3768946604444197,-118273.13525901444,10.5,10499881726.86474,47.655,-122.3035,60.0,5.816666666666666
2026-01-20T23:05:50+00:00,SAT-61546,20.282167079891558,49.084428023361774,766.7700305888662,3.426443081565945,-120008.5305563038,10.5,10499879991.469444,47.655,-122.3035,60.0,5.833333333333333
2026-01-20T23:05:51+00:00,SAT-61546,20.351983481048546,48.6032577348678,770.1873364888813,3.4753313524946994,-121720.80460140976,10.5,10499878279.195398,47.655,-122.3035,60.0,5.85
2026-01-20T23:05:52+00:00,SAT-61546,20.419289477502915,48.12606687110275,773.6534002911027,3.5235618953078855,-123410.04222572136,10.5,10499876589.957775,47.655,-122.3035,60.0,5.866666666666666
2026-01-20T23:05:53+00:00,SAT-61546,20.484187467659886,47.652861784458146,777.1675660213565,3.5711374907555045,-125076.34082286619,10.5,10499874923.659178,47.655,-122.3035,60.0,5.883333333333334
2026-01-20T23:05:54+00:00,SAT-61546,20.546774367841664,47.183646541822206,780.7291804788033,3.618061221475562,-126719.80835986674,10.5,10499873280.19164,47.655,-122.3035,60.0,5.9
2026-01-20T23:05:55+00:00,SAT-61546,20.607141972417352,46.718423017397974,784.3375935370216,3.664336552110216,-128340.56618314683,10.5,10499871659.433817,47.655,-122.3035,60.0,5.916666666666667
2026-01-20T23:05:56+00:00,SAT-61546,20.66537728739916,46.25719097187801,787.9921585249929,3.709967186975524,-129938.74403352404,10.5,10499870061.255966,47.655,-122.3035,60.0,5.933333333333334
2026-01-20T23:05:57+00:00,SAT-61546,20.721562836631513,45.79994814616966,791.6922324661365,3.7549571674493176,-131514.483457145,10.5,10499868485.516542,47.655,-122.3035,60.0,5.95
2026-01-20T23:05:58+00:00,SAT-61546,20.77577694640172,45.34669033947273,795.4371764144726,3.7993107708397775,-133067.93426343522,10.5,10499866932.065737,47.655,-122.3035,60.0,5.966666666666667
2026-01-20T23:05:59+00:00,SAT-61546,20.828094007667307,44.897411496245326,799.2263556899234,3.843032525381736,-134599.25505033295,10.5,10499865400.74495,47.655,-122.3035,60.0,5.983333333333333
2026-01-20T23:06:00+00:00,SAT-61546,20.878584719242266,44.452103787822054,803.0591401285708,3.8861272420760096,-136108.6143194373,10.5,10499863891.385681,47.655,-122.3035,60.0,6.0
2026-01-20T23:06:01+00:00,SAT-61546,20.927316313833224,44.01075768707504,806.934904364668,3.9285998879316355,-137596.18603641514,10.5,10499862403.813963,47.655,-122.3035,60.0,6.016666666666667
2026-01-20T23:06:02+00:00,SAT-61546,20.974352766461468,43.57336205413933,810.8530279862317,3.9704556826731077,-139062.1530180977,10.5,10499860937.846981,47.655,-122.3035,60.0,6.033333333333333
2026-01-20T23:06:03+00:00,SAT-61546,21.01975498929445,43.139904207736016,814.8128957870845,4.011700040153817,-140506.70488053132,10.5,10499859493.29512,47.655,-122.3035,60.0,6.05
2026-01-20T23:06:04+00:00,SAT-61546,21.06358101217493,42.710370000011324,818.8138979604645,4.052338505444293,-141930.03583554152,10.5,10499858069.964165,47.655,-122.3035,60.0,6.066666666666666
2026-01-20T23:06:05+00:00,SAT-61546,21.105886150213163,42.284743894476165,822.8554302298942,4.092376838010491,-143332.3476039886,10.5,10499856667.652395,47.655,-122.3035,60.0,6.083333333333333
2026-01-20T23:06:06+00:00,SAT-61546,21.146723160642424,41.8630090320833,826.9368940630034,4.131820947334171,-144713.8471609209,10.5,10499855286.15284,47.655,-122.3035,60.0,6.1
2026-01-20T23:06:07+00:00,SAT-61546,21.186142388567955,41.445147300934494,831.0576968211446,4.170676832762805,-146074.74462886405,10.5,10499853925.255371,47.655,-122.3035,60.0,6.116666666666666
2026-01-20T23:06:08+00:00,SAT-61546,21.224191902438132,41.03113940882048,835.2172518490202,4.208950671031488,-147415.2563432087,10.5,10499852584.743656,47.655,-122.3035,60.0,6.133333333333334
2026-01-20T23:06:09+00:00,SAT-61546,21.260917621388337,40.620964943826166,839.4149786515956,4.246648717634263,-148735.60139781688,10.5,10499851264.398602,47.655,-122.3035,60.0,6.15
2026-01-20T23:06:10+00:00,SAT-61546,21.2963634334254,40.21460244175921,843.6503029726495,4.2837773515691815,-150036.00321218357,10.5,10499849963.996788,47.655,-122.3035,60.0,6.166666666666667
2026-01-20T23:06:11+00:00,SAT-61546,21.330571306352923,39.81202944618177,847.9226569179478,4.320343043108791,-151316.68840262253,10.5,10499848683.311598,47.655,-122.3035,60.0,6.183333333333334
2026-01-20T23:06:12+00:00,SAT-61546,21.363581391373458,39.413222568681235,852.2314790462749,4.356352327842165,-152577.8858731087,10.5,10499847422.114126,47.655,-122.3035,60.0,6.2
2026-01-20T23:06:13+00:00,SAT-61546,21.39543211997854,39.01815754861496,856.5762144345762,4.391811811789257,-153819.82699440425,10.5,10499846180.173006,47.655,-122.3035,60.0,6.216666666666667
2026-01-20T23:06:14+00:00,SAT-61546,21.42616029480179,38.626809309549714,860.9563147482007,4.426728175832948,-155042.74575928776,10.5,10499844957.25424,47.655,-122.3035,60.0,6.233333333333333
2026-01-20T23:06:15+00:00,SAT-61546,21.455801174882623,38.239152012608045,865.3712383155647,4.46110816042926,-156246.87824704128,10.5,10499843753.121754,47.655,-122.3035,60.0,6.25
2026-01-20T23:06:16+00:00,SAT-61546,21.484388555598713,37.85515910863595,869.8204501875663,4.494958498283738,-157432.46026549226,10.5,10499842567.539734,47.655,-122.3035,60.0,6.266666666666667
2026-01-20T23:06:17+00:00,SAT-61546,21.511954843357984,37.47480339339224,874.3034221298544,4.528286013096134,-158599.73080947023,10.5,10499841400.26919,47.655,-122.3035,60.0,6.283333333333333
2026-01-20T23:06:18+00:00,SAT-61546,21.53853112638994,37.0980570518454,878.8196327135823,4.5610975314001605,-159748.92897306205,10.5,10499840251.071028,47.655,-122.3035,60.0,6.3
2026-01-20T23:06:19+00:00,SAT-61546,21.564147240792654,36.72489170752617,883.3685673182322,4.593399906435337,-160880.29478570487,10.5,10499839119.705214,47.655,-122.3035,60.0,6.316666666666666
2026-01-20T23:06:20+00:00,SAT-61546,21.588831832831804,36.35527846749063,887.9497181582503,4.6251999572357025,-161994.06707881516,10.5,10499838005.93292,47.655,-122.3035,60.0,6.333333333333333
2026-01-20T23:06:21+00:00,SAT-61546,21.612612417354995,35.98918796967246,892.5625842489334,4.65650458368811,-163090.48751561707,10.5,10499836909.512484,47.655,-122.3035,60.0,6.35
2026-01-20T23:06:22+00:00,SAT-61546,21.635515433272744,35.62659041906041,897.206671487065,4.6873206182258125,-164169.79539682425,10.5,10499835830.204603,47.655,-122.3035,60.0,6.366666666666666
2026-01-20T23:06:23+00:00,SAT-61546,21.657566295273718,35.267455633232146,901.8814925836423,4.71765493423937,-165232.23145764857,10.5,10499834767.768543,47.655,-122.3035,60.0,6.383333333333334
2026-01-20T23:06:24+00:00,SAT-61546,21.67878944300407,34.91175307746861,906.5865671047235,4.747514327984286,-166278.03373170583,10.5,10499833721.966269,47.655,-122.3035,60.0,6.4
2026-01-20T23:06:25+00:00,SAT-61546,21.69920838708233,34.55945190660017,911.3214213944999,4.776905638722003,-167307.4417588618,10.5,10499832692.55824,47.655,-122.3035,60.0,6.416666666666667
2026-01-20T23:06:26+00:00,SAT-61546,21.71884575291784,34.21052099606051,916.0855886181854,4.805835662931385,-168320.69358055547,10.5,10499831679.30642,47.655,-122.3035,60.0,6.433333333333334
2026-01-20T23:06:27+00:00,SAT-61546,21.737723321857167,33.86492897734447,920.8786087193489,4.8343111360397515,-169318.0250999423,10.5,10499830681.9749,47.655,-122.3035,60.0,6.45
2026-01-20T23:06:28+00:00,SAT-61546,21.75586206996523,33.52264427287872,925.7000283590259,4.86233879439518,-170299.67225242668,10.5,10499829700.327747,47.655,-122.3035,60.0,6.466666666666667
2026-01-20T23:06:29+00:00,SAT-61546,21.77328220496971,33.1836351246214,930.549400916636,4.889925342632207,-171265.8698626707,10.5,10499828734.130136,47.655,-122.3035,60.0,6.483333333333333
2026-01-20T23:06:30+00:00,SAT-61546,21.790003201006034,32.84786962347462,935.4262864583545,4.917077386447428,-172216.8492901112,10.5,10499827783.15071,47.655,-122.3035,60.0,6.5
2026-01-20T23:06:31+00:00,SAT-61546,21.80604383143228,32.515315741394474,940.3302516384381,4.94380154972014,-173152.84253102017,10.5,10499826847.157469,47.655,-122.3035,60.0,6.516666666666667
2026-01-20T23:06:32+00:00,SAT-61546,21.821422200150195,32.18594135408692,945.260869717359,4.970104385691295,-174074.07910761583,10.5,10499825925.920893,47.655,-122.3035,60.0,6.533333333333333
2026-01-20T23:06:33+00:00,SAT-61546,21.836155771063506,31.859714268181282,950.2177204913551,4.995992378815689,-174980.78613293445,10.5,10499825019.213867,47.655,-122.3035,60.0,6.55
2026-01-20T23:06:34+00:00,SAT-61546,21.850261396010637,31.53660224673057,955.2003902238273,5.021471978725539,-175873.18950037815,10.5,10499824126.8105,47.655,-122.3035,60.0,6.566666666666666
2026-01-20T23:06:35+00:00,SAT-61546,21.863755341344326,31.216573031071064,960.2084716106095,5.046549556877422,-176751.5123653075,10.5,10499823248.487635,47.655,-122.3035,60.0,6.583333333333333
2026-01-20T23:06:36+00:00,SAT-61546,21.8766533130262,30.899594364148204,965.2415637020019,5.071231448860438,-177615.9766268523,10.5,10499822384.023373,47.655,-122.3035,60.0,6.6
2026-01-20T23:06:37+00:00,SAT-61546,21.88897048057999,30.585634009823004,970.2992718669988,5.095523907401496,-178466.80128195792,10.5,10499821533.198717,47.655,-122.3035,60.0,6.616666666666666
2026-01-20T23:06:38+00:00,SAT-61546,21.90072149968563,30.27465977392448,975.3812077106472,5.119433141830755,-179304.2038076319,10.5,10499820695.796192,47.655,-122.3035,60.0,6.633333333333334
