satellites_20260121_005943/SAT-53543.csv

timestamp,satellite,azimuth_deg,elevation_deg,distance_km,relative_velocity_kms,doppler_shift_hz,tx_freq_ghz,rx_freq_hz,ue_lat,ue_lon,ue_alt_m,time_minutes
2026-01-20T23:08:05+00:00,SAT-53543,178.5509616455644,30.024257986596748,933.2133290226577,-4.890756885224558,171294.99400167653,10.5,10500171294.994001,47.655,-122.3035,60.0,8.083333333333334
2026-01-20T23:08:06+00:00,SAT-53543,178.49825405874174,30.355464074488307,928.3356141557938,-4.864031995265424,170358.9753091352,10.5,10500170358.97531,47.655,-122.3035,60.0,8.1
2026-01-20T23:08:07+00:00,SAT-53543,178.4449850008506,30.689881980993682,923.4845529125157,-4.836878575952131,169407.94770593385,10.5,10500169407.947706,47.655,-122.3035,60.0,8.116666666666667
2026-01-20T23:08:08+00:00,SAT-53543,178.39113932558917,31.027544178728064,918.6605726794328,-4.8092900399487934,168441.6804757054,10.5,10500168441.680475,47.655,-122.3035,60.0,8.133333333333333
2026-01-20T23:08:09+00:00,SAT-53543,178.33670134277676,31.368483042658664,913.8641074129238,-4.78125974613412,167459.94101829026,10.5,10500167459.94102,47.655,-122.3035,60.0,8.15
2026-01-20T23:08:10+00:00,SAT-53543,178.28165479385822,31.712730822098216,909.0955976927794,-4.752781017743588,166462.49548515218,10.5,10500166462.495485,47.655,-122.3035,60.0,8.166666666666666
2026-01-20T23:08:11+00:00,SAT-53543,178.2259828258787,32.06031961226231,904.3554907577499,-4.723847093938638,165449.10708312647,10.5,10500165449.107082,47.655,-122.3035,60.0,8.183333333333334
2026-01-20T23:08:12+00:00,SAT-53543,178.1696679647412,32.411281320733714,899.644240589395,-4.694451258338761,164419.5405761575,10.5,10500164419.540577,47.655,-122.3035,60.0,8.2
2026-01-20T23:08:13+00:00,SAT-53543,178.11269208529907,32.76564764126612,894.9623078677452,-4.6645867189624575,163373.55808032304,10.5,10500163373.55808,47.655,-122.3035,60.0,8.216666666666667
2026-01-20T23:08:14+00:00,SAT-53543,178.05503638146672,33.1234500173788,890.3101600466999,-4.634246663098065,162310.92098564297,10.5,10500162310.920986,47.655,-122.3035,60.0,8.233333333333333
2026-01-20T23:08:15+00:00,SAT-53543,177.99668133389187,33.4847196078182,885.6882713747035,-4.603424270824954,161231.39042964854,10.5,10500161231.39043,47.655,-122.3035,60.0,8.25
2026-01-20T23:08:16+00:00,SAT-53543,177.9376066757707,33.84948725126354,881.0971229019341,-4.572112712031672,160134.72719294543,10.5,10500160134.727194,47.655,-122.3035,60.0,8.266666666666667
2026-01-20T23:08:17+00:00,SAT-53543,177.87779135667947,34.21778342872735,876.5372024904678,-4.540305124815458,159020.6909426731,10.5,10500159020.690943,47.655,-122.3035,60.0,8.283333333333333
2026-01-20T23:08:18+00:00,SAT-53543,177.8172135047988,34.58963822227771,872.0090048459853,-4.50799470833527,157889.04348461074,10.5,10500157889.043484,47.655,-122.3035,60.0,8.3
2026-01-20T23:08:19+00:00,SAT-53543,177.75585038558998,34.96508127890877,867.5130314568721,-4.47517458468349,156739.54392534,10.5,10500156739.543926,47.655,-122.3035,60.0,8.316666666666666
2026-01-20T23:08:20+00:00,SAT-53543,177.693678360148,35.34414176123581,863.0497906710812,-4.44183796499248,155571.95448999933,10.5,10500155571.95449,47.655,-122.3035,60.0,8.333333333333334
2026-01-20T23:08:21+00:00,SAT-53543,177.63067283871624,35.72684830927359,858.6197976073287,-4.407978030741754,154386.03636515903,10.5,10500154386.036366,47.655,-122.3035,60.0,8.35
2026-01-20T23:08:22+00:00,SAT-53543,177.56680823323853,36.113228990245226,854.2235741846688,-4.373588028215835,153181.5530071349,10.5,10500153181.553007,47.655,-122.3035,60.0,8.366666666666667
2026-01-20T23:08:23+00:00,SAT-53543,177.50205790567338,36.50331125380169,849.8616490578617,-4.338661216466618,151958.26831941013,10.5,10500151958.26832,47.655,-122.3035,60.0,8.383333333333333
2026-01-20T23:08:24+00:00,SAT-53543,177.43639411411115,36.897121880488,845.5345576046388,-4.303190898336117,150715.94773918306,10.5,10500150715.947739,47.655,-122.3035,60.0,8.4
2026-01-20T23:08:25+00:00,SAT-53543,177.3697879550911,37.294686930156026,841.2428418820316,-4.267170465013621,149454.35979794734,10.5,10500149454.359798,47.655,-122.3035,60.0,8.416666666666666
2026-01-20T23:08:26+00:00,SAT-53543,177.30220930171822,37.69603169191918,836.987050538258,-4.230593338869223,148173.27411928037,10.5,10500148173.274118,47.655,-122.3035,60.0,8.433333333333334
2026-01-20T23:08:27+00:00,SAT-53543,177.23362673892908,38.10118062630316,832.7677387816259,-4.193453016432066,146872.46292412298,10.5,10500146872.462925,47.655,-122.3035,60.0,8.45
2026-01-20T23:08:28+00:00,SAT-53543,177.16400749404926,38.51015730850226,828.5854683065709,-4.155743109922569,145551.702485414,10.5,10500145551.702486,47.655,-122.3035,60.0,8.466666666666667
2026-01-20T23:08:29+00:00,SAT-53543,177.0933173622093,38.922984372784605,824.4408071782749,-4.117457307768193,144210.77174518522,10.5,10500144210.771746,47.655,-122.3035,60.0,8.483333333333333
2026-01-20T23:08:30+00:00,SAT-53543,177.02152062777975,39.33968345050495,820.3343297566607,-4.078589388031252,142849.45278486004,10.5,10500142849.452785,47.655,-122.3035,60.0,8.5
2026-01-20T23:08:31+00:00,SAT-53543,176.94857998054366,39.7602751062962,816.2666166069976,-4.039133276469962,141467.53285879726,10.5,10500141467.532858,47.655,-122.3035,60.0,8.516666666666667
2026-01-20T23:08:32+00:00,SAT-53543,176.87445642532168,40.184778777104064,812.2382543525981,-3.9990830234734025,140064.80358645556,10.5,10500140064.803587,47.655,-122.3035,60.0,8.533333333333333
2026-01-20T23:08:33+00:00,SAT-53543,176.79910918606996,40.61321270603385,808.2498355505206,-3.958432821525852,138641.06156406857,10.5,10500138641.061563,47.655,-122.3035,60.0,8.55
2026-01-20T23:08:34+00:00,SAT-53543,176.7224956033643,41.04559387503191,804.3019585498522,-3.9171769940348407,137196.10797335612,10.5,10500137196.107973,47.655,-122.3035,60.0,8.566666666666666
2026-01-20T23:08:35+00:00,SAT-53543,176.6445710251387,41.481937933064096,800.3952273611349,-3.8753100925641504,135729.7519870349,10.5,10500135729.751987,47.655,-122.3035,60.0,8.583333333333334
2026-01-20T23:08:36+00:00,SAT-53543,176.56528868801433,41.922259131792146,796.5302514288176,-3.8328267916428516,134241.80708458633,10.5,10500134241.807085,47.655,-122.3035,60.0,8.6
2026-01-20T23:08:37+00:00,SAT-53543,176.48459959269817,42.366570246726525,792.7076455086191,-3.7897220153588,132732.0954860959,10.5,10500132732.095486,47.655,-122.3035,60.0,8.616666666666667
2026-01-20T23:08:38+00:00,SAT-53543,176.40245236789602,42.81488250912472,788.9280294186345,-3.7459908419132977,131200.44480935417,10.5,10500131200.444809,47.655,-122.3035,60.0,8.633333333333333
2026-01-20T23:08:39+00:00,SAT-53543,176.31879312681718,43.26720552393758,785.1920278856329,-3.701628660680447,129646.69357073918,10.5,10500129646.693571,47.655,-122.3035,60.0,8.65
2026-01-20T23:08:40+00:00,SAT-53543,176.23356530970295,43.72354720276061,781.5002702347144,-3.656631023852085,128070.68598919487,10.5,10500128070.68599,47.655,-122.3035,60.0,8.666666666666666
2026-01-20T23:08:41+00:00,SAT-53543,176.14670951850871,44.18391367625187,777.8533902269259,-3.610993795547551,126472.27720868579,10.5,10500126472.277208,47.655,-122.3035,60.0,8.683333333333334
2026-01-20T23:08:42+00:00,SAT-53543,176.05816333583059,44.64830922100786,774.2520257481665,-3.5647130958176585,124851.33133697917,10.5,10500124851.331337,47.655,-122.3035,60.0,8.7
2026-01-20T23:08:43+00:00,SAT-53543,175.96786113163682,45.11673617653711,770.6968185539376,-3.517785349100522,123207.72314277328,10.5,10500123207.723143,47.655,-122.3035,60.0,8.716666666666667
2026-01-20T23:08:44+00:00,SAT-53543,175.87573385427717,45.58919486521962,767.1884139657681,-3.470207291065885,121541.33829541432,10.5,10500121541.338295,47.655,-122.3035,60.0,8.733333333333333
2026-01-20T23:08:45+00:00,SAT-53543,175.7817088051962,46.06568350993703,763.7274605608117,-3.4219759510853427,119852.07275092992,10.5,10500119852.07275,47.655,-122.3035,60.0,8.75
2026-01-20T23:08:46+00:00,SAT-53543,175.68570939675507,46.54619814614264,760.3146098789292,-3.3730887590166936,118139.8364920684,10.5,10500118139.836493,47.655,-122.3035,60.0,8.766666666666667
2026-01-20T23:08:47+00:00,SAT-53543,175.58765488781944,47.03073254511806,756.95051602327,-3.3235434758730986,116404.5511000398,10.5,10500116404.5511,47.655,-122.3035,60.0,8.783333333333333
2026-01-20T23:08:48+00:00,SAT-53543,175.48746010028444,47.519278125091716,753.635835329999,-3.2733382354312917,114646.15121181122,10.5,10500114646.151213,47.655,-122.3035,60.0,8.8
2026-01-20T23:08:49+00:00,SAT-53543,175.38503511138128,48.01182386469376,750.371225996529,-3.2224715809860336,112864.5858074033,10.5,10500112864.585808,47.655,-122.3035,60.0,8.816666666666666
2026-01-20T23:08:50+00:00,SAT-53543,175.28028491951963,48.50835621879695,747.1573476730923,-3.17094248099629,111059.81875788566,10.5,10500111059.818758,47.655,-122.3035,60.0,8.833333333333334
2026-01-20T23:08:51+00:00,SAT-53543,175.173109081595,49.00885903385136,743.994861038712,-3.1187503339934963,109231.8289972849,10.5,10500109231.828997,47.655,-122.3035,60.0,8.85
2026-01-20T23:08:52+00:00,SAT-53543,175.06340131941798,49.51331346127124,740.8844273722757,-3.0658949714831047,107380.61062420922,10.5,10500107380.610624,47.655,-122.3035,60.0,8.866666666666667
2026-01-20T23:08:53+00:00,SAT-53543,174.9510490921841,50.02169786820665,737.8267081207166,-3.012376710907313,105506.17475682724,10.5,10500105506.174757,47.655,-122.3035,60.0,8.883333333333333
2026-01-20T23:08:54+00:00,SAT-53543,174.83593312959363,50.53398775388742,734.8223644143718,-2.9581963627170724,103608.54978055939,10.5,10500103608.54978,47.655,-122.3035,60.0,8.9
2026-01-20T23:08:55+00:00,SAT-53543,174.71792692311098,51.05015566463257,731.8720565752885,-2.9033552270081757,101687.78123025979,10.5,10500101687.78123,47.655,-122.3035,60.0,8.916666666666666
2026-01-20T23:08:56+00:00,SAT-53543,174.5968961715689,51.57017110581898,728.9764436288858,-2.847855124005426,99743.93285790054,10.5,10500099743.932858,47.655,-122.3035,60.0,8.933333333333334
2026-01-20T23:08:57+00:00,SAT-53543,174.47269817460176,52.09400045610946,726.136182785211,-2.791698431518812,97777.08794444565,10.5,10500097777.087944,47.655,-122.3035,60.0,8.95
2026-01-20T23:08:58+00:00,SAT-53543,174.3451811678538,52.62160688603304,723.3519288828429,-2.734888068509465,95787.34872426104,10.5,10500095787.348724,47.655,-122.3035,60.0,8.966666666666667
2026-01-20T23:08:59+00:00,SAT-53543,174.214183595895,53.15295027132186,720.6243338491828,-2.6774275111829384,93774.83694876957,10.5,10500093774.836948,47.655,-122.3035,60.0,8.983333333333333
2026-01-20T23:09:00+00:00,SAT-53543,174.07953331446316,53.687987106532184,717.9540461446965,-2.619320842939085,91739.69563590686,10.5,10500091739.695637,47.655,-122.3035,60.0,9.0
2026-01-20T23:09:01+00:00,SAT-53543,173.94104671185823,54.22667042565977,715.3417101573384,-2.560572730188925,89682.08822312573,10.5,10500089682.088223,47.655,-122.3035,60.0,9.016666666666667
2026-01-20T23:09:02+00:00,SAT-53543,173.79852774415002,54.768949716094646,712.7879656210966,-2.50118846602915,87602.20009706206,10.5,10500087602.200096,47.655,-122.3035,60.0,9.033333333333333
2026-01-20T23:09:03+00:00,SAT-53543,173.65176686999337,55.314770838610684,710.2934469909769,-2.44117394548559,85500.23772645638,10.5,10500085500.237726,47.655,-122.3035,60.0,9.05
2026-01-20T23:09:04+00:00,SAT-53543,173.50053987711453,55.86407593986791,707.8587828426793,-2.3805357204638438,83376.43058675733,10.5,10500083376.430586,47.655,-122.3035,60.0,9.066666666666666
2026-01-20T23:09:05+00:00,SAT-53543,173.34460658213902,56.41680337371702,705.4845952174701,-2.319280988544177,81231.03076767147,10.5,10500081231.030767,47.655,-122.3035,60.0,9.083333333333334
2026-01-20T23:09:06+00:00,SAT-53543,173.18370939202887,56.97288761782793,703.1714989782287,-2.2574175821415734,79064.31259350266,10.5,10500079064.312593,47.655,-122.3035,60.0,9.1
2026-01-20T23:09:07+00:00,SAT-53543,173.01757170980758,57.53225918432453,700.9201011763062,-2.1949540338437394,76876.5749115652,10.5,10500076876.574911,47.655,-122.3035,60.0,9.116666666666667
2026-01-20T23:09:08+00:00,SAT-53543,172.84589615870675,58.09484454260897,698.7310003532193,-2.131899514424811,74668.13892116163,10.5,10500074668.138922,47.655,-122.3035,60.0,9.133333333333333
2026-01-20T23:09:09+00:00,SAT-53543,172.6683626104535,58.66056602365605,696.6047859041663,-2.0682638896212517,72439.35016211495,10.5,10500072439.350163,47.655,-122.3035,60.0,9.15
2026-01-20T23:09:10+00:00,SAT-53543,172.48462598218458,59.22934173368372,694.5420373849174,-2.004057702940172,70190.57791264317,10.5,10500070190.577913,47.655,-122.3035,60.0,9.166666666666666
2026-01-20T23:09:11+00:00,SAT-53543,172.29431377630866,59.80108545877532,692.5433238358518,-1.9392921799116105,67922.21533829217,10.5,10500067922.215338,47.655,-122.3035,60.0,9.183333333333334
2026-01-20T23:09:12+00:00,SAT-53543,172.0970233259001,60.375706564752385,690.6092031017531,-1.8739792384247027,65634.6798539521,10.5,10500065634.679853,47.655,-122.3035,60.0,9.2
2026-01-20T23:09:13+00:00,SAT-53543,171.89231870313566,60.95310989300686,688.7402211412976,-1.8081314688316406,63328.41242701385,10.5,10500063328.412428,47.655,-122.3035,60.0,9.216666666666667
2026-01-20T23:09:14+00:00,SAT-53543,171.67972724547377,61.53319564245622,686.9369113563829,-1.7417621586167875,61003.87844138584,10.5,10500061003.87844,47.655,-122.3035,60.0,9.233333333333333
2026-01-20T23:09:15+00:00,SAT-53543,171.4587356382429,62.11585924890472,685.1997938968557,-1.6748852528667095,58661.56631298727,10.5,10500058661.566313,47.655,-122.3035,60.0,9.25
2026-01-20T23:09:16+00:00,SAT-53543,171.2287854949877,62.700991240357155,683.5293750046634,-1.6075153968850382,56301.988982300885,10.5,10500056301.988983,47.655,-122.3035,60.0,9.266666666666667
2026-01-20T23:09:17+00:00,SAT-53543,170.98926834780085,63.28847709171512,681.9261463155033,-1.5396678759576277,53925.681804694,10.5,10500053925.681805,47.655,-122.3035,60.0,9.283333333333333
2026-01-20T23:09:18+00:00,SAT-53543,170.73951997012315,63.8781970425617,680.3905842205482,-1.471358638203133,51533.203350742384,10.5,10500051533.20335,47.655,-122.3035,60.0,9.3
2026-01-20T23:09:19+00:00,SAT-53543,170.47881391376131,64.47002590116392,678.9231492053804,-1.4026042797725058,49125.134887854016,10.5,10500049125.134888,47.655,-122.3035,60.0,9.316666666666666
2026-01-20T23:09:20+00:00,SAT-53543,170.20635413767906,65.06383281817071,677.5242852036871,-1.3334220253511442,46702.07969737188,10.5,10500046702.079697,47.655,-122.3035,60.0,9.333333333333334
2026-01-20T23:09:21+00:00,SAT-53543,169.92126657908622,65.65948102273148,676.1944189704036,-1.263829706343557,44264.662310508655,10.5,10500044264.66231,47.655,-122.3035,60.0,9.35
2026-01-20T23:09:22+00:00,SAT-53543,169.62258948859494,66.2568275118295,674.9339594766103,-1.1938457661633,41813.528693622604,10.5,10500041813.528694,47.655,-122.3035,60.0,9.366666666666667
2026-01-20T23:09:23+00:00,SAT-53543,169.30926230902307,66.85572269711308,673.7432972991568,-1.123489206114809,39349.344352770524,10.5,10500039349.344353,47.655,-122.3035,60.0,9.383333333333333
2026-01-20T23:09:24+00:00,SAT-53543,168.98011285497398,67.45600997231814,672.6228040642584,-1.0527796048578375,36872.79501543462,10.5,10500036872.795015,47.655,-122.3035,60.0,9.4
2026-01-20T23:09:25+00:00,SAT-53543,168.6338424666797,68.05752522259584,671.5728318716801,-0.9817370580926964,34384.584518044525,10.5,10500034384.584518,47.655,-122.3035,60.0,9.416666666666666
2026-01-20T23:09:26+00:00,SAT-53543,168.26900878646427,68.66009622254137,670.5937127790756,-0.9103821817791927,31885.43491871808,10.5,10500031885.43492,47.655,-122.3035,60.0,9.433333333333334
2026-01-20T23:09:27+00:00,SAT-53543,167.88400568923777,69.26354193502296,669.6857582831145,-0.8387360685195538,29376.084969606927,10.5,10500029376.08497,47.655,-122.3035,60.0,9.45
2026-01-20T23:09:28+00:00,SAT-53543,167.47703983289256,69.86767166363106,668.849258844111,-0.7668202687408323,26857.28945782465,10.5,10500026857.289457,47.655,-122.3035,60.0,9.466666666666667
2026-01-20T23:09:29+00:00,SAT-53543,167.04610315150006,70.47228404318486,668.0844834294202,-0.6946567537294102,24329.817910758804,10.5,10500024329.817911,47.655,-122.3035,60.0,9.483333333333333
2026-01-20T23:09:30+00:00,SAT-53543,166.58894047965305,71.07716582065379,667.3916790937008,-0.62226788707858,21794.453596044405,10.5,10500021794.453596,47.655,-122.3035,60.0,9.5
2026-01-20T23:09:31+00:00,SAT-53543,166.10301129826047,71.6820903870717,666.7710705876543,-0.549676398455764,19251.992602780963,10.5,10500019251.992603,47.655,-122.3035,60.0,9.516666666666667
2026-01-20T23:09:32+00:00,SAT-53543,165.5854443561184,72.28681600663425,666.2228599929277,-0.47690533638800753,16703.242187880787,10.5,10500016703.242188,47.655,-122.3035,60.0,9.533333333333333
2026-01-20T23:09:33+00:00,SAT-53543,165.03298364511897,72.89108365446384,665.7472264041035,-0.40397804545129806,14149.019977142418,10.5,10500014149.019978,47.655,-122.3035,60.0,9.55
2026-01-20T23:09:34+00:00,SAT-53543,164.44192380210654,73.49461439345369,665.34432563344,-0.3309181186923007,11590.152298858557,10.5,10500011590.152298,47.655,-122.3035,60.0,9.566666666666666
2026-01-20T23:09:35+00:00,SAT-53543,163.8080325818464,74.09710615121053,665.0142899630642,-0.2577493728741169,9027.473316817823,10.5,10500009027.473316,47.655,-122.3035,60.0,9.583333333333334
2026-01-20T23:09:36+00:00,SAT-53543,163.12645740542865,74.69822977725157,664.757227921851,-0.1844957969276799,6461.823224854572,10.5,10500006461.823225,47.655,-122.3035,60.0,9.6
2026-01-20T23:09:37+00:00,SAT-53543,162.39161230825815,75.29762415618823,664.5732241137152,-0.1111815227281023,3894.0472233129835,10.5,10500003894.047224,47.655,-122.3035,60.0,9.616666666666667
2026-01-20T23:09:38+00:00,SAT-53543,161.59704060972618,75.89489016298036,664.4623390750478,-0.03783078200958241,1324.9940100248132,10.5,10500001324.99401,47.655,-122.3035,60.0,9.633333333333333
2026-01-20T23:09:39+00:00,SAT-53543,160.73524751307008,76.48958312585586,664.4246091751235,0.03553213406004766,-1244.48563556092,10.5,10499998755.514364,47.655,-122.3035,60.0,9.65
2026-01-20T23:09:40+00:00,SAT-53543,159.79749540086632,77.08120338066269,664.4600465568261,0.10888291349614708,-3813.540204902501,10.5,10499996186.459795,47.655,-122.3035,60.0,9.666666666666666
2026-01-20T23:09:41+00:00,SAT-53543,158.77355284222963,77.66918438655777,664.5686391158863,0.18219726372718079,-6381.318869387296,10.5,10499993618.681131,47.655,-122.3035,60.0,9.683333333333334
2026-01-20T23:09:42+00:00,SAT-53543,157.6513863782004,78.25287766703974,664.7503505202435,0.25545095288325576,-8946.972926430943,10.5,10499991053.027073,47.655,-122.3035,60.0,9.7
2026-01-20T23:09:43+00:00,SAT-53543,156.4167818824505,78.83153366644738,665.0051202705857,0.3286198483545008,-11509.657149954914,10.5,10499988490.34285,47.655,-122.3035,60.0,9.716666666666667
2026-01-20T23:09:44+00:00,SAT-53543,155.0528803447473,79.40427724983556,665.3328637993446,0.40167995785471544,-14068.531228609201,10.5,10499985931.468771,47.655,-122.3035,60.0,9.733333333333333
2026-01-20T23:09:45+00:00,SAT-53543,153.53961156495683,79.97007624425889,665.7334726106451,0.4746074632248459,-16622.760949713025,10.5,10499983377.23905,47.655,-122.3035,60.0,9.75
2026-01-20T23:09:46+00:00,SAT-53543,151.85301030962236,80.52770088629045,666.2068144539679,0.5473787686333097,-19171.5198874341,10.5,10499980828.480112,47.655,-122.3035,60.0,9.766666666666667
2026-01-20T23:09:47+00:00,SAT-53543,149.96440544507016,81.07567148779323,666.752733545885,0.6199705266732083,-21713.9903168234,10.5,10499978286.009684,47.655,-122.3035,60.0,9.783333333333333
2026-01-20T23:09:48+00:00,SAT-53543,147.83948929974392,81.61219092263973,667.3710508178203,0.6923596847207364,-24249.364837482775,10.5,10499975750.635162,47.655,-122.3035,60.0,9.8
2026-01-20T23:09:49+00:00,SAT-53543,145.4373114149001,82.1350580251141,668.0615642100486,0.7645235100301848,-26776.847252498064,10.5,10499973223.152748,47.655,-122.3035,60.0,9.816666666666666
2026-01-20T23:09:50+00:00,SAT-53543,142.70931605063882,82.64155780082642,668.8240489907186,0.8364396342452258,-29295.65412741261,10.5,10499970704.345873,47.655,-122.3035,60.0,9.833333333333334
2026-01-20T23:09:51+00:00,SAT-53543,139.59868408668936,83.12832547389267,669.6582581192725,0.9080860807345295,-31805.015747636182,10.5,10499968194.984253,47.655,-122.3035,60.0,9.85
2026-01-20T23:09:52+00:00,SAT-53543,136.04048839412843,83.59118523197526,670.5639226371251,0.9794412981515467,-34304.17729385054,10.5,10499965695.822706,47.655,-122.3035,60.0,9.866666666666667
2026-01-20T23:09:53+00:00,SAT-53543,131.9635684123099,84.02497405155962,671.5407520918149,1.0504841787914103,-36792.39948494571,10.5,10499963207.600515,47.655,-122.3035,60.0,9.883333333333333
2026-01-20T23:09:54+00:00,SAT-53543,127.2955695307415,84.42338048321609,672.5884349794629,1.121194114044188,-39268.96052022754,10.5,10499960731.03948,47.655,-122.3035,60.0,9.9
2026-01-20T23:09:55+00:00,SAT-53543,121.97309325563788,84.77886255235117,673.7066392425363,1.1915509951929169,-41733.15610736821,10.5,10499958266.843893,47.655,-122.3035,60.0,9.916666666666666
2026-01-20T23:09:56+00:00,SAT-53543,115.95876492006965,85.08275746768497,674.8950127684086,1.261535240330954,-44184.30040516569,10.5,10499955815.699594,47.655,-122.3035,60.0,9.933333333333334
2026-01-20T23:09:57+00:00,SAT-53543,109.26503200634575,85.32573962810422,676.1531839147653,1.3311278344518775,-46621.72742766169,10.5,10499953378.272572,47.655,-122.3035,60.0,9.95
2026-01-20T23:09:58+00:00,SAT-53543,101.97939004379681,85.4987668992481,677.4807620749921,1.4003103390937177,-49044.79138192341,10.5,10499950955.208618,47.655,-122.3035,60.0,9.966666666666667
2026-01-20T23:09:59+00:00,SAT-53543,94.27855029411462,85.59449637876318,678.8773382531815,1.4690649071336168,-51452.867186215124,10.5,10499948547.132814,47.655,-122.3035,60.0,9.983333333333333
2026-01-20T23:10:00+00:00,SAT-53543,86.41623789790827,85.60883350327599,680.3424856538961,1.5373743101732504,-53845.351429151466,10.5,10499946154.648571,47.655,-122.3035,60.0,10.0
2026-01-20T23:10:01+00:00,SAT-53543,78.67951272073378,85.5419921273623,681.8757602992422,1.6052219485350028,-56221.66271980575,10.5,10499943778.33728,47.655,-122.3035,60.0,10.016666666666667
2026-01-20T23:10:02+00:00,SAT-53543,71.32934267833666,85.39852246898162,683.4767016559146,1.6725918643793725,-58581.24214713705,10.5,10499941418.757853,47.655,-122.3035,60.0,10.033333333333333
2026-01-20T23:10:03+00:00,SAT-53543,64.55360588304188,85.1862822433662,685.1448332753222,1.7394687619166187,-60923.5539878875,10.5,10499939076.446012,47.655,-122.3035,60.0,10.05
2026-01-20T23:10:04+00:00,SAT-53543,58.45078065911437,84.91486975926546,686.8796634538737,1.8058379940013227,-63248.08523706719,10.5,10499936751.914762,47.655,-122.3035,60.0,10.066666666666666
2026-01-20T23:10:05+00:00,SAT-53543,53.0415476870432,84.59415949214981,688.680685879891,1.8716856062074891,-65554.34715165061,10.5,10499934445.65285,47.655,-122.3035,60.0,10.083333333333334
2026-01-20T23:10:06+00:00,SAT-53543,48.29344296934386,84.23330865076362,690.547380324482,1.936998306046951,-67841.87417247496,10.5,10499932158.125828,47.655,-122.3035,60.0,10.1
2026-01-20T23:10:07+00:00,SAT-53543,44.145276467213,83.84027182838734,692.4792133017128,2.001763490815234,-70110.22489952018,10.5,10499929889.7751,47.655,-122.3035,60.0,10.116666666666667
2026-01-20T23:10:08+00:00,SAT-53543,40.5251399311969,83.42168448263473,694.4756387565525,2.0659692372820673,-72358.98173082696,10.5,10499927641.018269,47.655,-122.3035,60.0,10.133333333333333
2026-01-20T23:10:09+00:00,SAT-53543,37.36135466996449,82.98295146451034,696.5360987425352,2.129604321646377,-74587.75156140506,10.5,10499925412.248438,47.655,-122.3035,60.0,10.15
2026-01-20T23:10:10+00:00,SAT-53543,34.58804631924229,82.52842042307222,698.6600241193238,2.1926581851958784,-76796.16458048696,10.5,10499923203.835419,47.655,-122.3035,60.0,10.166666666666666
2026-01-20T23:10:11+00:00,SAT-53543,32.147329832946546,82.06157115488136,700.8468352160259,2.2551209552159968,-78983.87500384671,10.5,10499921016.124996,47.655,-122.3035,60.0,10.183333333333334
2026-01-20T23:10:12+00:00,SAT-53543,29.989623297068682,81.58518868643664,703.0959425153612,2.316983451669401,-81150.56130774548,10.5,10499918849.438692,47.655,-122.3035,60.0,10.2
2026-01-20T23:10:13+00:00,SAT-53543,28.07305842902023,81.10150895791207,705.4067473444928,2.378237147762471,-83295.92484780237,10.5,10499916704.075151,47.655,-122.3035,60.0,10.216666666666667
2026-01-20T23:10:14+00:00,SAT-53543,26.362538409012924,80.61233625266951,707.778642526528,2.43887419063124,-85419.69058350367,10.5,10499914580.309416,47.655,-122.3035,60.0,10.233333333333333
2026-01-20T23:10:15+00:00,SAT-53543,24.82872842062819,80.11913566114566,710.2110130526509,2.4988873781370904,-87521.60626549,10.5,10499912478.393734,47.655,-122.3035,60.0,10.25
2026-01-20T23:10:16+00:00,SAT-53543,23.447111813393168,79.62310503364135,712.703236731113,2.558270172079206,-89601.4428983122,10.5,10499910398.557102,47.655,-122.3035,60.0,10.266666666666667
2026-01-20T23:10:17+00:00,SAT-53543,22.197163080537816,79.12523068913222,715.2546848494,2.617016645504118,-91658.99289498883,10.5,10499908341.007105,47.655,-122.3035,60.0,10.283333333333333
2026-01-20T23:10:18+00:00,SAT-53543,21.061648156940915,78.62633053188873,717.8647227838493,2.6751215154402734,-93694.07122350913,10.5,10499906305.928776,47.655,-122.3035,60.0,10.3
2026-01-20T23:10:19+00:00,SAT-53543,20.026043941815768,78.1270874802693,720.5327106419151,2.732580095649473,-95706.5137519886,10.5,10499904293.486248,47.655,-122.3035,60.0,10.316666666666666
2026-01-20T23:10:20+00:00,SAT-53543,19.078062007487777,77.62807549835068,723.2580038573096,2.7893883215987603,-97696.17812329016,10.5,10499902303.821877,47.655,-122.3035,60.0,10.333333333333334
2026-01-20T23:10:21+00:00,SAT-53543,18.20725995307285,77.12977995835298,726.0399538100507,2.8455426858677226,-99662.94149271456,10.5,10499900337.058508,47.655,-122.3035,60.0,10.35
2026-01-20T23:10:22+00:00,SAT-53543,17.404724999811254,76.63261367380092,728.8779083820895,2.9010402863350926,-101606.70221569907,10.5,10499898393.297785,47.655,-122.3035,60.0,10.366666666666667
2026-01-20T23:10:23+00:00,SAT-53543,16.66281636168634,76.13692958450599,731.7712125609943,2.955878721590171,-103527.37618468306,10.5,10499896472.623816,47.655,-122.3035,60.0,10.383333333333333
2026-01-20T23:10:24+00:00,SAT-53543,15.974955195733815,75.64303087939443,734.7192089393269,3.0100561844847773,-105424.90010569298,10.5,10499894575.099894,47.655,-122.3035,60.0,10.4
2026-01-20T23:10:25+00:00,SAT-53543,15.335452874016742,75.1511790978528,737.7212383073197,3.0635713603600787,-107299.22793381556,10.5,10499892700.772066,47.655,-122.3035,60.0,10.416666666666666
2026-01-20T23:10:26+00:00,SAT-53543,14.739370186498075,74.66160068241862,740.7766401440522,3.116423438416743,-109150.33127142845,10.5,10499890849.668728,47.655,-122.3035,60.0,10.433333333333334
2026-01-20T23:10:27+00:00,SAT-53543,14.182401469840698,74.17449229811707,743.8847531199665,3.1686121030829453,-110978.19906587152,10.5,10499889021.800934,47.655,-122.3035,60.0,10.45
2026-01-20T23:10:28+00:00,SAT-53543,13.66077888980074,73.6900251799994,747.0449155907745,3.2201375030252946,-112782.83652407823,10.5,10499887217.163475,47.655,-122.3035,60.0,10.466666666666667
2026-01-20T23:10:29+00:00,SAT-53543,13.171193061797936,73.20834871174192,750.2564660604585,3.271000250199978,-114564.26507934289,10.5,10499885435.73492,47.655,-122.3035,60.0,10.483333333333333
2026-01-20T23:10:30+00:00,SAT-53543,12.710726951519328,72.72959338523215,753.5187436433246,3.3212013710336876,-116322.52068146999,10.5,10499883677.479319,47.655,-122.3035,60.0,10.5
2026-01-20T23:10:31+00:00,SAT-53543,12.276800617793857,72.25387326946483,756.8310884773688,3.3707423319523824,-118057.65469089958,10.5,10499881942.345308,47.655,-122.3035,60.0,10.516666666666667
2026-01-20T23:10:32+00:00,SAT-53543,11.867124825488903,71.7812880724365,760.1928421631026,3.419624976139694,-119769.73166371914,10.5,10499880230.268335,47.655,-122.3035,60.0,10.533333333333333
2026-01-20T23:10:33+00:00,SAT-53543,11.479661961193969,71.31192488440759,763.6033481393059,3.467851540209962,-121458.82993562367,10.5,10499878541.170065,47.655,-122.3035,60.0,10.55
2026-01-20T23:10:34+00:00,SAT-53543,11.112592966369942,70.8458596502229,767.0619520754086,3.51542461709765,-123125.04032214622,10.5,10499876874.959679,47.655,-122.3035,60.0,10.566666666666666
2026-01-20T23:10:35+00:00,SAT-53543,10.764289261577693,70.38315842623045,770.5680022268607,3.562347154686675,-124768.46607065108,10.5,10499875231.53393,47.655,-122.3035,60.0,10.583333333333334
2026-01-20T23:10:36+00:00,SAT-53543,10.433288817947204,69.92387845476395,774.1208497891349,3.6086224221919205,-126389.22168287223,10.5,10499873610.778316,47.655,-122.3035,60.0,10.6
2026-01-20T23:10:37+00:00,SAT-53543,10.118275693386634,69.46806909159814,777.719849218201,3.654253993749716,-127987.43234018254,10.5,10499872012.56766,47.655,-122.3035,60.0,10.616666666666667
2026-01-20T23:10:38+00:00,SAT-53543,9.818062470362444,69.01577260863222,781.364358534634,3.699245742909999,-129563.23371068592,10.5,10499870436.766289,47.655,-122.3035,60.0,10.633333333333333
2026-01-20T23:10:39+00:00,SAT-53543,9.531575132641738,68.56702489096705,785.0537396222296,3.7436018301882386,-131116.77151323302,10.5,10499868883.228487,47.655,-122.3035,60.0,10.65
2026-01-20T23:10:40+00:00,SAT-53543,9.257840001097561,68.1218560459026,788.787358514204,3.7873266576820432,-132648.19992790296,10.5,10499867351.800072,47.655,-122.3035,60.0,10.666666666666666
2026-01-20T23:10:41+00:00,SAT-53543,8.995972415082273,67.6802909414879,792.5645856341323,3.830424885074366,-134157.68215650323,10.5,10499865842.317844,47.655,-122.3035,60.0,10.683333333333334
2026-01-20T23:10:42+00:00,SAT-53543,8.745166892893526,67.24234967826412,796.3847960528465,3.872901394483756,-135645.38919147672,10.5,10499864354.61081,47.655,-122.3035,60.0,10.7
2026-01-20T23:10:43+00:00,SAT-53543,8.50468855624703,66.80804800988108,800.2473697102782,3.9147612921229324,-137111.4998739921,10.5,10499862888.500126,47.655,-122.3035,60.0,10.716666666666667
2026-01-20T23:10:44+00:00,SAT-53543,8.273865633442627,66.3773977158841,804.1516916389555,3.956009876488166,-138556.19977980148,10.5,10499861443.80022,47.655,-122.3035,60.0,10.733333333333333
2026-01-20T23:10:45+00:00,SAT-53543,8.052082889538735,65.95040693709919,808.097152155773,3.9966526276115752,-139979.68084281005,10.5,10499860020.319157,47.655,-122.3035,60.0,10.75
2026-01-20T23:10:46+00:00,SAT-53543,7.838775852853972,65.52708047647803,812.0831470430443,4.036695192179179,-141382.14083384775,10.5,10499858617.859167,47.655,-122.3035,60.0,10.766666666666667
2026-01-20T23:10:47+00:00,SAT-53543,7.633425728588999,65.10742007052828,816.1090777147109,4.076143387917219,-142763.78351429643,10.5,10499857236.216486,47.655,-122.3035,60.0,10.783333333333333
2026-01-20T23:10:48+00:00,SAT-53543,7.435554906168447,64.69142463313932,820.174351386927,4.11500317665371,-144124.81769259172,10.5,10499855875.182308,47.655,-122.3035,60.0,10.8
2026-01-20T23:10:49+00:00,SAT-53543,7.244722982936273,64.27909047851344,824.2783812217764,4.1532806340952515,-145465.45616567892,10.5,10499854534.543835,47.655,-122.3035,60.0,10.816666666666666
2026-01-20T23:10:50+00:00,SAT-53543,7.060523237067908,63.870411526101066,828.4205864408474,4.190981968780188,-146785.916382833,10.5,10499853214.083616,47.655,-122.3035,60.0,10.833333333333334
2026-01-20T23:10:51+00:00,SAT-53543,6.882579490018632,63.465379484929684,832.6003924577108,4.228113489568564,-148086.41930701912,10.5,10499851913.580692,47.655,-122.3035,60.0,10.85
2026-01-20T23:10:52+00:00,SAT-53543,6.71054331166499,63.06398402465914,836.8172309779738,4.264681615741071,-149367.18976860069,10.5,10499850632.810232,47.655,-122.3035,60.0,10.866666666666667
2026-01-20T23:10:53+00:00,SAT-53543,6.544091523973633,62.66621293088083,841.0705401094064,4.300692830108928,-150628.45482304879,10.5,10499849371.545177,47.655,-122.3035,60.0,10.883333333333333
2026-01-20T23:10:54+00:00,SAT-53543,6.38292396893227,62.2720522516639,845.3597644253016,4.336153700814592,-151870.44451449547,10.5,10499848129.555485,47.655,-122.3035,60.0,10.9
2026-01-20T23:10:55+00:00,SAT-53543,6.226761506536088,61.88148643004062,849.6843550495806,4.371070879602674,-153093.3918151739,10.5,10499846906.608185,47.655,-122.3035,60.0,10.916666666666666
2026-01-20T23:10:56+00:00,SAT-53543,6.075344216693481,61.49449842602509,854.0437697401711,4.405451009652118,-154297.5293973114,10.5,10499845702.470602,47.655,-122.3035,60.0,10.933333333333334
2026-01-20T23:10:57+00:00,SAT-53543,5.928429784030019,61.11106983715925,858.4374728804642,4.439300881887587,-155483.0951078151,10.5,10499844516.904892,47.655,-122.3035,60.0,10.95
2026-01-20T23:10:58+00:00,SAT-53543,5.78579203716597,60.73118099621042,862.8649356266668,4.472627238055473,-156650.3250711613,10.5,10499843349.674929,47.655,-122.3035,60.0,10.966666666666667
2026-01-20T23:10:59+00:00,SAT-53543,5.6472196355890185,60.35481107839491,867.325635858754,4.505436879324494,-157799.45749304738,10.5,10499842200.542507,47.655,-122.3035,60.0,10.983333333333333
2026-01-20T23:11:00+00:00,SAT-53543,5.512514878819473,59.981938191444314,871.8190582397336,4.537736631862063,-158930.7314547308,10.5,10499841069.268545,47.655,-122.3035,60.0,11.0
2026-01-20T23:11:01+00:00,SAT-53543,5.381492628599391,59.61253946202597,876.3446942405774,4.569533332457894,-160044.386409507,10.5,10499839955.61359,47.655,-122.3035,60.0,11.016666666666667
2026-01-20T23:11:02+00:00,SAT-53543,5.253979331419588,59.24659111713834,880.9020421508155,4.600833819926327,-161140.66188158217,10.5,10499838859.338118,47.655,-122.3035,60.0,11.033333333333333
2026-01-20T23:11:03+00:00,SAT-53543,5.129812130476218,58.88406856048411,885.4906070805553,4.631644950271844,-162219.79799723436,10.5,10499837780.202003,47.655,-122.3035,60.0,11.05
2026-01-20T23:11:04+00:00,SAT-53543,5.008838057281333,58.52494644229484,890.1099009776265,4.661973544902001,-163282.03367101055,10.5,10499836717.96633,47.655,-122.3035,60.0,11.066666666666666
2026-01-20T23:11:05+00:00,SAT-53543,4.890913296128387,58.16919872842453,894.7594425930754,4.691826449597812,-164327.6086711195,10.5,10499835672.391329,47.655,-122.3035,60.0,11.083333333333334
2026-01-20T23:11:06+00:00,SAT-53543,4.775902511612656,57.81679876021748,899.4387575054743,4.72121044793025,-165356.7605869112,10.5,10499834643.239412,47.655,-122.3035,60.0,11.1
2026-01-20T23:11:07+00:00,SAT-53543,4.663678236008329,57.467719316881755,904.1473780588767,4.750132341685902,-166369.72764572335,10.5,10499833630.272354,47.655,-122.3035,60.0,11.116666666666667
2026-01-20T23:11:08+00:00,SAT-53543,4.554120307088624,57.12193266771639,908.8848433809848,4.778598879437564,-167366.74621112194,10.5,10499832633.253788,47.655,-122.3035,60.0,11.133333333333333
2026-01-20T23:11:09+00:00,SAT-53543,4.447115354528967,56.77941062615481,913.6506993300771,4.8066167948746985,-168348.05212539516,10.5,10499831651.947874,47.655,-122.3035,60.0,11.15
2026-01-20T23:11:10+00:00,SAT-53543,4.342556328131019,56.4401245974489,918.4444984801655,4.834192784473513,-169313.87992746595,10.5,10499830686.120073,47.655,-122.3035,60.0,11.166666666666666
2026-01-20T23:11:11+00:00,SAT-53543,4.240342064967896,56.104045624872086,923.2658000838804,4.861333454419763,-170264.46099390372,10.5,10499829735.539005,47.655,-122.3035,60.0,11.183333333333334
2026-01-20T23:11:12+00:00,SAT-53543,4.140376892441267,55.771144436550266,928.1141699824217,4.888045457868243,-171200.028346332,10.5,10499828799.971653,47.655,-122.3035,60.0,11.2
2026-01-20T23:11:13+00:00,SAT-53543,4.042570260362123,55.44139147988757,932.9891806524023,4.91433532506575,-172120.8107016167,10.5,10499827879.189299,47.655,-122.3035,60.0,11.216666666666667
2026-01-20T23:11:14+00:00,SAT-53543,3.946836405057895,55.11475696526371,937.8904110832678,4.940209572763813,-173027.0363039621,10.5,10499826972.963696,47.655,-122.3035,60.0,11.233333333333333
2026-01-20T23:11:15+00:00,SAT-53543,3.8530940375352736,54.79121089959787,942.8174467638377,4.965674634351689,-173918.93047787328,10.5,10499826081.069523,47.655,-122.3035,60.0,11.25
2026-01-20T23:11:16+00:00,SAT-53543,3.761266056785576,54.47072312233327,947.7698795991645,4.990736902709583,-174796.71712905672,10.5,10499825203.282871,47.655,-122.3035,60.0,11.266666666666667
2026-01-20T23:11:17+00:00,SAT-53543,3.671279283996399,54.153263336339975,952.7473078701335,5.01540272481389,-175660.6185554736,10.5,10499824339.381445,47.655,-122.3035,60.0,11.283333333333333
2026-01-20T23:11:18+00:00,SAT-53543,3.5830642167959526,53.83880113717386,957.7493361876811,5.0396783815345705,-176510.85473975798,10.5,10499823489.14526,47.655,-122.3035,60.0,11.3
2026-01-20T23:11:19+00:00,SAT-53543,3.496554801912053,53.52730604173618,962.775575426865,5.0635700604066525,-177347.6423955597,10.5,10499822652.357605,47.655,-122.3035,60.0,11.316666666666666
2026-01-20T23:11:20+00:00,SAT-53543,3.4116882248688207,53.218747516718835,967.8256426337772,5.087083912769489,-178171.1969688031,10.5,10499821828.803032,47.655,-122.3035,60.0,11.333333333333334
2026-01-20T23:11:21+00:00,SAT-53543,3.3284047139439084,52.91309500174907,972.8991609894459,5.110226014795587,-178981.73127275158,10.5,10499821018.268726,47.655,-122.3035,60.0,11.35
2026-01-20T23:11:22+00:00,SAT-53543,3.2466473587280054,52.61031793334983,977.9957597348688,5.13300237331786,-179779.45569210258,10.5,10499820220.544308,47.655,-122.3035,60.0,11.366666666666667
2026-01-20T23:11:23+00:00,SAT-53543,3.1663619413288586,52.310385766998856,983.1150741018579,5.155418921222729,-180564.57802163475,10.5,10499819435.421978,47.655,-122.3035,60.0,11.383333333333333
2026-01-20T23:11:24+00:00,SAT-53543,3.0874967794608064,52.01326799798834,988.2567452392907,5.177481536722339,-181337.30414120213,10.5,10499818662.695858,47.655,-122.3035,60.0,11.4
2026-01-20T23:11:25+00:00,SAT-53543,3.0100025800045715,51.718934179819534,993.4204201585817,5.199196005207955,-182097.836679679,10.5,10499817902.16332,47.655,-122.3035,60.0,11.416666666666666
2026-01-20T23:11:26+00:00,SAT-53543,2.9338323031525997,51.427353943487724,998.6057516411091,5.220568037010338,-182846.37563700337,10.5,10499817153.624363,47.655,-122.3035,60.0,11.433333333333334
2026-01-20T23:11:27+00:00,SAT-53543,2.858941035364161,51.13849701451659,1003.812398163354,5.241603282557786,-183583.1189150754,10.5,10499816416.881084,47.655,-122.3035,60.0,11.45
2026-01-20T23:11:28+00:00,SAT-53543,2.7852858706634644,50.85233322796645,1009.0400238371583,5.262307331326273,-184308.26228098728,10.5,10499815691.737719,47.655,-122.3035,60.0,11.466666666666667
2026-01-20T23:11:29+00:00,SAT-53543,2.7128257997876397,50.56883254248586,1014.2882983489344,5.282685665731848,-185021.9977521396,10.5,10499814978.002249,47.655,-122.3035,60.0,11.483333333333333
2026-01-20T23:11:30+00:00,SAT-53543,2.6415216070824705,50.28796505585929,1019.556896852891,5.3027437018732195,-185724.51502321917,10.5,10499814275.484978,47.655,-122.3035,60.0,11.5
2026-01-20T23:11:31+00:00,SAT-53543,2.5713357736139497,50.00970101729072,1024.8454999048924,5.322486788547582,-186416.0014317292,10.5,10499813583.998568,47.655,-122.3035,60.0,11.516666666666667
2026-01-20T23:11:32+00:00,SAT-53543,2.5022323864338625,49.73401083887834,1030.1537933953373,5.34192019461272,-187096.64151535646,10.5,10499812903.358484,47.655,-122.3035,60.0,11.533333333333333
2026-01-20T23:11:33+00:00,SAT-53543,2.4341770537868688,49.460865106889806,1035.481468469431,5.361049111909266,-187766.61711432145,10.5,10499812233.382885,47.655,-122.3035,60.0,11.55
2026-01-20T23:11:34+00:00,SAT-53543,2.3671368255370058,49.19023459208051,1040.8282214503752,5.379878652242902,-188426.10726568202,10.5,10499811573.892735,47.655,-122.3035,60.0,11.566666666666666
2026-01-20T23:11:35+00:00,SAT-53543,2.301080118604492,48.92209025936863,1046.1937537595454,5.398413868700353,-189075.28894990985,10.5,10499810924.71105,47.655,-122.3035,60.0,11.583333333333334
2026-01-20T23:11:36+00:00,SAT-53543,2.2359766467092634,48.65640327574251,1051.5777718579295,5.416659712115801,-189714.33556615995,10.5,10499810285.664434,47.655,-122.3035,60.0,11.6
2026-01-20T23:11:37+00:00,SAT-53543,2.1717973548994456,48.39314501963658,1056.9799871441462,5.434621074289127,-190343.4184459565,10.5,10499809656.581554,47.655,-122.3035,60.0,11.616666666666667
2026-01-20T23:11:38+00:00,SAT-53543,2.108514357490594,48.13228708752857,1062.4001158955705,5.4523027638839725,-190962.7060090408,10.5,10499809037.293991,47.655,-122.3035,60.0,11.633333333333333
2026-01-20T23:11:39+00:00,SAT-53543,2.0461008800423297,47.87380130109169,1067.8378791854175,5.469709522209228,-191572.36431610596,10.5,10499808427.635683,47.655,-122.3035,60.0,11.65
2026-01-20T23:11:40+00:00,SAT-53543,1.9845312045128554,47.61765971304848,1073.2930028155674,5.486846031063666,-192172.55734354898,10.5,10499807827.442656,47.655,-122.3035,60.0,11.666666666666666
2026-01-20T23:11:41+00:00,SAT-53543,1.9237806176258416,47.36383461211595,1078.765217257215,5.50371683596515,-192763.4442946329,10.5,10499807236.555706,47.655,-122.3035,60.0,11.683333333333334
2026-01-20T23:11:42+00:00,SAT-53543,1.8638253629077763,47.11229853103752,1084.2542575149507,5.520326489262905,-193345.18461188406,10.5,10499806654.815388,47.655,-122.3035,60.0,11.7
2026-01-20T23:11:43+00:00,SAT-53543,1.8046425941531106,46.863024247431674,1089.7598631335757,5.53667940793661,-193917.93299661463,10.5,10499806082.067003,47.655,-122.3035,60.0,11.716666666666667
2026-01-20T23:11:44+00:00,SAT-53543,1.746210332849294,46.61598479084125,1095.2817780630912,5.552779984871376,-194481.84330624304,10.5,10499805518.156694,47.655,-122.3035,60.0,11.733333333333333
2026-01-20T23:11:45+00:00,SAT-53543,1.6885074270080491,46.37115344421706,1100.8197506346696,5.5686324821116395,-195037.06481559388,10.5,10499804962.935184,47.655,-122.3035,60.0,11.75
2026-01-20T23:11:46+00:00,SAT-53543,1.631513513205101,46.128503749855355,1106.3735334301623,5.584241153527375,-195583.7465131876,10.5,10499804416.253487,47.655,-122.3035,60.0,11.766666666666667
2026-01-20T23:11:47+00:00,SAT-53543,1.575208979697196,45.888009509454506,1111.9428832739468,5.599610143548262,-196122.03355448242,10.5,10499803877.966446,47.655,-122.3035,60.0,11.783333333333333
2026-01-20T23:11:48+00:00,SAT-53543,1.5195749323996048,45.649644788360796,1117.5275611237792,5.61474355095098,-196652.06949597542,10.5,10499803347.930504,47.655,-122.3035,60.0,11.8
2026-01-20T23:11:49+00:00,SAT-53543,1.464593162207256,45.41338391666966,1123.1273320252608,5.629645346766588,-197173.9934199718,10.5,10499802826.00658,47.655,-122.3035,60.0,11.816666666666666
2026-01-20T23:11:50+00:00,SAT-53543,1.4102461147273087,45.179201493527465,1128.741964984436,5.644319525828882,-197687.94524244923,10.5,10499802312.054758,47.655,-122.3035,60.0,11.833333333333334
2026-01-20T23:11:51+00:00,SAT-53543,1.356516860412409,44.947072384720364,1134.3712329915295,5.658769937573277,-198194.05978691904,10.5,10499801805.940212,47.655,-122.3035,60.0,11.85
2026-01-20T23:11:52+00:00,SAT-53543,1.3033890676376327,44.716971727167355,1140.0149128759356,5.673000418094299,-198692.47140963812,10.5,10499801307.528591,47.655,-122.3035,60.0,11.866666666666667
2026-01-20T23:11:53+00:00,SAT-53543,1.2508469761420378,44.4888749276181,1145.672785292915,5.687014678609248,-199183.31009313487,10.5,10499800816.689907,47.655,-122.3035,60.0,11.883333333333333
2026-01-20T23:11:54+00:00,SAT-53543,1.1988753727340837,44.262757665717594,1151.3446345990483,5.700816433891823,-199666.70594449755,10.5,10499800333.294056,47.655,-122.3035,60.0,11.9
2026-01-20T23:11:55+00:00,SAT-53543,1.1474595672578722,44.03859589162597,1157.030248855783,5.714409285000531,-200142.7850880277,10.5,10499799857.214912,47.655,-122.3035,60.0,11.916666666666666
2026-01-20T23:11:56+00:00,SAT-53543,1.0965853706788038,43.816365828203736,1162.7294197160234,5.727796769762446,-200611.6714333944,10.5,10499799388.328568,47.655,-122.3035,60.0,11.933333333333334
2026-01-20T23:11:57+00:00,SAT-53543,1.0462390739361722,43.596043970923155,1168.4419423610666,5.7409824022245335,-201073.4880573867,10.5,10499798926.511942,47.655,-122.3035,60.0,11.95
2026-01-20T23:11:58+00:00,SAT-53543,0.9964074275159855,43.37760708611519,1174.1676154768852,5.753969590854403,-201528.35433895816,10.5,10499798471.64566,47.655,-122.3035,60.0,11.966666666666667
2026-01-20T23:11:59+00:00,SAT-53543,0.9470776227129711,43.16103221223224,1179.9062411488305,5.766761747002033,-201976.389758015,10.5,10499798023.610243,47.655,-122.3035,60.0,11.983333333333333
2026-01-20T23:12:00+00:00,SAT-53543,0.8982372729773521,42.94629665681168,1185.6576248645072,5.779362103509528,-202417.70754236265,10.5,10499797582.292458,47.655,-122.3035,60.0,12.0
2026-01-20T23:12:01+00:00,SAT-53543,0.8498743975350689,42.733378000152065,1191.4215753357407,5.791773962519839,-202852.42334701534,10.5,10499797147.576653,47.655,-122.3035,60.0,12.016666666666667
2026-01-20T23:12:02+00:00,SAT-53543,0.8019774040029658,42.52225408953258,1197.1979045676937,5.8040005039073925,-203280.64854462622,10.5,10499796719.351456,47.655,-122.3035,60.0,12.033333333333333
2026-01-20T23:12:03+00:00,SAT-53543,0.7545350732363919,42.31290304053877,1202.9864277369243,5.8160448498029345,-203702.49248542075,10.5,10499796297.507515,47.655,-122.3035,60.0,12.05
2026-01-20T23:12:04+00:00,SAT-53543,0.7075365444234016,42.10530323583411,1208.7869631337942,5.827910076246257,-204118.06290532398,10.5,10499795881.937094,47.655,-122.3035,60.0,12.066666666666666
2026-01-20T23:12:05+00:00,SAT-53543,0.6609713008485651,41.89943332341225,1214.599332116504,5.839599217739074,-204527.4660854219,10.5,10499795472.533915,47.655,-122.3035,60.0,12.083333333333334
2026-01-20T23:12:06+00:00,SAT-53543,0.614829156253452,41.6952722146392,1220.4233590696624,5.851115225565165,-204930.80539215644,10.5,10499795069.194609,47.655,-122.3035,60.0,12.1
2026-01-20T23:12:07+00:00,SAT-53543,0.5691002421860994,41.49279908367462,1226.2588713212926,5.86246102071028,-205328.18313080427,10.5,10499794671.81687,47.655,-122.3035,60.0,12.116666666666667
2026-01-20T23:12:08+00:00,SAT-53543,0.5237749955163074,41.29199336496294,1232.1056991126143,5.873639442020929,-205719.69872977844,10.5,10499794280.30127,47.655,-122.3035,60.0,12.133333333333333
2026-01-20T23:12:09+00:00,SAT-53543,0.4788441469404795,41.092834752454195,1237.9636755161232,5.884653321177718,-206105.45136651184,10.5,10499793894.548634,47.655,-122.3035,60.0,12.15
2026-01-20T23:12:10+00:00,SAT-53543,0.4342987094770477,40.89530319619656,1243.8326364284444,5.895505409026872,-206485.53738727528,10.5,10499793514.462612,47.655,-122.3035,60.0,12.166666666666666
2026-01-20T23:12:11+00:00,SAT-53543,0.39012996799859456,40.69937890141562,1249.712420489714,5.906198400032203,-206860.05116358906,10.5,10499793139.948837,47.655,-122.3035,60.0,12.183333333333334
2026-01-20T23:12:12+00:00,SAT-53543,0.34632946906020234,40.50504232669049,1255.602869027346,5.916734960333673,-207229.08607495247,10.5,10499792770.913925,47.655,-122.3035,60.0,12.2
2026-01-20T23:12:13+00:00,SAT-53543,0.3028890110315823,40.31227418115229,1261.5038260277854,5.927117676236782,-207592.73270472404,10.5,10499792407.267296,47.655,-122.3035,60.0,12.216666666666667
2026-01-20T23:12:14+00:00,SAT-53543,0.2598006349653652,40.12105542336627,1267.4151380568858,5.937349132534312,-207951.08158328076,10.5,10499792048.918417,47.655,-122.3035,60.0,12.233333333333333
2026-01-20T23:12:15+00:00,SAT-53543,0.21705661542479182,39.931367257609274,1273.3366542584,5.947431831348714,-208304.22034553482,10.5,10499791695.779654,47.655,-122.3035,60.0,12.25
2026-01-20T23:12:16+00:00,SAT-53543,0.17464945217648112,39.74319113278803,1279.2682262715318,5.957368243983739,-208652.23554699714,10.5,10499791347.764454,47.655,-122.3035,60.0,12.266666666666667
2026-01-20T23:12:17+00:00,SAT-53543,0.1325718619685946,39.55650873964241,1285.209708200198,5.967160775495671,-208995.21142291228,10.5,10499791004.788578,47.655,-122.3035,60.0,12.283333333333333
2026-01-20T23:12:18+00:00,SAT-53543,0.09081677084897924,39.37130200906415,1291.1609565469591,5.9768118280391205,-209333.23210689565,10.5,10499790666.767893,47.655,-122.3035,60.0,12.3
2026-01-20T23:12:19+00:00,SAT-53543,0.049377306462398636,39.18755310841234,1297.1218302101233,5.986323697739565,-209666.37801897418,10.5,10499790333.62198,47.655,-122.3035,60.0,12.316666666666666
2026-01-20T23:12:20+00:00,SAT-53543,0.008246791274988516,39.00524444104574,1303.0921903780024,5.995698705772635,-209994.73045653693,10.5,10499790005.269543,47.655,-122.3035,60.0,12.333333333333334
2026-01-20T23:12:21+00:00,SAT-53543,359.96741873533904,38.82435864177165,1309.071900553893,6.004939088339106,-210318.36774079426,10.5,10499789681.63226,47.655,-122.3035,60.0,12.35
2026-01-20T23:12:22+00:00,SAT-53543,359.9268868299678,38.64487857572147,1315.0608264713298,6.014047062825717,-210637.36753400924,10.5,10499789362.632465,47.655,-122.3035,60.0,12.366666666666667
2026-01-20T23:12:23+00:00,SAT-53543,359.8866449413514,38.466787335170956,1321.0588360753213,6.023024762713895,-210951.80455972612,10.5,10499789048.19544,47.655,-122.3035,60.0,12.383333333333333
2026-01-20T23:12:24+00:00,SAT-53543,359.8466871047498,38.290068238337355,1327.065799438668,6.031874345020224,-211261.7543657898,10.5,10499788738.245634,47.655,-122.3035,60.0,12.4
2026-01-20T23:12:25+00:00,SAT-53543,359.80700751837855,38.11470482496764,1333.0815887854349,6.040597895844295,-211567.29001623215,10.5,10499788432.709984,47.655,-122.3035,60.0,12.416666666666666
2026-01-20T23:12:26+00:00,SAT-53543,359.7676005380283,37.94068085477571,1339.1060784202236,6.049197442546167,-211868.4825177782,10.5,10499788131.517483,47.655,-122.3035,60.0,12.433333333333334
2026-01-20T23:12:27+00:00,SAT-53543,359.7284606718805,37.76798030548494,1345.1391446695895,6.057674994826031,-212165.40225862962,10.5,10499787834.597742,47.655,-122.3035,60.0,12.45
2026-01-20T23:12:28+00:00,SAT-53543,359.6895825752725,37.596587369695754,1351.1806658644293,6.066032547523723,-212458.11910651566,10.5,10499787541.880894,47.655,-122.3035,60.0,12.466666666666667
2026-01-20T23:12:29+00:00,SAT-53543,359.6509610456888,37.426486451713295,1357.2305223251597,6.074272031383933,-212746.7006842824,10.5,10499787253.299316,47.655,-122.3035,60.0,12.483333333333333
2026-01-20T23:12:30+00:00,SAT-53543,359.61259101819877,37.25766216580936,1363.2885962977932,6.082395332371851,-213031.21304640835,10.5,10499786968.786953,47.655,-122.3035,60.0,12.5
2026-01-20T23:12:31+00:00,SAT-53543,359.5744675609981,37.090099333917294,1369.3547719092787,6.09040433226417,-213311.72210067336,10.5,10499786688.277899,47.655,-122.3035,60.0,12.516666666666667
2026-01-20T23:12:32+00:00,SAT-53543,359.536585870881,36.92378298223128,1375.4289351633238,6.0983008632211115,-213588.29201707826,10.5,10499786411.707983,47.655,-122.3035,60.0,12.533333333333333
2026-01-20T23:12:33+00:00,SAT-53543,359.49894126917104,36.758698339101585,1381.5109738909096,6.106086712724528,-213860.98540079864,10.5,10499786139.014599,47.655,-122.3035,60.0,12.55
2026-01-20T23:12:34+00:00,SAT-53543,359.46152919774266,36.59483083280248,1387.6007777057334,6.113763651464184,-214129.8642688801,10.5,10499785870.13573,47.655,-122.3035,60.0,12.566666666666666
2026-01-20T23:12:35+00:00,SAT-53543,359.42434521509716,36.43216608856206,1393.6982379874603,6.121333406962169,-214394.98912645353,10.5,10499785605.010874,47.655,-122.3035,60.0,12.583333333333334
2026-01-20T23:12:36+00:00,SAT-53543,359.38738499269294,36.27068992634207,1399.8032478386706,6.128797690919432,-214656.4199245267,10.5,10499785343.580076,47.655,-122.3035,60.0,12.6
2026-01-20T23:12:37+00:00,SAT-53543,359.350644311299,36.11038835791115,1405.915702069081,6.136158178336596,-214914.21532870672,10.5,10499785085.784672,47.655,-122.3035,60.0,12.616666666666667
2026-01-20T23:12:38+00:00,SAT-53543,359.3141190575834,35.951247584512195,1412.035497158942,6.1434164877271815,-215168.4320261833,10.5,10499784831.567974,47.655,-122.3035,60.0,12.633333333333333
2026-01-20T23:12:39+00:00,SAT-53543,359.27780522094736,35.793253995057114,1418.1625312027018,6.150574228174437,-215419.12637385822,10.5,10499784580.873627,47.655,-122.3035,60.0,12.65
2026-01-20T23:12:40+00:00,SAT-53543,359.2416988902168,35.63639416312021,1424.2967038996012,6.157633006172994,-215666.35463796902,10.5,10499784333.645363,47.655,-122.3035,60.0,12.666666666666666
2026-01-20T23:12:41+00:00,SAT-53543,359.20579625046275,35.48065484381297,1430.4379165510911,6.164594346446445,-215910.17022078548,10.5,10499784089.829779,47.655,-122.3035,60.0,12.683333333333334
2026-01-20T23:12:42+00:00,SAT-53543,359.1700935802928,35.32602297271193,1436.5860719792804,6.171459787785912,-216150.62701728163,10.5,10499783849.372982,47.655,-122.3035,60.0,12.7
2026-01-20T23:12:43+00:00,SAT-53543,359.1345872488129,35.172485662366014,1442.7410745409654,6.178230819754563,-216387.77719826062,10.5,10499783612.222801,47.655,-122.3035,60.0,12.716666666666667
2026-01-20T23:12:44+00:00,SAT-53543,359.0992737129706,35.02003020045253,1448.9028300785342,6.184908915899536,-216621.67237357626,10.5,10499783378.327627,47.655,-122.3035,60.0,12.733333333333333
2026-01-20T23:12:45+00:00,SAT-53543,359.06414951487767,34.86864404712219,1455.0712459039912,6.191495511809284,-216852.36282360874,10.5,10499783147.637177,47.655,-122.3035,60.0,12.75
2026-01-20T23:12:46+00:00,SAT-53543,359.0292112792991,34.718314832927824,1461.2462307611024,6.197992001479555,-217079.8973719857,10.5,10499782920.102629,47.655,-122.3035,60.0,12.766666666666667
2026-01-20T23:12:47+00:00,SAT-53543,358.9944557112768,34.56903035685566,1467.4276947839114,6.204399816604571,-217304.32616269487,10.5,10499782695.673838,47.655,-122.3035,60.0,12.783333333333333
2026-01-20T23:12:48+00:00,SAT-53543,358.95987959345103,34.42077858248226,1473.6155495343382,6.210720306307323,-217525.69644773015,10.5,10499782474.303553,47.655,-122.3035,60.0,12.8
2026-01-20T23:12:49+00:00,SAT-53543,358.92547978405906,34.27354763708281,1479.8097079198287,6.216954782289312,-217744.05416842666,10.5,10499782255.945831,47.655,-122.3035,60.0,12.816666666666666
2026-01-20T23:12:50+00:00,SAT-53543,358.8912532147665,34.127325809655105,1486.010084156032,6.223104593193771,-217959.44655997516,10.5,10499782040.55344,47.655,-122.3035,60.0,12.833333333333334
2026-01-20T23:12:51+00:00,SAT-53543,358.85719688827413,33.98210154721498,1492.216593803644,6.229171024280286,-218171.91863760297,10.5,10499781828.081362,47.655,-122.3035,60.0,12.85
2026-01-20T23:12:52+00:00,SAT-53543,358.82330787642235,33.83786345352933,1498.4291537051927,6.235155334121319,-218381.51448184144,10.5,10499781618.485518,47.655,-122.3035,60.0,12.866666666666667
2026-01-20T23:12:53+00:00,SAT-53543,358.78958331824686,33.69460028698702,1504.647681958423,6.241058778524105,-218588.27807637208,10.5,10499781411.721924,47.655,-122.3035,60.0,12.883333333333333
2026-01-20T23:12:54+00:00,SAT-53543,358.75602041794826,33.552300957959076,1510.8720979135378,6.24688255979533,-218792.25153106076,10.5,10499781207.748468,47.655,-122.3035,60.0,12.9
2026-01-20T23:12:55+00:00,SAT-53543,358.7226164431932,33.41095452735995,1517.1023221198404,6.252627911027857,-218993.47803403548,10.5,10499781006.521965,47.655,-122.3035,60.0,12.916666666666666
2026-01-20T23:12:56+00:00,SAT-53543,358.68936872307825,33.27055020331982,1523.3382763564389,6.258295990921337,-219191.99816785933,10.5,10499780808.001833,47.655,-122.3035,60.0,12.933333333333334
2026-01-20T23:12:57+00:00,SAT-53543,358.6562746466519,33.1310773402869,1529.579883558051,6.26388795791242,-219387.85250588396,10.5,10499780612.147493,47.655,-122.3035,60.0,12.95
2026-01-20T23:12:58+00:00,SAT-53543,358.6233316611302,32.9925254364704,1535.8270678147421,6.269404961204415,-219581.0812980704,10.5,10499780418.918701,47.655,-122.3035,60.0,12.966666666666667
2026-01-20T23:12:59+00:00,SAT-53543,358.5905372702528,32.85488413153451,1542.0797543627168,6.27484811817566,-219771.72367973457,10.5,10499780228.27632,47.655,-122.3035,60.0,12.983333333333333
2026-01-20T23:13:00+00:00,SAT-53543,358.5578890327494,32.718143204830795,1548.3378695525773,6.280218522157814,-219959.81794397594,10.5,10499780040.182056,47.655,-122.3035,60.0,13.0
2026-01-20T23:13:01+00:00,SAT-53543,358.52538456087245,32.58229257348108,1554.6013408253427,6.285517223857391,-220145.40089098105,10.5,10499779854.59911,47.655,-122.3035,60.0,13.016666666666667
2026-01-20T23:13:02+00:00,SAT-53543,358.49302151901077,32.44732229089259,1560.8700966699366,6.290745347690549,-220328.51190256013,10.5,10499779671.488098,47.655,-122.3035,60.0,13.033333333333333
2026-01-20T23:13:03+00:00,SAT-53543,358.46079762189146,32.313222542801135,1567.1440666966998,6.295903880211981,-220509.1855320316,10.5,10499779490.814468,47.655,-122.3035,60.0,13.05
2026-01-20T23:13:04+00:00,SAT-53543,358.42871063372075,32.17998364791067,1573.423181499898,6.3009938600607684,-220687.45815692958,10.5,10499779312.541843,47.655,-122.3035,60.0,13.066666666666666
2026-01-20T23:13:05+00:00,SAT-53543,358.39675836655687,32.047596054466155,1579.7073727096652,6.306016285737309,-220863.36474896158,10.5,10499779136.63525,47.655,-122.3035,60.0,13.083333333333334
2026-01-20T23:13:06+00:00,SAT-53543,358.36493867912304,31.916050338845842,1585.9965729519738,6.310972154862523,-221036.9402490322,10.5,10499778963.059752,47.655,-122.3035,60.0,13.1
2026-01-20T23:13:07+00:00,SAT-53543,358.33324947550085,31.78533720335164,1592.2907158477567,6.315862436542899,-221208.21859934996,10.5,10499778791.7814,47.655,-122.3035,60.0,13.116666666666667
2026-01-20T23:13:08+00:00,SAT-53543,358.3016887039647,31.655447474615602,1598.589735984469,6.320688072505094,-221377.2327831659,10.5,10499778622.767218,47.655,-122.3035,60.0,13.133333333333333
2026-01-20T23:13:09+00:00,SAT-53543,358.2702543558818,31.52637210200246,1604.8935688887807,6.325450002954917,-221544.01573046454,10.5,10499778455.98427,47.655,-122.3035,60.0,13.15
2026-01-20T23:13:10+00:00,SAT-53543,358.2389444644982,31.398102155513133,1611.202151025061,6.3301491481004915,-221708.5996708268,10.5,10499778291.40033,47.655,-122.3035,60.0,13.166666666666666
2026-01-20T23:13:11+00:00,SAT-53543,358.2077571038865,31.270628824099315,1617.5154197754334,6.334786404881861,-221871.0160188871,10.5,10499778128.98398,47.655,-122.3035,60.0,13.183333333333334
2026-01-20T23:13:12+00:00,SAT-53543,358.17669038790046,31.14394341407551,1623.833313416569,6.339362677485013,-222031.29644306342,10.5,10499777968.703556,47.655,-122.3035,60.0,13.2
2026-01-20T23:13:13+00:00,SAT-53543,358.1457424690632,31.01803734694609,1630.1557711269138,6.343878821622697,-222189.47091403583,10.5,10499777810.529085,47.655,-122.3035,60.0,13.216666666666667
2026-01-20T23:13:14+00:00,SAT-53543,358.11491153770896,30.892902158379975,1636.4827329383456,6.348335700034049,-222345.5696485784,10.5,10499777654.430351,47.655,-122.3035,60.0,13.233333333333333
2026-01-20T23:13:15+00:00,SAT-53543,358.08419582093467,30.76852949610147,1642.8141397431796,6.352734148661564,-222499.62192493322,10.5,10499777500.378075,47.655,-122.3035,60.0,13.25
2026-01-20T23:13:16+00:00,SAT-53543,358.0535935816998,30.64491111848633,1649.1499332674446,6.357075017698468,-222651.6575204634,10.5,10499777348.34248,47.655,-122.3035,60.0,13.266666666666667
2026-01-20T23:13:17+00:00,SAT-53543,358.02310311782503,30.522038892382778,1655.490056085096,6.361359076029431,-222801.7033647625,10.5,10499777198.296635,47.655,-122.3035,60.0,13.283333333333333
2026-01-20T23:13:18+00:00,SAT-53543,357.9927227613657,30.399904792817928,1661.8344515369224,6.365587178636636,-222949.78940292314,10.5,10499777050.210598,47.655,-122.3035,60.0,13.3
2026-01-20T23:13:19+00:00,SAT-53543,357.9624508773746,30.278500899488883,1668.1830638164163,6.369760072178526,-223095.9417860823,10.5,10499776904.058214,47.655,-122.3035,60.0,13.316666666666666
