satellites_20260121_005943/SAT-45189.csv

timestamp,satellite,azimuth_deg,elevation_deg,distance_km,relative_velocity_kms,doppler_shift_hz,tx_freq_ghz,rx_freq_hz,ue_lat,ue_lon,ue_alt_m,time_minutes
2026-01-20T23:08:06+00:00,SAT-45189,200.83079676699742,30.1205694752734,1374.058577179773,-5.484920283128094,192105.10950493955,10.5,10500192105.109505,47.655,-122.3035,60.0,8.1
2026-01-20T23:08:07+00:00,SAT-45189,200.84939425885617,30.320782142689826,1368.5882833507333,-5.4719991434213515,191652.55653604266,10.5,10500191652.556536,47.655,-122.3035,60.0,8.116666666666667
2026-01-20T23:08:08+00:00,SAT-45189,200.86846824979932,30.522381977030857,1363.1308762050278,-5.458916204536427,191194.33667551598,10.5,10500191194.336676,47.655,-122.3035,60.0,8.133333333333333
2026-01-20T23:08:09+00:00,SAT-45189,200.88802749947396,30.72538202805915,1357.68651711037,-5.445669327264508,190730.37499921807,10.5,10500190730.375,47.655,-122.3035,60.0,8.15
2026-01-20T23:08:10+00:00,SAT-45189,200.9080809841875,30.92979543933289,1352.2553695679783,-5.43225624534692,190260.59213318388,10.5,10500190260.592133,47.655,-122.3035,60.0,8.166666666666666
2026-01-20T23:08:11+00:00,SAT-45189,200.92863790324364,31.13563544321756,1346.8375993392856,-5.418674728655605,189784.9099688954,10.5,10500189784.90997,47.655,-122.3035,60.0,8.183333333333334
2026-01-20T23:08:12+00:00,SAT-45189,200.94970768612612,31.342915361794624,1341.4333744099063,-5.404922506398823,189303.24897362044,10.5,10500189303.248974,47.655,-122.3035,60.0,8.2
2026-01-20T23:08:13+00:00,SAT-45189,200.971299999646,31.551648604815068,1336.0428650301915,-5.390997267483008,188815.52820308637,10.5,10500188815.528204,47.655,-122.3035,60.0,8.216666666666667
2026-01-20T23:08:14+00:00,SAT-45189,200.99342475538307,31.76184866757374,1330.6662437554216,-5.37689668341213,188321.66610351275,10.5,10500188321.666103,47.655,-122.3035,60.0,8.233333333333333
2026-01-20T23:08:15+00:00,SAT-45189,201.0160921174634,31.973529129484007,1325.3036854631653,-5.362618380562787,187821.5795405676,10.5,10500187821.57954,47.655,-122.3035,60.0,8.25
2026-01-20T23:08:16+00:00,SAT-45189,201.03931251056704,32.18670365150497,1319.955367398284,-5.348159967918771,187315.18477074927,10.5,10500187315.18477,47.655,-122.3035,60.0,8.266666666666667
2026-01-20T23:08:17+00:00,SAT-45189,201.06309662830728,32.4013859744525,1314.6214691902794,-5.333519037184402,186802.39744535607,10.5,10500186802.397446,47.655,-122.3035,60.0,8.283333333333333
2026-01-20T23:08:18+00:00,SAT-45189,201.08745544198172,32.61758991725184,1309.3021728705278,-5.3186931243359235,186283.1312638532,10.5,10500186283.131264,47.655,-122.3035,60.0,8.3
2026-01-20T23:08:19+00:00,SAT-45189,201.11240020946724,32.83532937347487,1303.9976629278567,-5.303679758626848,185757.2996902474,10.5,10500185757.29969,47.655,-122.3035,60.0,8.316666666666666
2026-01-20T23:08:20+00:00,SAT-45189,201.1379424846801,33.054618309693076,1298.708126315253,-5.2884764124065935,185224.8141955233,10.5,10500185224.814196,47.655,-122.3035,60.0,8.333333333333334
2026-01-20T23:08:21+00:00,SAT-45189,201.16409412719656,33.27547076164181,1293.4337525066126,-5.273080565787882,184685.5865225694,10.5,10500184685.586523,47.655,-122.3035,60.0,8.35
2026-01-20T23:08:22+00:00,SAT-45189,201.19086731253768,33.497900832852444,1288.1747334890003,-5.257489670012242,184139.52740308276,10.5,10500184139.527403,47.655,-122.3035,60.0,8.366666666666667
2026-01-20T23:08:23+00:00,SAT-45189,201.21827454270303,33.72192269165189,1282.9312637914413,-5.241701072388727,183586.54392860553,10.5,10500183586.543928,47.655,-122.3035,60.0,8.383333333333333
2026-01-20T23:08:24+00:00,SAT-45189,201.2463286567385,33.947550564808836,1277.703540588579,-5.22571219316635,183026.54574534588,10.5,10500183026.545746,47.655,-122.3035,60.0,8.4
2026-01-20T23:08:25+00:00,SAT-45189,201.27504284264333,34.17479873838346,1272.4917636279276,-5.209520367618763,182459.43952331517,10.5,10500182459.439524,47.655,-122.3035,60.0,8.416666666666666
2026-01-20T23:08:26+00:00,SAT-45189,201.30443064892543,34.403681551802265,1267.2961353146227,-5.1931229028416235,181885.13094561253,10.5,10500181885.130945,47.655,-122.3035,60.0,8.433333333333334
2026-01-20T23:08:27+00:00,SAT-45189,201.3345059969388,34.634213394058904,1262.1168607395218,-5.176517094170894,181303.52528346254,10.5,10500181303.525284,47.655,-122.3035,60.0,8.45
2026-01-20T23:08:28+00:00,SAT-45189,201.36528319381193,34.866408700456,1256.9541476909355,-5.1597001870117225,180714.52605930166,10.5,10500180714.52606,47.655,-122.3035,60.0,8.466666666666667
2026-01-20T23:08:29+00:00,SAT-45189,201.39677694569073,35.10028194742694,1251.8082067044224,-5.142669419743629,180118.03654949885,10.5,10500180118.036549,47.655,-122.3035,60.0,8.483333333333333
2026-01-20T23:08:30+00:00,SAT-45189,201.42900237178517,35.33584764904558,1246.679251069798,-5.125422002617183,179513.95904522864,10.5,10500179513.959045,47.655,-122.3035,60.0,8.5
2026-01-20T23:08:31+00:00,SAT-45189,201.46197501889952,35.57312035236986,1241.567496859188,-5.10795509954424,178902.1942146874,10.5,10500178902.194214,47.655,-122.3035,60.0,8.516666666666667
2026-01-20T23:08:32+00:00,SAT-45189,201.4957108764266,35.812114631700496,1236.4731629732423,-5.090265843426862,178282.64163997766,10.5,10500178282.64164,47.655,-122.3035,60.0,8.533333333333333
2026-01-20T23:08:33+00:00,SAT-45189,201.53022639207072,36.05284508322655,1231.3964711720648,-5.072351377950521,177655.20128088235,10.5,10500177655.20128,47.655,-122.3035,60.0,8.55
2026-01-20T23:08:34+00:00,SAT-45189,201.565538488567,36.29532632140389,1226.3376460644554,-5.05420877688108,177019.7706483041,10.5,10500177019.770649,47.655,-122.3035,60.0,8.566666666666666
2026-01-20T23:08:35+00:00,SAT-45189,201.60166458051725,36.539572971257364,1221.296915177646,-5.0358351082618515,176376.24705271755,10.5,10500176376.247053,47.655,-122.3035,60.0,8.583333333333334
2026-01-20T23:08:36+00:00,SAT-45189,201.63862259242194,36.7855996634081,1216.2745089630062,-5.017227409931373,175724.52674669828,10.5,10500175724.526747,47.655,-122.3035,60.0,8.6
2026-01-20T23:08:37+00:00,SAT-45189,201.67643097733392,37.03342102763523,1211.270660826168,-4.998382697784526,175064.50521426232,10.5,10500175064.505215,47.655,-122.3035,60.0,8.616666666666667
2026-01-20T23:08:38+00:00,SAT-45189,201.71510873636225,37.28305168653276,1206.285607148911,-4.979297945468643,174396.07645973784,10.5,10500174396.07646,47.655,-122.3035,60.0,8.633333333333333
2026-01-20T23:08:39+00:00,SAT-45189,201.75467543890352,37.534506247817596,1201.3195873312968,-4.959970127328078,173719.13451186562,10.5,10500173719.134512,47.655,-122.3035,60.0,8.65
2026-01-20T23:08:40+00:00,SAT-45189,201.79515124409275,37.787799298432965,1196.372843790975,-4.940396172475123,173033.57181516816,10.5,10500173033.571815,47.655,-122.3035,60.0,8.666666666666666
2026-01-20T23:08:41+00:00,SAT-45189,201.83655692284654,38.04294539600619,1191.4456220082932,-4.9205730066871265,172339.2806973644,10.5,10500172339.280697,47.655,-122.3035,60.0,8.683333333333334
2026-01-20T23:08:42+00:00,SAT-45189,201.87891388126727,38.299959062067806,1186.5381705296238,-4.900497509084833,171636.15185206142,10.5,10500171636.151852,47.655,-122.3035,60.0,8.7
2026-01-20T23:08:43+00:00,SAT-45189,201.92224418469058,38.558854772638256,1181.6507410138963,-4.880166555982088,170924.07587455693,10.5,10500170924.075874,47.655,-122.3035,60.0,8.716666666666667
2026-01-20T23:08:44+00:00,SAT-45189,201.96657058325988,38.819646950715345,1176.783588235397,-4.859576978200713,170202.9417668255,10.5,10500170202.941767,47.655,-122.3035,60.0,8.733333333333333
2026-01-20T23:08:45+00:00,SAT-45189,202.01191653826422,39.08234995608009,1171.936970129138,-4.838725631916855,169472.6394188575,10.5,10500169472.63942,47.655,-122.3035,60.0,8.75
2026-01-20T23:08:46+00:00,SAT-45189,202.05830625035568,39.34697807845603,1167.1111477655732,-4.817609299193224,168733.05612487707,10.5,10500168733.056126,47.655,-122.3035,60.0,8.766666666666667
2026-01-20T23:08:47+00:00,SAT-45189,202.1057646881532,39.61354552491906,1162.306385424511,-4.796224772556012,167984.07954558393,10.5,10500167984.079546,47.655,-122.3035,60.0,8.783333333333333
2026-01-20T23:08:48+00:00,SAT-45189,202.15431761897696,39.882066411350436,1157.522950584682,-4.774568831845487,167225.59689736294,10.5,10500167225.596897,47.655,-122.3035,60.0,8.8
2026-01-20T23:08:49+00:00,SAT-45189,202.20399164083574,40.15255475220093,1152.761113936388,-4.752638226770832,166457.494341281,10.5,10500166457.49434,47.655,-122.3035,60.0,8.816666666666666
2026-01-20T23:08:50+00:00,SAT-45189,202.2548142157545,40.42502444881287,1148.0211494115551,-4.730429696765285,165679.65767849798,10.5,10500165679.657679,47.655,-122.3035,60.0,8.833333333333334
2026-01-20T23:08:51+00:00,SAT-45189,202.30681370488927,40.699489278287025,1143.3033341939813,-4.707939966560046,164891.9721952461,10.5,10500164891.972195,47.655,-122.3035,60.0,8.85
2026-01-20T23:08:52+00:00,SAT-45189,202.36001940531295,40.97596288159912,1138.6079487339987,-4.685165752438561,164094.32288188147,10.5,10500164094.322882,47.655,-122.3035,60.0,8.866666666666667
2026-01-20T23:08:53+00:00,SAT-45189,202.414461588653,41.254458751516474,1133.9352767569,-4.662103746388318,163286.5938778131,10.5,10500163286.593878,47.655,-122.3035,60.0,8.883333333333333
2026-01-20T23:08:54+00:00,SAT-45189,202.47017154143433,41.534990219026135,1129.2856052871687,-4.63875063182886,162468.66902236425,10.5,10500162468.669022,47.655,-122.3035,60.0,8.9
2026-01-20T23:08:55+00:00,SAT-45189,202.52718160759252,41.81757044003344,1124.6592246570247,-4.615103126397274,161640.4333533013,10.5,10500161640.433353,47.655,-122.3035,60.0,8.916666666666666
2026-01-20T23:08:56+00:00,SAT-45189,202.5855252336624,42.10221238411765,1120.056428472298,-4.5911578731614675,160801.7692966626,10.5,10500160801.769297,47.655,-122.3035,60.0,8.933333333333334
2026-01-20T23:08:57+00:00,SAT-45189,202.64523701485743,42.3889288160493,1115.4775136867984,-4.566911537864462,159952.56007266484,10.5,10500159952.560072,47.655,-122.3035,60.0,8.95
2026-01-20T23:08:58+00:00,SAT-45189,202.70635274468754,42.67773228247478,1110.9227805797013,-4.542360807125803,159092.68963270893,10.5,10500159092.689632,47.655,-122.3035,60.0,8.966666666666667
2026-01-20T23:08:59+00:00,SAT-45189,202.76890946711927,42.968635097906905,1106.3925327347279,-4.51750233712928,158222.04086220686,10.5,10500158222.040863,47.655,-122.3035,60.0,8.983333333333333
2026-01-20T23:09:00+00:00,SAT-45189,202.83294553073534,43.26164932683914,1101.8870770704978,-4.492332797505288,157340.49711752764,10.5,10500157340.497118,47.655,-122.3035,60.0,9.0
2026-01-20T23:09:01+00:00,SAT-45189,202.89850064626455,43.556786767813065,1097.406723827119,-4.466848842839391,156447.9412281066,10.5,10500156447.941229,47.655,-122.3035,60.0,9.016666666666667
2026-01-20T23:09:02+00:00,SAT-45189,202.96561594673713,43.85405893495462,1092.9517865811938,-4.4410471607368285,155544.25717986774,10.5,10500155544.25718,47.655,-122.3035,60.0,9.033333333333333
2026-01-20T23:09:03+00:00,SAT-45189,203.03433405149752,44.15347704180243,1088.5225822128857,-4.414924413676072,154629.32807868952,10.5,10500154629.32808,47.655,-122.3035,60.0,9.05
2026-01-20T23:09:04+00:00,SAT-45189,203.1046991327235,44.45505198054713,1084.1194309309792,-4.388477300520824,153703.03830481504,10.5,10500153703.038305,47.655,-122.3035,60.0,9.066666666666666
2026-01-20T23:09:05+00:00,SAT-45189,203.17675698648043,44.758794304472616,1079.7426562365933,-4.361702518945937,152765.27219684873,10.5,10500152765.272198,47.655,-122.3035,60.0,9.083333333333334
2026-01-20T23:09:06+00:00,SAT-45189,203.2505551069936,45.06471420706299,1075.3925849243644,-4.3345967742303735,151815.91435972322,10.5,10500151815.91436,47.655,-122.3035,60.0,9.1
2026-01-20T23:09:07+00:00,SAT-45189,203.32614276508323,45.372821500716285,1071.0695470748656,-4.307156797662512,150854.8503093309,10.5,10500150854.85031,47.655,-122.3035,60.0,9.116666666666667
2026-01-20T23:09:08+00:00,SAT-45189,203.40357109124386,45.683125595850626,1066.7738760286634,-4.279379333361883,149881.96601096538,10.5,10500149881.966011,47.655,-122.3035,60.0,9.133333333333333
2026-01-20T23:09:09+00:00,SAT-45189,203.48289316304903,45.99563547807364,1062.5059083735237,-4.251261161406853,148897.14868935078,10.5,10500148897.14869,47.655,-122.3035,60.0,9.15
2026-01-20T23:09:10+00:00,SAT-45189,203.564164097871,46.31035968604024,1058.2659839085472,-4.222799061038241,147900.28553987682,10.5,10500147900.28554,47.655,-122.3035,60.0,9.166666666666666
2026-01-20T23:09:11+00:00,SAT-45189,203.64744115012033,46.627306285569404,1054.0544456450052,-4.193989868331086,146891.26574850795,10.5,10500146891.265749,47.655,-122.3035,60.0,9.183333333333334
2026-01-20T23:09:12+00:00,SAT-45189,203.73278381509382,46.946482846897446,1049.8716397496564,-4.164830421168671,145869.97856454097,10.5,10500145869.978565,47.655,-122.3035,60.0,9.2
2026-01-20T23:09:13+00:00,SAT-45189,203.8202539376878,47.267896416735205,1045.7179155429442,-4.135317620480972,144836.31544543462,10.5,10500144836.315445,47.655,-122.3035,60.0,9.216666666666667
2026-01-20T23:09:14+00:00,SAT-45189,203.9099158286128,47.59155349373966,1041.5936254361177,-4.105448375442818,143790.16813741723,10.5,10500143790.168137,47.655,-122.3035,60.0,9.233333333333333
2026-01-20T23:09:15+00:00,SAT-45189,204.00183638624617,47.91745999861996,1037.4991249230095,-4.0752196647404135,142731.43082129952,10.5,10500142731.43082,47.655,-122.3035,60.0,9.25
2026-01-20T23:09:16+00:00,SAT-45189,204.09608522694444,48.24562124768384,1033.4347725107084,-4.044628486515251,141659.99835929874,10.5,10500141659.99836,47.655,-122.3035,60.0,9.266666666666667
2026-01-20T23:09:17+00:00,SAT-45189,204.19273482195962,48.576041921181464,1029.4009297001571,-4.0136718941778495,140575.76754938718,10.5,10500140575.76755,47.655,-122.3035,60.0,9.283333333333333
2026-01-20T23:09:18+00:00,SAT-45189,204.29186064336227,48.90872603305679,1025.3979609310304,-3.9823470167182533,139478.63783665185,10.5,10500139478.637836,47.655,-122.3035,60.0,9.3
2026-01-20T23:09:19+00:00,SAT-45189,204.39354131928488,49.24367690102389,1021.4262335063568,-3.950650997638589,138368.50917445423,10.5,10500138368.509174,47.655,-122.3035,60.0,9.316666666666666
2026-01-20T23:09:20+00:00,SAT-45189,204.4978587970732,49.580897110104964,1017.4861175780452,-3.918581066788035,137245.28454039484,10.5,10500137245.28454,47.655,-122.3035,60.0,9.333333333333334
2026-01-20T23:09:21+00:00,SAT-45189,204.60489851829087,49.920388480546066,1013.5779860607686,-3.8861345149369626,136108.86904579203,10.5,10500136108.869045,47.655,-122.3035,60.0,9.35
2026-01-20T23:09:22+00:00,SAT-45189,204.71474960392993,50.2621520320324,1009.7022145712049,-3.853308683126805,134959.16956266944,10.5,10500134959.169563,47.655,-122.3035,60.0,9.366666666666667
2026-01-20T23:09:23+00:00,SAT-45189,204.82750505088111,50.60618794527225,1005.8591813778997,-3.8201010186965974,133796.0966860423,10.5,10500133796.096685,47.655,-122.3035,60.0,9.383333333333333
2026-01-20T23:09:24+00:00,SAT-45189,204.94326194243735,50.9524955266955,1002.0492672952529,-3.7865090113016526,132619.56249302093,10.5,10500132619.562492,47.655,-122.3035,60.0,9.4
2026-01-20T23:09:25+00:00,SAT-45189,205.06212167034673,51.30107316572069,998.2728556413148,-3.7525302483261678,131429.48248359456,10.5,10500131429.482483,47.655,-122.3035,60.0,9.416666666666666
2026-01-20T23:09:26+00:00,SAT-45189,205.18419017280848,51.651918294946356,994.5303321403175,-3.718162399702319,130225.77504893186,10.5,10500130225.77505,47.655,-122.3035,60.0,9.433333333333334
2026-01-20T23:09:27+00:00,SAT-45189,205.30957818745432,52.005027346986196,990.8220848403477,-3.6834032222451194,129008.36162320584,10.5,10500129008.361624,47.655,-122.3035,60.0,9.45
2026-01-20T23:09:28+00:00,SAT-45189,205.43840152109425,52.36039570955942,987.1485040266953,-3.6482505766485573,127777.16727887081,10.5,10500127777.167278,47.655,-122.3035,60.0,9.466666666666667
2026-01-20T23:09:29+00:00,SAT-45189,205.570781337903,52.718017679959644,983.5099821182511,-3.612702418050499,126532.12039620503,10.5,10500126532.120396,47.655,-122.3035,60.0,9.483333333333333
2026-01-20T23:09:30+00:00,SAT-45189,205.70684446653618,53.077886416250806,979.9069135733154,-3.5767568018185183,125273.15286595517,10.5,10500125273.152866,47.655,-122.3035,60.0,9.5
2026-01-20T23:09:31+00:00,SAT-45189,205.84672372821456,53.43999388653582,976.339694789635,-3.540411891395154,124000.20036411028,10.5,10500124000.200363,47.655,-122.3035,60.0,9.516666666666667
2026-01-20T23:09:32+00:00,SAT-45189,205.9905582873918,53.80433081627824,972.8087239966169,-3.503665976666242,122713.2029952386,10.5,10500122713.202995,47.655,-122.3035,60.0,9.533333333333333
2026-01-20T23:09:33+00:00,SAT-45189,206.13849402737975,54.17088663475524,969.3144011292218,-3.4665174675822543,121412.10506907973,10.5,10500121412.105068,47.655,-122.3035,60.0,9.55
2026-01-20T23:09:34+00:00,SAT-45189,206.2906839518327,54.53964941794657,965.8571277082198,-3.4289648897447895,120096.85494596495,10.5,10500120096.854946,47.655,-122.3035,60.0,9.566666666666666
2026-01-20T23:09:35+00:00,SAT-45189,206.44728861420558,54.91060582781115,962.4373067248476,-3.3910068848604085,118767.40505271246,10.5,10500118767.405052,47.655,-122.3035,60.0,9.583333333333334
2026-01-20T23:09:36+00:00,SAT-45189,206.60847657760831,55.28374104813362,959.0553425250135,-3.3526422718550863,117423.71402311398,10.5,10500117423.714024,47.655,-122.3035,60.0,9.6
2026-01-20T23:09:37+00:00,SAT-45189,206.77442491046972,55.659038723465336,955.71164063255,-3.3138699867927173,116065.74459362659,10.5,10500116065.744595,47.655,-122.3035,60.0,9.616666666666667
2026-01-20T23:09:38+00:00,SAT-45189,206.94531971526644,56.036480887868905,952.4066076323887,-3.274689086481955,114693.46372969971,10.5,10500114693.46373,47.655,-122.3035,60.0,9.633333333333333
2026-01-20T23:09:39+00:00,SAT-45189,207.12135669579934,56.416047889741996,949.1406510501374,-3.2350988343756444,113306.84563433635,10.5,10500113306.845634,47.655,-122.3035,60.0,9.65
2026-01-20T23:09:40+00:00,SAT-45189,207.3027417709226,56.79771832204974,945.9141791459869,-3.1950986023626866,111905.86830842892,10.5,10500111905.868309,47.655,-122.3035,60.0,9.666666666666666
2026-01-20T23:09:41+00:00,SAT-45189,207.48969172865293,57.18146893676689,942.7276008065637,-3.1546879704304454,110490.51704135824,10.5,10500110490.517042,47.655,-122.3035,60.0,9.683333333333334
2026-01-20T23:09:42+00:00,SAT-45189,207.6824349350755,57.56727456580161,939.5813253373877,-3.113866625032098,109060.78085138829,10.5,10500109060.780851,47.655,-122.3035,60.0,9.7
2026-01-20T23:09:43+00:00,SAT-45189,207.88121209102073,57.955108024463605,936.4757623566891,-3.0726344938510213,107616.65720568503,10.5,10500107616.657206,47.655,-122.3035,60.0,9.716666666666667
2026-01-20T23:09:44+00:00,SAT-45189,208.08627705502823,58.34494002525918,933.4113215548217,-3.03099164013758,106158.14831954375,10.5,10500106158.14832,47.655,-122.3035,60.0,9.733333333333333
2026-01-20T23:09:45+00:00,SAT-45189,208.2978977233856,58.736739072662346,930.3884125590578,-2.9889383189837924,104685.263127366,10.5,10500104685.263128,47.655,-122.3035,60.0,9.75
2026-01-20T23:09:46+00:00,SAT-45189,208.51635698245695,59.13047135776233,927.4074447422579,-2.9464749872314573,103198.017629684,10.5,10500103198.01763,47.655,-122.3035,60.0,9.766666666666667
2026-01-20T23:09:47+00:00,SAT-45189,208.7419537369519,59.52610064690445,924.4688270216591,-2.903602288889805,101696.43438242517,10.5,10500101696.434381,47.655,-122.3035,60.0,9.783333333333333
2026-01-20T23:09:48+00:00,SAT-45189,208.97500401899077,59.92358816036549,921.5729676722063,-2.8603210575140907,100180.54258022046,10.5,10500100180.54258,47.655,-122.3035,60.0,9.8
2026-01-20T23:09:49+00:00,SAT-45189,209.21584218628982,60.322892442421214,918.7202741375123,-2.8166323575675696,98650.37950507575,10.5,10500098650.379505,47.655,-122.3035,60.0,9.816666666666666
2026-01-20T23:09:50+00:00,SAT-45189,209.46482222086735,60.723969227418266,915.9111527995649,-2.7725374371199587,97105.98886967186,10.5,10500097105.98887,47.655,-122.3035,60.0,9.833333333333334
2026-01-20T23:09:51+00:00,SAT-45189,209.72231912997427,61.12677128891592,913.1460087956107,-2.728037772860208,95547.42239390219,10.5,10500095547.422394,47.655,-122.3035,60.0,9.85
2026-01-20T23:09:52+00:00,SAT-45189,209.98873046626682,61.53124828339349,910.4252457901447,-2.683135061865371,93974.73951658382,10.5,10500093974.739517,47.655,-122.3035,60.0,9.866666666666667
2026-01-20T23:09:53+00:00,SAT-45189,210.26447797378307,61.937346580340844,907.749265755111,-2.6378312072600427,92388.00689319025,10.5,10500092388.006893,47.655,-122.3035,60.0,9.883333333333333
2026-01-20T23:09:54+00:00,SAT-45189,210.5500093701041,62.34500907614752,905.1184687644036,-2.5921283659963867,90787.30006931016,10.5,10500090787.30007,47.655,-122.3035,60.0,9.9
2026-01-20T23:09:55+00:00,SAT-45189,210.8458002839036,62.754174999866734,902.5332527407165,-2.546028918088924,89172.7024031195,10.5,10500089172.702404,47.655,-122.3035,60.0,9.916666666666666
2026-01-20T23:09:56+00:00,SAT-45189,211.15235635396536,63.164779697580585,899.9940132330759,-2.499535475191883,87544.30536579667,10.5,10500087544.305367,47.655,-122.3035,60.0,9.933333333333334
2026-01-20T23:09:57+00:00,SAT-45189,211.47021550848456,63.57675439934559,897.5011431858179,-2.4526508813583567,85902.2085681113,10.5,10500085902.208569,47.655,-122.3035,60.0,9.95
2026-01-20T23:09:58+00:00,SAT-45189,211.79995044028394,63.990025965499,895.0550327068097,-2.405378250204761,84246.52106208086,10.5,10500084246.521063,47.655,-122.3035,60.0,9.966666666666667
2026-01-20T23:09:59+00:00,SAT-45189,212.14217130103899,64.40451661636847,892.6560687986056,-2.35772091491662,82577.35958996176,10.5,10500082577.35959,47.655,-122.3035,60.0,9.983333333333333
2026-01-20T23:10:00+00:00,SAT-45189,212.497528622652,64.82014362842146,890.3046351394621,-2.3096824858738265,80894.85060252975,10.5,10500080894.850603,47.655,-122.3035,60.0,10.0
2026-01-20T23:10:01+00:00,SAT-45189,212.86671650138865,65.23681901210865,888.0011118068838,-2.2612667998806324,79199.12848089941,10.5,10500079199.12848,47.655,-122.3035,60.0,10.016666666666667
2026-01-20T23:10:02+00:00,SAT-45189,213.25047605243708,65.65444914979312,885.745875051803,-2.2124779636109424,77490.33705816207,10.5,10500077490.337059,47.655,-122.3035,60.0,10.033333333333333
2026-01-20T23:10:03+00:00,SAT-45189,213.64959917317026,66.0729344065785,883.5392970294283,-2.1633203454731107,75768.62933445664,10.5,10500075768.629335,47.655,-122.3035,60.0,10.05
2026-01-20T23:10:04+00:00,SAT-45189,214.06493263432512,66.49216870133266,881.3817455382098,-2.113798557643232,74034.16684769948,10.5,10500074034.166847,47.655,-122.3035,60.0,10.066666666666666
2026-01-20T23:10:05+00:00,SAT-45189,214.49738252446375,66.91203903135644,879.2735837767202,-2.0639174963646805,72287.1210850446,10.5,10500072287.121084,47.655,-122.3035,60.0,10.083333333333334
2026-01-20T23:10:06+00:00,SAT-45189,214.94791908826093,67.33242495690607,877.2151700603459,-2.013682295671649,70527.6718620864,10.5,10500070527.671862,47.655,-122.3035,60.0,10.1
2026-01-20T23:10:07+00:00,SAT-45189,215.41758197266472,67.75319802342484,875.2068575841294,-1.96309836791968,68756.0087424102,10.5,10500068756.008743,47.655,-122.3035,60.0,10.116666666666667
2026-01-20T23:10:08+00:00,SAT-45189,215.9074859295881,68.17422113216256,873.2489941451909,-1.9121713814828165,66972.3302564522,10.5,10500066972.330256,47.655,-122.3035,60.0,10.133333333333333
2026-01-20T23:10:09+00:00,SAT-45189,216.41882699429027,68.59534784003105,871.3419218873919,-1.8609072821768498,65176.84465183217,10.5,10500065176.844652,47.655,-122.3035,60.0,10.15
2026-01-20T23:10:10+00:00,SAT-45189,216.95288918052938,69.01642158994645,869.4859770246343,-1.809312256989067,63369.76862301587,10.5,10500063369.768623,47.655,-122.3035,60.0,10.166666666666666
2026-01-20T23:10:11+00:00,SAT-45189,217.5110517067807,69.43727485070686,867.6814896003305,-1.757392778288166,61551.32885973316,10.5,10500061551.32886,47.655,-122.3035,60.0,10.183333333333334
2026-01-20T23:10:12+00:00,SAT-45189,218.09479680087964,69.85772817451043,865.9287832027844,-1.7051555513420482,59721.760208829226,10.5,10500059721.760208,47.655,-122.3035,60.0,10.2
2026-01-20T23:10:13+00:00,SAT-45189,218.7057180749222,70.27758913994741,864.2281747329125,-1.6526075769508264,57881.30786793734,10.5,10500057881.307867,47.655,-122.3035,60.0,10.216666666666667
2026-01-20T23:10:14+00:00,SAT-45189,219.34552951724413,70.69665119553379,862.5799741095003,-1.5997560864746074,56030.2251098771,10.5,10500056030.22511,47.655,-122.3035,60.0,10.233333333333333
2026-01-20T23:10:15+00:00,SAT-45189,220.01607505782798,71.11469236123892,860.9844840392562,-1.5466085748045082,54168.77443743877,10.5,10500054168.774437,47.655,-122.3035,60.0,10.25
2026-01-20T23:10:16+00:00,SAT-45189,220.71933871807363,71.53147379720019,859.4419997539846,-1.4931727858376047,52297.22707465459,10.5,10500052297.227076,47.655,-122.3035,60.0,10.266666666666667
2026-01-20T23:10:17+00:00,SAT-45189,221.4574552831564,71.94673821376685,857.9528087622425,-1.4394567152843398,50415.863065126105,10.5,10500050415.863066,47.655,-122.3035,60.0,10.283333333333333
2026-01-20T23:10:18+00:00,SAT-45189,222.2327214226627,72.3602081114435,856.5171905981989,-1.3854686130159888,48524.971354242276,10.5,10500048524.971354,47.655,-122.3035,60.0,10.3
2026-01-20T23:10:19+00:00,SAT-45189,223.04760713438915,72.77158383480628,855.135416568151,-1.3312169480359939,46624.84856232753,10.5,10500046624.848562,47.655,-122.3035,60.0,10.316666666666666
2026-01-20T23:10:20+00:00,SAT-45189,223.9047673014903,73.18054141280439,853.8077495319765,-1.2767104400283424,44715.8000895993,10.5,10500044715.800089,47.655,-122.3035,60.0,10.333333333333334
2026-01-20T23:10:21+00:00,SAT-45189,224.8070531312255,73.58673018833893,852.5344436531215,-1.2219580354844493,42798.13928003058,10.5,10500042798.13928,47.655,-122.3035,60.0,10.35
2026-01-20T23:10:22+00:00,SAT-45189,225.75752307527125,73.98977020648805,851.3157441723984,-1.1669689051099679,40872.18733052538,10.5,10500040872.18733,47.655,-122.3035,60.0,10.366666666666667
2026-01-20T23:10:23+00:00,SAT-45189,226.75945273955705,74.38924935498908,850.1518871843687,-1.1117524381798647,38938.27309320963,10.5,10500038938.273092,47.655,-122.3035,60.0,10.383333333333333
2026-01-20T23:10:24+00:00,SAT-45189,227.8163431119436,74.78472024790977,849.0430994193573,-1.0563182356314584,36996.73283352016,10.5,10500036996.732834,47.655,-122.3035,60.0,10.4
2026-01-20T23:10:25+00:00,SAT-45189,228.93192622822949,75.1756968507104,847.9895980323541,-1.0006761031715639,35047.90998878771,10.5,10500035047.909988,47.655,-122.3035,60.0,10.416666666666666
2026-01-20T23:10:26+00:00,SAT-45189,230.11016714071084,75.56165085516264,846.9915903987911,-0.9448360443910011,33092.15492707796,10.5,10500033092.154926,47.655,-122.3035,60.0,10.433333333333334
2026-01-20T23:10:27+00:00,SAT-45189,231.35526074286517,75.94200782679746,846.0492739171851,-0.888808247401086,31129.824479144845,10.5,10500031129.82448,47.655,-122.3035,60.0,10.45
2026-01-20T23:10:28+00:00,SAT-45189,232.67162162597037,76.31614316458354,845.1628358251104,-0.832603092317673,29161.282200553447,10.5,10500029161.2822,47.655,-122.3035,60.0,10.466666666666667
2026-01-20T23:10:29+00:00,SAT-45189,234.06386475750566,76.68337795021486,844.3324530077057,-0.7762311180301898,27186.897207790975,10.5,10500027186.897207,47.655,-122.3035,60.0,10.483333333333333
2026-01-20T23:10:30+00:00,SAT-45189,235.5367742144328,77.04297477439276,843.5582918393235,-0.7197030369335308,25207.044694240016,10.5,10500025207.044695,47.655,-122.3035,60.0,10.5
2026-01-20T23:10:31+00:00,SAT-45189,237.09525683838817,77.39413370911032,842.8405080104885,-0.6630297062800895,23222.10492680553,10.5,10500023222.104927,47.655,-122.3035,60.0,10.516666666666667
2026-01-20T23:10:32+00:00,SAT-45189,238.74427706904174,77.735988613435,842.179246383425,-0.6062221359026666,21232.46351640374,10.5,10500021232.463516,47.655,-122.3035,60.0,10.533333333333333
2026-01-20T23:10:33+00:00,SAT-45189,240.48876896875987,78.06760406439021,841.5746408398849,-0.5492914624562404,19238.510515799982,10.5,10500019238.510515,47.655,-122.3035,60.0,10.55
2026-01-20T23:10:34+00:00,SAT-45189,242.33352113566914,78.38797325323023,841.0268141546618,-0.49224894904938005,17240.640406699258,10.5,10500017240.640408,47.655,-122.3035,60.0,10.566666666666666
2026-01-20T23:10:35+00:00,SAT-45189,244.2830305044567,78.69601730603455,840.5358778694765,-0.43510596910598104,15239.251534515925,10.5,10500015239.251535,47.655,-122.3035,60.0,10.583333333333334
2026-01-20T23:10:36+00:00,SAT-45189,246.34132167189762,78.99058656119132,840.1019321829549,-0.3778739994406439,13234.745865844168,10.5,10500013234.745867,47.655,-122.3035,60.0,10.6
2026-01-20T23:10:37+00:00,SAT-45189,248.5117299894881,79.27046443724703,839.7250658475128,-0.3205646069923598,11227.528523815557,10.5,10500011227.528524,47.655,-122.3035,60.0,10.616666666666667
2026-01-20T23:10:38+00:00,SAT-45189,250.7966492071321,79.53437458013045,839.4053560794723,-0.2631894347262391,9218.007294317962,10.5,10500009218.007294,47.655,-122.3035,60.0,10.633333333333333
2026-01-20T23:10:39+00:00,SAT-45189,253.19724832343462,79.78099200062904,839.1428684832388,-0.20576019483937666,7206.592388036175,10.5,10500007206.592388,47.655,-122.3035,60.0,10.65
2026-01-20T23:10:40+00:00,SAT-45189,255.71316758310644,80.00895886456529,838.9376569822523,-0.14828865512391665,5193.695962828807,10.5,10500005193.695963,47.655,-122.3035,60.0,10.666666666666666
2026-01-20T23:10:41+00:00,SAT-45189,258.3422099055489,80.21690542818477,838.789763763542,-0.09078662540838521,3179.7316488463653,10.5,10500003179.73165,47.655,-122.3035,60.0,10.683333333333334
2026-01-20T23:10:42+00:00,SAT-45189,261.08005105966095,80.40347631905586,838.6992192358014,-0.03326594694288499,1165.114176755882,10.5,10500001165.114178,47.655,-122.3035,60.0,10.7
2026-01-20T23:10:43+00:00,SAT-45189,263.91999850749914,80.56736192149447,838.6660419980503,0.024261519515227894,-849.7410395490765,10.5,10499999150.25896,47.655,-122.3035,60.0,10.716666666666667
2026-01-20T23:10:44+00:00,SAT-45189,266.8528333095058,80.7073340355511,838.6902388201802,0.08178390612223495,-2864.418337980561,10.5,10499997135.581661,47.655,-122.3035,60.0,10.733333333333333
2026-01-20T23:10:45+00:00,SAT-45189,269.8667700721111,80.82228430155298,838.7718046358862,0.13928935078733853,-4878.502257942241,10.5,10499995121.497742,47.655,-122.3035,60.0,10.75
2026-01-20T23:10:46+00:00,SAT-45189,272.947564747576,80.91126320017116,838.9107225484047,0.1967660079342151,-6891.57791724453,10.5,10499993108.422083,47.655,-122.3035,60.0,10.766666666666667
2026-01-20T23:10:47+00:00,SAT-45189,276.07878830121797,80.97351688763487,839.1069638469844,0.25420206222536335,-8903.231492789306,10.5,10499991096.768507,47.655,-122.3035,60.0,10.783333333333333
2026-01-20T23:10:48+00:00,SAT-45189,279.24226645512726,81.00851884954857,839.3604880370439,0.31158574002080824,-10913.050621902192,10.5,10499989086.949379,47.655,-122.3035,60.0,10.8
2026-01-20T23:10:49+00:00,SAT-45189,282.4186639415113,81.01599346730035,839.671242881758,0.368905319065786,-12920.624741636271,10.5,10499987079.375257,47.655,-122.3035,60.0,10.816666666666666
2026-01-20T23:10:50+00:00,SAT-45189,285.58817055259595,80.9959291590378,840.0391644533063,0.42614914508818535,-14925.54567008469,10.5,10499985074.45433,47.655,-122.3035,60.0,10.833333333333334
2026-01-20T23:10:51+00:00,SAT-45189,288.73123015820914,80.94857971813558,840.4641772006742,0.4833056402903918,-16927.40790380095,10.5,10499983072.592096,47.655,-122.3035,60.0,10.85
2026-01-20T23:10:52+00:00,SAT-45189,291.82924663168166,80.87445368605631,840.9461940259238,0.5403633141201166,-18925.808995038908,10.5,10499981074.191006,47.655,-122.3035,60.0,10.866666666666667
2026-01-20T23:10:53+00:00,SAT-45189,294.8652045804852,80.77429284362616,841.4851163712062,0.5973107757878482,-20920.349990166884,10.5,10499979079.65001,47.655,-122.3035,60.0,10.883333333333333
2026-01-20T23:10:54+00:00,SAT-45189,297.82415647269823,80.64904195263675,842.0808343182587,0.654136744432393,-22910.63578570788,10.5,10499977089.364214,47.655,-122.3035,60.0,10.9
2026-01-20T23:10:55+00:00,SAT-45189,300.693547921263,80.49981255977,842.7332266980392,0.7108300671631842,-24896.275760257566,10.5,10499975103.72424,47.655,-122.3035,60.0,10.916666666666666
2026-01-20T23:10:56+00:00,SAT-45189,303.4633749288517,80.3278439055288,843.4421612183565,0.7673797131438416,-26876.88356726551,10.5,10499973123.116432,47.655,-122.3035,60.0,10.933333333333334
2026-01-20T23:10:57+00:00,SAT-45189,306.1261861409,80.134463802777,844.2074945855987,0.82377480034054,-28852.07807187621,10.5,10499971147.921928,47.655,-122.3035,60.0,10.95
2026-01-20T23:10:58+00:00,SAT-45189,308.67695719983874,79.92105183901737,845.0290726531384,0.880004595667488,-30821.483356024335,10.5,10499969178.516644,47.655,-122.3035,60.0,10.966666666666667
2026-01-20T23:10:59+00:00,SAT-45189,311.11287115217016,79.68900660517413,845.9067305698841,0.9360585330325409,-32784.72935046845,10.5,10499967215.270649,47.655,-122.3035,60.0,10.983333333333333
2026-01-20T23:11:00+00:00,SAT-45189,313.43304006040904,79.43971794764796,846.8402929468285,0.9919262113646721,-34741.45176570472,10.5,10499965258.548235,47.655,-122.3035,60.0,11.0
2026-01-20T23:11:01+00:00,SAT-45189,315.63819933258196,79.17454462839174,847.8295740216295,1.0475974104456558,-36691.29264645939,10.5,10499963308.707354,47.655,-122.3035,60.0,11.016666666666667
2026-01-20T23:11:02+00:00,SAT-45189,317.7304002737115,78.89479727945496,848.8743778389808,1.1030620995936349,-38633.900675824094,10.5,10499961366.099323,47.655,-122.3035,60.0,11.033333333333333
2026-01-20T23:11:03+00:00,SAT-45189,319.71271926071506,78.60172620895845,849.9744984396422,1.1583104415618035,-40568.931311804175,10.5,10499959431.068687,47.655,-122.3035,60.0,11.05
2026-01-20T23:11:04+00:00,SAT-45189,321.5889952792683,78.29651342072465,851.1297200533597,1.2133328105793189,-42496.04741918774,10.5,10499957503.952581,47.655,-122.3035,60.0,11.066666666666666
2026-01-20T23:11:05+00:00,SAT-45189,323.3636019701345,77.98026812580927,852.3398173097775,1.2681197797976378,-44414.91882986328,10.5,10499955585.081171,47.655,-122.3035,60.0,11.083333333333334
2026-01-20T23:11:06+00:00,SAT-45189,325.04125597709094,77.65402504003193,853.604555436829,1.3226621463724326,-46325.22322129445,10.5,10499953674.77678,47.655,-122.3035,60.0,11.1
2026-01-20T23:11:07+00:00,SAT-45189,326.6268605372333,77.31874480057162,854.9236904841445,1.3769509340289574,-48226.64620637005,10.5,10499951773.353794,47.655,-122.3035,60.0,11.116666666666667
2026-01-20T23:11:08+00:00,SAT-45189,328.12538132139133,76.97531593587603,856.296969549016,1.4309773875825502,-50118.88114148881,10.5,10499949881.118858,47.655,-122.3035,60.0,11.133333333333333
2026-01-20T23:11:09+00:00,SAT-45189,329.54175061805444,76.6245579144339,857.7241309968983,1.4847329938484453,-52001.6298589095,10.5,10499947998.370142,47.655,-122.3035,60.0,11.15
2026-01-20T23:11:10+00:00,SAT-45189,330.88079566566444,76.26722488296357,859.2049047027632,1.5382094823114796,-53874.60269020689,10.5,10499946125.39731,47.655,-122.3035,60.0,11.166666666666666
2026-01-20T23:11:11+00:00,SAT-45189,332.1471869699447,75.90400980184815,860.7390122931218,1.5913988109030561,-55737.51796812076,10.5,10499944262.482033,47.655,-122.3035,60.0,11.183333333333334
2026-01-20T23:11:12+00:00,SAT-45189,333.3454027942663,75.53554875694608,862.3261673738625,1.6442932039424145,-57590.10335541981,10.5,10499942409.896645,47.655,-122.3035,60.0,11.2
2026-01-20T23:11:13+00:00,SAT-45189,334.47970651425203,75.16242527208607,863.9660757959276,1.6968851208308047,-59432.0947484391,10.5,10499940567.905252,47.655,-122.3035,60.0,11.216666666666667
2026-01-20T23:11:14+00:00,SAT-45189,335.5541339197878,74.78517452400138,865.6584358897697,1.7491672956129636,-61263.23766269036,10.5,10499938736.762337,47.655,-122.3035,60.0,11.233333333333333
2026-01-20T23:11:15+00:00,SAT-45189,336.5724881396284,74.40428736658116,867.402938739261,1.801132704171911,-63083.28608388496,10.5,10499936916.713917,47.655,-122.3035,60.0,11.25
2026-01-20T23:11:16+00:00,SAT-45189,337.53834019872556,74.02021413317054,869.1992684228885,1.852774577619269,-64892.002936919525,10.5,10499935107.997063,47.655,-122.3035,60.0,11.266666666666667
2026-01-20T23:11:17+00:00,SAT-45189,338.4550336889113,73.63336817991943,871.0471022683007,1.9040864254843153,-66689.1608980547,10.5,10499933310.839102,47.655,-122.3035,60.0,11.283333333333333
2026-01-20T23:11:18+00:00,SAT-45189,339.32569232826273,73.24412915778295,872.9461111299837,1.9550620070463198,-68474.54139085233,10.5,10499931525.458609,47.655,-122.3035,60.0,11.3
2026-01-20T23:11:19+00:00,SAT-45189,340.1532294306891,72.8528460242843,874.8959596383446,2.005695353296758,-70247.93535538495,10.5,10499929752.064644,47.655,-122.3035,60.0,11.316666666666666
2026-01-20T23:11:20+00:00,SAT-45189,340.94035858342824,72.45983979186327,876.8963064706993,2.0559807357975033,-72009.14215751813,10.5,10499927990.857843,47.655,-122.3035,60.0,11.333333333333334
2026-01-20T23:11:21+00:00,SAT-45189,341.68960495864735,72.06540603591598,878.9468045912013,2.105912730043513,-73757.97180813966,10.5,10499926242.028193,47.655,-122.3035,60.0,11.35
2026-01-20T23:11:22+00:00,SAT-45189,342.4033168883003,71.66981715921035,881.0471015539647,2.1554861359467634,-75494.24217817053,10.5,10499924505.757822,47.655,-122.3035,60.0,11.366666666666667
2026-01-20T23:11:23+00:00,SAT-45189,343.08367735047244,71.27332445721612,883.1968397268823,2.204696041109733,-77217.78121467016,10.5,10499922782.218786,47.655,-122.3035,60.0,11.383333333333333
2026-01-20T23:11:24+00:00,SAT-45189,343.73271521121353,70.87615997380495,885.395656578549,2.2535377792973716,-78928.42548634896,10.5,10499921071.574514,47.655,-122.3035,60.0,11.4
2026-01-20T23:11:25+00:00,SAT-45189,344.35231603970317,70.478538184379,887.6431849237683,2.302006954310216,-80626.0210197058,10.5,10499919373.978981,47.655,-122.3035,60.0,11.416666666666666
2026-01-20T23:11:26+00:00,SAT-45189,344.94423242554166,70.08065751050172,889.9390531928669,2.350099415335476,-82310.42243571884,10.5,10499917689.577564,47.655,-122.3035,60.0,11.433333333333334
2026-01-20T23:11:27+00:00,SAT-45189,345.5100937275488,69.68270169029553,892.2828856764282,2.397811287890501,-83981.49403361662,10.5,10499916018.505966,47.655,-122.3035,60.0,11.45
2026-01-20T23:11:28+00:00,SAT-45189,346.05141524132296,69.28484100930112,894.6743028008843,2.4451389309173477,-85639.1082881483,10.5,10499914360.891712,47.655,-122.3035,60.0,11.466666666666667
2026-01-20T23:11:29+00:00,SAT-45189,346.5696067594047,68.88723341777907,897.1129213613193,2.4920789616920236,-87283.14672201076,10.5,10499912716.853277,47.655,-122.3035,60.0,11.483333333333333
2026-01-20T23:11:30+00:00,SAT-45189,347.06598054841174,68.49002553495522,899.5983547791134,2.538628254292208,-88913.49985218167,10.5,10499911086.500147,47.655,-122.3035,60.0,11.5
2026-01-20T23:11:31+00:00,SAT-45189,347.5417587530177,68.09335355599258,902.1302133580608,2.584783902955746,-90530.06590657905,10.5,10499909469.934093,47.655,-122.3035,60.0,11.516666666666667
2026-01-20T23:11:32+00:00,SAT-45189,347.9980802447092,67.69734407704128,904.7081045039421,2.630543273842583,-92132.75263698302,10.5,10499907867.247362,47.655,-122.3035,60.0,11.533333333333333
2026-01-20T23:11:33+00:00,SAT-45189,348.43600696057024,67.30211483349498,907.3316329957211,2.6759039455818145,-93721.47523674213,10.5,10499906278.524763,47.655,-122.3035,60.0,11.55
2026-01-20T23:11:34+00:00,SAT-45189,348.85652974159103,66.90777537696646,910.000401197448,2.7208637414402204,-95296.15746745143,10.5,10499904703.842533,47.655,-122.3035,60.0,11.566666666666666
2026-01-20T23:11:35+00:00,SAT-45189,349.2605737193205,66.51442768395071,912.7140093022444,2.765420710849494,-96856.73101195792,10.5,10499903143.268988,47.655,-122.3035,60.0,11.583333333333334
2026-01-20T23:11:36+00:00,SAT-45189,349.649003273191,66.12216671052813,915.4720555578649,2.8095731263134667,-98403.13536603846,10.5,10499901596.864634,47.655,-122.3035,60.0,11.6
2026-01-20T23:11:37+00:00,SAT-45189,350.0226265924253,65.73108089650668,918.2741364891749,2.853319494200159,-99935.31821638312,10.5,10499900064.681784,47.655,-122.3035,60.0,11.616666666666667
2026-01-20T23:11:38+00:00,SAT-45189,350.3821998740084,65.34125262232872,921.1198471313904,2.896658505423751,-101453.233713269,10.5,10499898546.766287,47.655,-122.3035,60.0,11.633333333333333
2026-01-20T23:11:39+00:00,SAT-45189,350.7284311774589,64.95275863161895,924.0087812141331,2.9395890873419512,-102956.84428822585,10.5,10499897043.155712,47.655,-122.3035,60.0,11.65
2026-01-20T23:11:40+00:00,SAT-45189,351.06198397645477,64.56567040953055,926.9405313972422,2.9821103741936184,-104446.1196186363,10.5,10499895553.88038,47.655,-122.3035,60.0,11.666666666666666
2026-01-20T23:11:41+00:00,SAT-45189,351.3834804214201,64.18005453196704,929.9146894771046,3.0242216905498527,-105921.03604812318,10.5,10499894078.963951,47.655,-122.3035,60.0,11.683333333333334
2026-01-20T23:11:42+00:00,SAT-45189,351.6935043388328,63.795972986893894,932.9308465764798,3.065922556639249,-107381.5767730625,10.5,10499892618.423227,47.655,-122.3035,60.0,11.7
2026-01-20T23:11:43+00:00,SAT-45189,351.9926039915106,63.41348346778592,935.9885933396346,3.107212679749201,-108827.7315414206,10.5,10499891172.26846,47.655,-122.3035,60.0,11.716666666666667
2026-01-20T23:11:44+00:00,SAT-45189,352.2812946182298,63.032639643677044,939.0875201189044,3.148091963536615,-110259.4969788548,10.5,10499889740.503021,47.655,-122.3035,60.0,11.733333333333333
2026-01-20T23:11:45+00:00,SAT-45189,352.5600607728257,62.65349140596018,942.2272171705382,3.1885604935881138,-111676.87608297069,10.5,10499888323.123917,47.655,-122.3035,60.0,11.75
2026-01-20T23:11:46+00:00,SAT-45189,352.8293584773254,62.276085097005144,945.4072748361435,3.2286185058231247,-113079.87711666453,10.5,10499886920.122883,47.655,-122.3035,60.0,11.766666666666667
2026-01-20T23:11:47+00:00,SAT-45189,353.0896172036565,61.90046372430363,948.6272836926178,3.268266432208377,-114468.5152092384,10.5,10499885531.48479,47.655,-122.3035,60.0,11.783333333333333
2026-01-20T23:11:48+00:00,SAT-45189,353.34124170469005,61.526667152670484,951.8868347476736,3.307504854761216,-115842.81074540163,10.5,10499884157.189255,47.655,-122.3035,60.0,11.8
2026-01-20T23:11:49+00:00,SAT-45189,353.58461369974026,61.15473228691301,955.1855195894888,3.346334518998366,-117202.7898363035,10.5,10499882797.210163,47.655,-122.3035,60.0,11.816666666666666
2026-01-20T23:11:50+00:00,SAT-45189,353.8200934315381,60.784693239239544,958.5229305497697,3.384756308854019,-118548.48344105843,10.5,10499881451.51656,47.655,-122.3035,60.0,11.833333333333334
2026-01-20T23:11:51+00:00,SAT-45189,354.0480211026186,60.41658148699297,961.8986608418002,3.4227712874980134,-119879.92879637133,10.5,10499880120.071203,47.655,-122.3035,60.0,11.85
2026-01-20T23:11:52+00:00,SAT-45189,354.26871820563474,60.05042601455659,965.3123047391982,3.4603806221059603,-121197.1667816693,10.5,10499878802.833218,47.655,-122.3035,60.0,11.866666666666667
2026-01-20T23:11:53+00:00,SAT-45189,354.482488748688,59.68625345305276,968.7634576796453,3.4975856395722107,-122500.2438704052,10.5,10499877499.75613,47.655,-122.3035,60.0,11.883333333333333
2026-01-20T23:11:54+00:00,SAT-45189,354.68962039297725,59.324088204424584,972.2517164241785,3.534387783295413,-123789.21061650536,10.5,10499876210.789383,47.655,-122.3035,60.0,11.9
2026-01-20T23:11:55+00:00,SAT-45189,354.8903855036176,58.9639525613908,975.7766791733852,3.5707886621711546,-125064.12337029881,10.5,10499874935.876629,47.655,-122.3035,60.0,11.916666666666666
2026-01-20T23:11:56+00:00,SAT-45189,355.0850421261742,58.605866814368376,979.3379457324572,3.606789935596822,-126325.04025090128,10.5,10499873674.95975,47.655,-122.3035,60.0,11.933333333333334
2026-01-20T23:11:57+00:00,SAT-45189,355.2738348858524,58.24984936263969,982.9351175615592,3.64239344585383,-127572.02578280077,10.5,10499872427.974216,47.655,-122.3035,60.0,11.95
2026-01-20T23:11:58+00:00,SAT-45189,355.45699582907616,57.89591680530744,986.5677979582241,3.6776010994987813,-128805.14674167421,10.5,10499871194.853258,47.655,-122.3035,60.0,11.966666666666667
2026-01-20T23:11:59+00:00,SAT-45189,355.63474519866554,57.544084037839696,990.2355921214574,3.7124149459674056,-130024.47490742999,10.5,10499869975.525093,47.655,-122.3035,60.0,11.983333333333333
2026-01-20T23:12:00+00:00,SAT-45189,355.80729215808924,57.19436433504435,993.9381072942356,3.7468371039425357,-131230.0844853029,10.5,10499868769.915514,47.655,-122.3035,60.0,12.0
2026-01-20T23:12:01+00:00,SAT-45189,355.97483546130525,56.84676943576278,997.6749528325677,3.7808698064953328,-132422.05368689093,10.5,10499867577.946314,47.655,-122.3035,60.0,12.016666666666667
2026-01-20T23:12:02+00:00,SAT-45189,356.1375640781491,56.50130961821436,1001.445740319579,3.8145153649044823,-133600.4634629503,10.5,10499866399.536537,47.655,-122.3035,60.0,12.033333333333333
2026-01-20T23:12:03+00:00,SAT-45189,356.295657774964,56.1579937740853,1005.2500836435104,3.8477761794807686,-134765.397882518,10.5,10499865234.602118,47.655,-122.3035,60.0,12.05
2026-01-20T23:12:04+00:00,SAT-45189,356.4492876560417,55.816829477246074,1009.0875990865126,3.8806547593153553,-135916.94482458004,10.5,10499864083.055176,47.655,-122.3035,60.0,12.066666666666666
2026-01-20T23:12:05+00:00,SAT-45189,356.5986166691542,55.47782304676182,1012.9579054331364,3.9131536363633166,-137055.19296891327,10.5,10499862944.807032,47.655,-122.3035,60.0,12.083333333333334
2026-01-20T23:12:06+00:00,SAT-45189,356.7438000737733,55.14097961367655,1016.8606239931361,3.9452754597674633,-138180.23509970476,10.5,10499861819.7649,47.655,-122.3035,60.0,12.1
2026-01-20T23:12:07+00:00,SAT-45189,356.88498588185206,54.806303175951676,1020.7953787183442,3.9770229395470706,-139292.16613329292,10.5,10499860707.833866,47.655,-122.3035,60.0,12.116666666666667
2026-01-20T23:12:08+00:00,SAT-45189,357.02231526733203,54.47379665511068,1024.7617962633858,4.0083988265680555,-140391.0824166383,10.5,10499859608.917583,47.655,-122.3035,60.0,12.133333333333333
2026-01-20T23:12:09+00:00,SAT-45189,357.1559229482959,54.14346195138022,1028.7595060264164,4.039405972901438,-141477.08384133232,10.5,10499858522.916159,47.655,-122.3035,60.0,12.15
2026-01-20T23:12:10+00:00,SAT-45189,357.2859375464143,53.815299990913275,1032.7881402500566,4.0700472385782325,-142550.270577759,10.5,10499857449.729422,47.655,-122.3035,60.0,12.166666666666666
2026-01-20T23:12:11+00:00,SAT-45189,357.41248192024125,53.48931077797699,1036.847334029332,4.100325577051174,-143610.74606832615,10.5,10499856389.253931,47.655,-122.3035,60.0,12.183333333333334
2026-01-20T23:12:12+00:00,SAT-45189,357.53567348011023,53.165493437557416,1040.9367254048443,4.130243955656797,-144658.61424171107,10.5,10499855341.385757,47.655,-122.3035,60.0,12.2
2026-01-20T23:12:13+00:00,SAT-45189,357.6556244806827,52.843846261972914,1045.0559553766195,4.159805428827674,-145693.9820770627,10.5,10499854306.017923,47.655,-122.3035,60.0,12.216666666666667
2026-01-20T23:12:14+00:00,SAT-45189,357.7724422974241,52.52436674940145,1049.2046679909702,4.189013046103618,-146716.95638216485,10.5,10499853283.043617,47.655,-122.3035,60.0,12.233333333333333
2026-01-20T23:12:15+00:00,SAT-45189,357.88622968331026,52.20705164743723,1053.3825103356178,4.217869927098798,-147727.64641910166,10.5,10499852272.35358,47.655,-122.3035,60.0,12.25
2026-01-20T23:12:16+00:00,SAT-45189,357.99708501190287,51.891896988764415,1057.5891326095773,4.246379200437107,-148726.1617655159,10.5,10499851273.838234,47.655,-122.3035,60.0,12.266666666666667
2026-01-20T23:12:17+00:00,SAT-45189,358.1051025039966,51.57889812956814,1061.824188132147,4.274544058650565,-149712.61423738327,10.5,10499850287.385763,47.655,-122.3035,60.0,12.283333333333333
2026-01-20T23:12:18+00:00,SAT-45189,358.210372442025,51.26804978200355,1066.087333406641,4.302367701032287,-150687.11588748175,10.5,10499849312.884113,47.655,-122.3035,60.0,12.3
2026-01-20T23:12:19+00:00,SAT-45189,358.31298137018246,50.95934604919335,1070.3782281271372,4.329853347638335,-151649.77949579543,10.5,10499848350.220505,47.655,-122.3035,60.0,12.316666666666666
2026-01-20T23:12:20+00:00,SAT-45189,358.41301228308487,50.65278045746323,1074.6965351991817,4.357004252736976,-152600.71904056455,10.5,10499847399.28096,47.655,-122.3035,60.0,12.333333333333334
2026-01-20T23:12:21+00:00,SAT-45189,358.51054480366497,50.34834598606674,1079.0419207739114,4.383823681192736,-153540.04887115513,10.5,10499846459.951128,47.655,-122.3035,60.0,12.35
2026-01-20T23:12:22+00:00,SAT-45189,358.6056553501515,50.04603509709201,1083.414054258621,4.410314931369316,-154467.88451021613,10.5,10499845532.11549,47.655,-122.3035,60.0,12.366666666666667
2026-01-20T23:12:23+00:00,SAT-45189,358.69841729393227,49.745839762372334,1087.8126083501734,4.43648129536115,-155384.3412608201,10.5,10499844615.65874,47.655,-122.3035,60.0,12.383333333333333
2026-01-20T23:12:24+00:00,SAT-45189,358.78890110749825,49.44775149176907,1092.2372590287468,4.462326077640738,-156289.53485957196,10.5,10499843710.465141,47.655,-122.3035,60.0,12.4
2026-01-20T23:12:25+00:00,SAT-45189,358.87717450443995,49.15176135884273,1096.6876855701805,4.48785260276531,-157183.58174652862,10.5,10499842816.418253,47.655,-122.3035,60.0,12.416666666666666
2026-01-20T23:12:26+00:00,SAT-45189,358.9633025716819,48.857860024801575,1101.163570566005,4.513064218534244,-158066.59917578567,10.5,10499841933.400824,47.655,-122.3035,60.0,12.433333333333334
2026-01-20T23:12:27+00:00,SAT-45189,359.0473478944027,48.56603776113175,1105.6645999466232,4.537964237861702,-158938.7031796106,10.5,10499841061.29682,47.655,-122.3035,60.0,12.45
2026-01-20T23:12:28+00:00,SAT-45189,359.1293706729124,48.27628447485732,1110.1904629465173,4.562555992672064,-159800.01045608916,10.5,10499840199.989544,47.655,-122.3035,60.0,12.466666666666667
2026-01-20T23:12:29+00:00,SAT-45189,359.20942883417035,47.988589729183566,1114.7408521232092,4.586842829817644,-160650.63822614666,10.5,10499839349.361774,47.655,-122.3035,60.0,12.483333333333333
2026-01-20T23:12:30+00:00,SAT-45189,359.28757813713463,47.702942763435246,1119.3154633721472,4.6108280761751805,-161490.70301107905,10.5,10499838509.29699,47.655,-122.3035,60.0,12.5
2026-01-20T23:12:31+00:00,SAT-45189,359.36387227179523,47.41933251422532,1123.9139959067859,4.634515070764688,-162320.3217574914,10.5,10499837679.678242,47.655,-122.3035,60.0,12.516666666666667
2026-01-20T23:12:32+00:00,SAT-45189,359.43836295345625,47.13774763365846,1128.536152270695,4.65790714409375,-163139.61111384723,10.5,10499836860.388885,47.655,-122.3035,60.0,12.533333333333333
2026-01-20T23:12:33+00:00,SAT-45189,359.51110001167893,46.8581765079432,1133.1816383290711,4.681007591127863,-163948.68648377596,10.5,10499836051.313517,47.655,-122.3035,60.0,12.55
2026-01-20T23:12:34+00:00,SAT-45189,359.58213147408895,46.58060727670896,1137.8501632332895,4.703819755611577,-164747.6649793557,10.5,10499835252.33502,47.655,-122.3035,60.0,12.566666666666666
2026-01-20T23:12:35+00:00,SAT-45189,359.6515036471566,46.30502784649596,1142.5414394695529,4.726346906299203,-165536.6610861893,10.5,10499834463.338913,47.655,-122.3035,60.0,12.583333333333334
2026-01-20T23:12:36+00:00,SAT-45189,359.7192611908445,46.03142591078735,1147.2551827841019,4.748592357767038,-166315.79089475924,10.5,10499833684.209105,47.655,-122.3035,60.0,12.6
2026-01-20T23:12:37+00:00,SAT-45189,359.7854471912629,45.75978896217626,1151.991112228915,4.77055939153028,-167085.16933760868,10.5,10499832914.830662,47.655,-122.3035,60.0,12.616666666666667
2026-01-20T23:12:38+00:00,SAT-45189,359.8501032284208,45.49010430845691,1156.7489501287344,4.7922512340681225,-167844.9094196869,10.5,10499832155.09058,47.655,-122.3035,60.0,12.633333333333333
2026-01-20T23:12:39+00:00,SAT-45189,359.9132694402809,45.22235908915643,1161.5284220261783,4.813671179018972,-168595.12649814293,10.5,10499831404.873503,47.655,-122.3035,60.0,12.65
2026-01-20T23:12:40+00:00,SAT-45189,359.9749845852502,44.956540284559026,1166.32925674872,4.834822420854845,-169335.9324568995,10.5,10499830664.067543,47.655,-122.3035,60.0,12.666666666666666
2026-01-20T23:12:41+00:00,SAT-45189,0.03528609932846316,44.692634733401384,1171.1511863097858,4.855708207622515,-170067.44105629367,10.5,10499829932.558943,47.655,-122.3035,60.0,12.683333333333334
2026-01-20T23:12:42+00:00,SAT-45189,0.09421015240822175,44.43062914148084,1175.993945962188,4.87633170591357,-170789.76320375773,10.5,10499829210.236795,47.655,-122.3035,60.0,12.7
2026-01-20T23:12:43+00:00,SAT-45189,0.15179170011338328,44.17051009707249,1180.857274116886,4.896696108835208,-171503.01073541245,10.5,10499828496.989265,47.655,-122.3035,60.0,12.716666666666667
2026-01-20T23:12:44+00:00,SAT-45189,0.20806453442915018,43.9122640799157,1185.7409123694308,4.916804564283142,-172207.2939038813,10.5,10499827792.706097,47.655,-122.3035,60.0,12.733333333333333
2026-01-20T23:12:45+00:00,SAT-45189,0.2630613310267247,43.65587747352969,1190.6446054548758,4.936660223926614,-172902.7230939527,10.5,10499827097.276907,47.655,-122.3035,60.0,12.75
2026-01-20T23:12:46+00:00,SAT-45189,0.3168136948705383,43.40133657442368,1195.5681012515386,4.956266175238834,-173589.40644199846,10.5,10499826410.593557,47.655,-122.3035,60.0,12.766666666666667
2026-01-20T23:12:47+00:00,SAT-45189,0.36935220288446946,43.148627604323636,1200.5111507169768,4.975625524909562,-174267.45275743527,10.5,10499825732.547243,47.655,-122.3035,60.0,12.783333333333333
2026-01-20T23:12:48+00:00,SAT-45189,0.42070644553892045,42.89773671761644,1205.4735079071534,4.994741331579684,-174936.96916680498,10.5,10499825063.030832,47.655,-122.3035,60.0,12.8
2026-01-20T23:12:49+00:00,SAT-45189,0.470905065725927,42.648650011803404,1210.4549299285154,5.013616654031878,-175598.06280161563,10.5,10499824401.937199,47.655,-122.3035,60.0,12.816666666666666
2026-01-20T23:12:50+00:00,SAT-45189,0.5199757963383193,42.40135353506686,1215.4551769381367,5.03225448043804,-176250.83832028694,10.5,10499823749.16168,47.655,-122.3035,60.0,12.833333333333334
2026-01-20T23:12:51+00:00,SAT-45189,0.5679454953858661,42.15583329692884,1220.4740120732934,5.050657837009297,-176895.4017135335,10.5,10499823104.598286,47.655,-122.3035,60.0,12.85
2026-01-20T23:12:52+00:00,SAT-45189,0.6148401805787871,41.912075273149014,1225.5112014894041,5.068829669227844,-177531.85614460107,10.5,10499822468.143856,47.655,-122.3035,60.0,12.866666666666667
2026-01-20T23:12:53+00:00,SAT-45189,0.6606850611627407,41.67006541606613,1230.5665142795137,5.0867729079361,-178160.3042639887,10.5,10499821839.695736,47.655,-122.3035,60.0,12.883333333333333
2026-01-20T23:12:54+00:00,SAT-45189,0.7055045689558663,41.42978966128897,1235.6397224596956,5.104490489119414,-178780.84890232244,10.5,10499821219.151098,47.655,-122.3035,60.0,12.9
2026-01-20T23:12:55+00:00,SAT-45189,0.7493223881576586,41.19123393316748,1240.7306009741772,5.121985294378788,-179393.59098545858,10.5,10499820606.409014,47.655,-122.3035,60.0,12.916666666666666
2026-01-20T23:12:56+00:00,SAT-45189,0.7921614832780489,40.9543841527262,1245.8389276411044,5.139260169674792,-179998.63019097468,10.5,10499820001.369808,47.655,-122.3035,60.0,12.933333333333334
2026-01-20T23:12:57+00:00,SAT-45189,0.8340441260066462,40.71922624435112,1250.9644831169935,5.156317954742554,-180596.06597840704,10.5,10499819403.934021,47.655,-122.3035,60.0,12.95
2026-01-20T23:12:58+00:00,SAT-45189,0.8749919211348779,40.48574614081113,1256.1070508905232,5.173161462015642,-181185.9968510757,10.5,10499818814.003149,47.655,-122.3035,60.0,12.966666666666667
2026-01-20T23:12:59+00:00,SAT-45189,0.9150258311771983,40.2539297889822,1261.2664172553068,5.189793456984121,-181768.51966814077,10.5,10499818231.480331,47.655,-122.3035,60.0,12.983333333333333
2026-01-20T23:13:00+00:00,SAT-45189,0.9541661997328985,40.02376315613457,1266.4423712630723,5.2062166776410805,-182343.730325702,10.5,10499817656.269674,47.655,-122.3035,60.0,13.0
2026-01-20T23:13:01+00:00,SAT-45189,0.992432774031076,39.79523223505966,1271.6347046962396,5.222433859052266,-182911.72461733109,10.5,10499817088.275383,47.655,-122.3035,60.0,13.016666666666667
2026-01-20T23:13:02+00:00,SAT-45189,1.0298447266629676,39.56832304786337,1276.8432120650014,5.23844766734519,-183472.5959220912,10.5,10499816527.404078,47.655,-122.3035,60.0,13.033333333333333
2026-01-20T23:13:03+00:00,SAT-45189,1.0664206759132089,39.34302165239061,1282.0676905385667,5.254260789632517,-184026.43835403436,10.5,10499815973.561646,47.655,-122.3035,60.0,13.05
2026-01-20T23:13:04+00:00,SAT-45189,1.102178705867086,39.119314144513105,1287.3079399660937,5.269875852275092,-184573.3438994268,10.5,10499815426.656101,47.655,-122.3035,60.0,13.066666666666666
2026-01-20T23:13:05+00:00,SAT-45189,1.137136385086722,38.89718666371688,1292.563762816096,5.285295419857858,-185113.40238088148,10.5,10499814886.59762,47.655,-122.3035,60.0,13.083333333333334
2026-01-20T23:13:06+00:00,SAT-45189,1.17131078451462,38.67662539842378,1297.8349641148343,5.300522105928167,-185646.7053358819,10.5,10499814353.294664,47.655,-122.3035,60.0,13.1
2026-01-20T23:13:07+00:00,SAT-45189,1.2047184953941596,38.457616586500635,1303.1213514951464,5.315558444247689,-186173.34150747958,10.5,10499813826.658493,47.655,-122.3035,60.0,13.116666666666667
2026-01-20T23:13:08+00:00,SAT-45189,1.2373756455435834,38.24014652095632,1308.422735116876,5.330406934976386,-186693.39846185208,10.5,10499813306.601538,47.655,-122.3035,60.0,13.133333333333333
2026-01-20T23:13:09+00:00,SAT-45189,1.269297915316302,38.02420155347509,1313.7389276333593,5.345070080245095,-187206.96383420523,10.5,10499812793.036165,47.655,-122.3035,60.0,13.15
2026-01-20T23:13:10+00:00,SAT-45189,1.300500553104866,37.809768096331,1319.0697441933905,5.359550317542147,-187714.12299569105,10.5,10499812285.877005,47.655,-122.3035,60.0,13.166666666666666
2026-01-20T23:13:11+00:00,SAT-45189,1.3309983898120137,37.59683262682699,1324.4150023767527,5.373850090630865,-188214.96153723812,10.5,10499811785.038464,47.655,-122.3035,60.0,13.183333333333334
2026-01-20T23:13:12+00:00,SAT-45189,1.3608058531707583,37.38538168870334,1329.774522200475,5.387971777900734,-188709.5627601069,10.5,10499811290.43724,47.655,-122.3035,60.0,13.2
2026-01-20T23:13:13+00:00,SAT-45189,1.3899369810551427,37.17540189623661,1335.1481260536348,5.401917761040099,-189198.0100810976,10.5,10499810801.98992,47.655,-122.3035,60.0,13.216666666666667
2026-01-20T23:13:14+00:00,SAT-45189,1.4184054346725645,36.96687993547276,1340.5356387006454,5.415690383784718,-189680.38558775067,10.5,10499810319.614412,47.655,-122.3035,60.0,13.233333333333333
2026-01-20T23:13:15+00:00,SAT-45189,1.4462245109896306,36.75980256694248,1345.9368872434065,5.429291922373177,-190156.76900356967,10.5,10499809843.230997,47.655,-122.3035,60.0,13.25
2026-01-20T23:13:16+00:00,SAT-45189,1.4734071545090903,36.55415662931143,1351.3517010539867,5.442724710240133,-190627.24205530676,10.5,10499809372.757944,47.655,-122.3035,60.0,13.266666666666667
2026-01-20T23:13:17+00:00,SAT-45189,1.499965969272684,36.34992903820033,1356.7799118316666,5.45599095213543,-191091.88196262767,10.5,10499808908.118038,47.655,-122.3035,60.0,13.283333333333333
2026-01-20T23:13:18+00:00,SAT-45189,1.525913229383076,36.147106791868765,1362.221353474596,5.469092891564748,-191550.76730259124,10.5,10499808449.232697,47.655,-122.3035,60.0,13.3
2026-01-20T23:13:19+00:00,SAT-45189,1.5512608900286684,35.94567697048514,1367.67586211845,5.482032737893335,-192003.97545651408,10.5,10499807996.024544,47.655,-122.3035,60.0,13.316666666666666
2026-01-20T23:13:20+00:00,SAT-45189,1.5760205976730493,35.745626738029465,1373.1432761023757,5.49481262075743,-192451.58101326553,10.5,10499807548.418987,47.655,-122.3035,60.0,13.333333333333334
