satellites_20260121_005943/SAT-52496.csv

timestamp,satellite,azimuth_deg,elevation_deg,distance_km,relative_velocity_kms,doppler_shift_hz,tx_freq_ghz,rx_freq_hz,ue_lat,ue_lon,ue_alt_m,time_minutes
2026-01-20T23:13:29+00:00,SAT-52496,203.1401992021874,30.173080034798744,1458.9445938728354,-5.601210077666254,196178.07001500906,10.5,10500196178.070015,47.655,-122.3035,60.0,13.483333333333333
2026-01-20T23:13:30+00:00,SAT-52496,203.16267259726388,30.35609961215876,1453.3583203553762,-5.589969250891763,195784.3687127163,10.5,10500195784.368713,47.655,-122.3035,60.0,13.5
2026-01-20T23:13:31+00:00,SAT-52496,203.18563894502336,30.540316504025323,1447.7832576891535,-5.578591927000765,195385.88670402122,10.5,10500195385.886703,47.655,-122.3035,60.0,13.516666666666667
2026-01-20T23:13:32+00:00,SAT-52496,203.209106796691,30.72574176537413,1442.2195420072915,-5.567076296066642,194982.56059763764,10.5,10500194982.560598,47.655,-122.3035,60.0,13.533333333333333
2026-01-20T23:13:33+00:00,SAT-52496,203.23308490229263,30.912386535504055,1436.6673112480144,-5.55542050760582,194574.3255818034,10.5,10500194574.325583,47.655,-122.3035,60.0,13.55
2026-01-20T23:13:34+00:00,SAT-52496,203.25758221635814,31.100262036828603,1431.1267051950954,-5.543622712487356,194161.1168921309,10.5,10500194161.116892,47.655,-122.3035,60.0,13.566666666666666
2026-01-20T23:13:35+00:00,SAT-52496,203.28260790400785,31.28937957495866,1425.597865476508,-5.531681041040855,193742.86904485428,10.5,10500193742.869045,47.655,-122.3035,60.0,13.583333333333334
2026-01-20T23:13:36+00:00,SAT-52496,203.30817134714587,31.479750538031514,1420.08093558491,-5.519593555960766,193319.51418733838,10.5,10500193319.514187,47.655,-122.3035,60.0,13.6
2026-01-20T23:13:37+00:00,SAT-52496,203.33428215066647,31.671386394349568,1414.5760609450986,-5.50735833298627,192890.98492382964,10.5,10500192890.984924,47.655,-122.3035,60.0,13.616666666666667
2026-01-20T23:13:38+00:00,SAT-52496,203.36095014924462,31.864298692669056,1409.083388901,-5.494973442223183,192457.21366127036,10.5,10500192457.213661,47.655,-122.3035,60.0,13.633333333333333
2026-01-20T23:13:39+00:00,SAT-52496,203.38818541430854,32.05849906181623,1403.6030687212894,-5.482436856534046,192018.1294007319,10.5,10500192018.1294,47.655,-122.3035,60.0,13.65
2026-01-20T23:13:40+00:00,SAT-52496,203.4159982607814,32.25399920702545,1398.135251696373,-5.469746594747591,191573.66275321614,10.5,10500191573.662754,47.655,-122.3035,60.0,13.666666666666666
2026-01-20T23:13:41+00:00,SAT-52496,203.44439925479725,32.450810911160985,1392.6800910925447,-5.45690060287431,191123.74177932204,10.5,10500191123.74178,47.655,-122.3035,60.0,13.683333333333334
2026-01-20T23:13:42+00:00,SAT-52496,203.47339922109606,32.648946031698884,1387.2377422246113,-5.44389683378795,190668.29478002907,10.5,10500190668.29478,47.655,-122.3035,60.0,13.7
2026-01-20T23:13:43+00:00,SAT-52496,203.50300925109138,32.848416500427994,1381.8083624490469,-5.430733195933943,190207.2485002488,10.5,10500190207.2485,47.655,-122.3035,60.0,13.716666666666667
2026-01-20T23:13:44+00:00,SAT-52496,203.53324071097916,33.04923432122084,1376.3921112083021,-5.417407576152024,189740.5289281702,10.5,10500189740.528929,47.655,-122.3035,60.0,13.733333333333333
2026-01-20T23:13:45+00:00,SAT-52496,203.5641052502483,33.25141156851525,1370.9891500523531,-5.403917839621856,189268.06129335478,10.5,10500189268.061293,47.655,-122.3035,60.0,13.75
2026-01-20T23:13:46+00:00,SAT-52496,203.59561481052992,33.45496038568943,1365.5996426603035,-5.39026180185606,188789.76908581413,10.5,10500188789.769085,47.655,-122.3035,60.0,13.766666666666667
2026-01-20T23:13:47+00:00,SAT-52496,203.6277816345907,33.65989298227373,1360.2237548899193,-5.3764373037225885,188305.57668361082,10.5,10500188305.576683,47.655,-122.3035,60.0,13.783333333333333
2026-01-20T23:13:48+00:00,SAT-52496,203.6606182761387,33.86622163384479,1354.86165475234,-5.362442093403326,187815.4052185493,10.5,10500187815.405218,47.655,-122.3035,60.0,13.8
2026-01-20T23:13:49+00:00,SAT-52496,203.6941376092489,34.07395867737641,1349.513512504519,-5.348273944592534,187319.1767159853,10.5,10500187319.176716,47.655,-122.3035,60.0,13.816666666666666
2026-01-20T23:13:50+00:00,SAT-52496,203.72835283891482,34.28311651088857,1344.1795006237787,-5.333930580172149,186816.8114216121,10.5,10500186816.811422,47.655,-122.3035,60.0,13.833333333333334
2026-01-20T23:13:51+00:00,SAT-52496,203.76327751149086,34.493707590095845,1338.859793858487,-5.319409701872774,186308.2288403137,10.5,10500186308.22884,47.655,-122.3035,60.0,13.85
2026-01-20T23:13:52+00:00,SAT-52496,203.7989255257493,34.70574442601423,1333.5545692491523,-5.304708992771811,185793.34782366015,10.5,10500185793.347824,47.655,-122.3035,60.0,13.866666666666667
2026-01-20T23:13:53+00:00,SAT-52496,203.83531114437082,34.919239582550695,1328.264006147028,-5.2898260640556805,185272.08470529516,10.5,10500185272.084705,47.655,-122.3035,60.0,13.883333333333333
2026-01-20T23:13:54+00:00,SAT-52496,203.87244900551258,35.13420567178537,1322.9882862858099,-5.274758605122767,184744.35855817646,10.5,10500184744.358559,47.655,-122.3035,60.0,13.9
2026-01-20T23:13:55+00:00,SAT-52496,203.9103541359038,35.350655355114654,1317.727593703634,-5.259504123101494,184210.0820713965,10.5,10500184210.082071,47.655,-122.3035,60.0,13.916666666666666
2026-01-20T23:13:56+00:00,SAT-52496,203.94904196255519,35.56860133374351,1312.482114924861,-5.24406026729857,183669.17291373282,10.5,10500183669.172915,47.655,-122.3035,60.0,13.933333333333334
2026-01-20T23:13:57+00:00,SAT-52496,203.9885283273392,35.788056352117906,1307.2520388182752,-5.228424519090665,183121.54287234266,10.5,10500183121.542871,47.655,-122.3035,60.0,13.95
2026-01-20T23:13:58+00:00,SAT-52496,204.0288294998193,36.00903318855517,1302.0375567645688,-5.212594432947887,182567.10629442454,10.5,10500182567.106295,47.655,-122.3035,60.0,13.966666666666667
2026-01-20T23:13:59+00:00,SAT-52496,204.0699621924298,36.23154465556194,1296.8388625834418,-5.19656746466566,182005.77407117237,10.5,10500182005.77407,47.655,-122.3035,60.0,13.983333333333333
2026-01-20T23:14:00+00:00,SAT-52496,204.11194357493628,36.45560359282967,1291.6561526320156,-5.18034108833812,181437.45773467812,10.5,10500181437.457735,47.655,-122.3035,60.0,14.0
2026-01-20T23:14:01+00:00,SAT-52496,204.15479129039804,36.681222864911916,1286.4896257865796,-5.163912756695622,180862.06806878388,10.5,10500180862.06807,47.655,-122.3035,60.0,14.016666666666667
2026-01-20T23:14:02+00:00,SAT-52496,204.19852347149774,36.90841535704509,1281.3394834639018,-5.147279832715637,180279.51271380612,10.5,10500180279.512714,47.655,-122.3035,60.0,14.033333333333333
2026-01-20T23:14:03+00:00,SAT-52496,204.24315875691397,37.13719396775419,1276.20592971074,-5.130439748900356,179689.70174511106,10.5,10500179689.701746,47.655,-122.3035,60.0,14.05
2026-01-20T23:14:04+00:00,SAT-52496,204.28871630977247,37.36757160812978,1271.0891711345037,-5.11338982057682,179092.54113409552,10.5,10500179092.541134,47.655,-122.3035,60.0,14.066666666666666
2026-01-20T23:14:05+00:00,SAT-52496,204.33521583522702,37.599561192733105,1265.9894170201148,-5.096127419878587,178487.93884176086,10.5,10500178487.93884,47.655,-122.3035,60.0,14.083333333333334
2026-01-20T23:14:06+00:00,SAT-52496,204.3826776003209,37.83317563787723,1260.906879273356,-5.07864980315659,177875.7987739111,10.5,10500177875.798775,47.655,-122.3035,60.0,14.1
2026-01-20T23:14:07+00:00,SAT-52496,204.43112245309436,38.06842785195988,1255.841772536341,-5.060954300411953,177256.02741589153,10.5,10500177256.027416,47.655,-122.3035,60.0,14.116666666666667
2026-01-20T23:14:08+00:00,SAT-52496,204.48057184431468,38.30533073404455,1250.7943141140636,-5.043038119422504,176628.52697227057,10.5,10500176628.526972,47.655,-122.3035,60.0,14.133333333333333
2026-01-20T23:14:09+00:00,SAT-52496,204.5310478481939,38.54389716323862,1245.7647240962929,-5.024898562603198,175993.2029622092,10.5,10500175993.202963,47.655,-122.3035,60.0,14.15
2026-01-20T23:14:10+00:00,SAT-52496,204.5825731862133,38.78413999778213,1240.75322526319,-5.006532746337177,175349.95438924737,10.5,10500175349.95439,47.655,-122.3035,60.0,14.166666666666666
2026-01-20T23:14:11+00:00,SAT-52496,204.63517124903396,39.0260720606957,1235.7600432708432,-4.987937938827312,174698.68557429413,10.5,10500174698.685574,47.655,-122.3035,60.0,14.183333333333334
2026-01-20T23:14:12+00:00,SAT-52496,204.688866122955,39.26970614100791,1230.7854064998526,-4.969111253522792,174039.29541812997,10.5,10500174039.295418,47.655,-122.3035,60.0,14.2
2026-01-20T23:14:13+00:00,SAT-52496,204.7436826142276,39.5150549801457,1225.8295462096726,-4.950049835518889,173371.68392991505,10.5,10500173371.68393,47.655,-122.3035,60.0,14.216666666666667
2026-01-20T23:14:14+00:00,SAT-52496,204.79964627645134,39.76213126677879,1220.8926965070484,-4.930750827645231,172695.7510394572,10.5,10500172695.75104,47.655,-122.3035,60.0,14.233333333333333
2026-01-20T23:14:15+00:00,SAT-52496,204.85678343885445,40.01094762980233,1215.9750943482768,-4.911211292766114,172011.39387583995,10.5,10500172011.393875,47.655,-122.3035,60.0,14.25
2026-01-20T23:14:16+00:00,SAT-52496,204.91512123490887,40.261516627019226,1211.076979618958,-4.891428341262861,171318.5112323941,10.5,10500171318.511232,47.655,-122.3035,60.0,14.266666666666667
2026-01-20T23:14:17+00:00,SAT-52496,204.97468763372927,40.51385073979387,1206.1985950866053,-4.8713989995878535,170616.99896290406,10.5,10500170616.998962,47.655,-122.3035,60.0,14.283333333333333
2026-01-20T23:14:18+00:00,SAT-52496,205.03551147133115,40.76796236069015,1201.3401864843497,-4.851120325554954,169906.75401956585,10.5,10500169906.754019,47.655,-122.3035,60.0,14.3
2026-01-20T23:14:19+00:00,SAT-52496,205.09762248470548,41.023863786516245,1196.502002479663,-4.830589313428195,169187.67112879152,10.5,10500169187.67113,47.655,-122.3035,60.0,14.316666666666666
2026-01-20T23:14:20+00:00,SAT-52496,205.16105134625556,41.281567206038844,1191.6842947377372,-4.809803006128566,168459.6467211658,10.5,10500168459.64672,47.655,-122.3035,60.0,14.333333333333334
2026-01-20T23:14:21+00:00,SAT-52496,205.22582970130986,41.541084693117604,1186.8873178729582,-4.788758346504264,167722.57372230082,10.5,10500167722.573723,47.655,-122.3035,60.0,14.35
2026-01-20T23:14:22+00:00,SAT-52496,205.29199020535913,41.802428191502166,1182.1113295487112,-4.76745232494745,166976.34672299935,10.5,10500166976.346724,47.655,-122.3035,60.0,14.366666666666667
2026-01-20T23:14:23+00:00,SAT-52496,205.35956656504936,42.0656095069298,1177.3565904299637,-4.745881895503926,166220.85904106108,10.5,10500166220.859041,47.655,-122.3035,60.0,14.383333333333333
2026-01-20T23:14:24+00:00,SAT-52496,205.42859357997042,42.330640294279945,1172.6233642195143,-4.724043986607764,165456.00309725443,10.5,10500165456.003098,47.655,-122.3035,60.0,14.4
2026-01-20T23:14:25+00:00,SAT-52496,205.4991071865192,42.5975320446997,1167.9119176835377,-4.701935543406346,164681.6718977188,10.5,10500164681.671898,47.655,-122.3035,60.0,14.416666666666666
2026-01-20T23:14:26+00:00,SAT-52496,205.57114450453133,42.86629607451982,1163.2225206349137,-4.679553462334448,163897.75674247186,10.5,10500163897.756742,47.655,-122.3035,60.0,14.433333333333334
2026-01-20T23:14:27+00:00,SAT-52496,205.64474388512053,43.13694350994274,1158.5554459818122,-4.656894679203205,163104.15031065806,10.5,10500163104.15031,47.655,-122.3035,60.0,14.45
2026-01-20T23:14:28+00:00,SAT-52496,205.7199449622493,43.409485276088105,1153.9109696884202,-4.633956063994549,162300.7429758048,10.5,10500162300.742975,47.655,-122.3035,60.0,14.466666666666667
2026-01-20T23:14:29+00:00,SAT-52496,205.79678870508116,43.683932079411015,1149.2893708405963,-4.610734519870306,161487.42627353958,10.5,10500161487.426273,47.655,-122.3035,60.0,14.483333333333333
2026-01-20T23:14:30+00:00,SAT-52496,205.87531747456237,43.96029439512917,1144.690931612779,-4.587226939997271,160664.09138942164,10.5,10500160664.091389,47.655,-122.3035,60.0,14.5
2026-01-20T23:14:31+00:00,SAT-52496,205.95557508206096,44.238582451520415,1140.115937277955,-4.563430193362793,159830.62866214375,10.5,10500159830.628662,47.655,-122.3035,60.0,14.516666666666667
2026-01-20T23:14:32+00:00,SAT-52496,206.037606850684,44.51880621262767,1135.5646762317745,-4.539341165748597,158986.92901860885,10.5,10500158986.929018,47.655,-122.3035,60.0,14.533333333333333
2026-01-20T23:14:33+00:00,SAT-52496,206.12145968038357,44.80097536266914,1131.0374399758011,-4.514956722547014,158132.8826715969,10.5,10500158132.882671,47.655,-122.3035,60.0,14.55
2026-01-20T23:14:34+00:00,SAT-52496,206.20718211568786,45.08509928742963,1126.5345231378476,-4.490273756725994,157268.3807997029,10.5,10500157268.3808,47.655,-122.3035,60.0,14.566666666666666
2026-01-20T23:14:35+00:00,SAT-52496,206.2948244177689,45.371187057813586,1122.056223444473,-4.465289133441037,156393.313607412,10.5,10500156393.313608,47.655,-122.3035,60.0,14.583333333333334
2026-01-20T23:14:36+00:00,SAT-52496,206.38443863914148,45.65924740910723,1117.6028417487212,-4.439999747921042,155507.57235250706,10.5,10500155507.572353,47.655,-122.3035,60.0,14.6
2026-01-20T23:14:37+00:00,SAT-52496,206.47607870336932,45.949288723030875,1113.1746820001279,-4.414402487930168,154611.0480313243,10.5,10500154611.04803,47.655,-122.3035,60.0,14.616666666666667
2026-01-20T23:14:38+00:00,SAT-52496,206.56980048814893,46.24131900648972,1108.7720512521655,-4.388494252011161,153703.63201771135,10.5,10500153703.632017,47.655,-122.3035,60.0,14.633333333333333
2026-01-20T23:14:39+00:00,SAT-52496,206.6656619131375,46.53534587057679,1104.395259651493,-4.362271950294045,152785.2160913517,10.5,10500152785.216091,47.655,-122.3035,60.0,14.65
2026-01-20T23:14:40+00:00,SAT-52496,206.76372303242124,46.83137650862553,1100.0446204264,-4.335732501407173,151855.69232957595,10.5,10500151855.69233,47.655,-122.3035,60.0,14.666666666666666
2026-01-20T23:14:41+00:00,SAT-52496,206.8640461318451,47.1294176730562,1095.7204498783296,-4.308872850669832,150914.9537445443,10.5,10500150914.953745,47.655,-122.3035,60.0,14.683333333333334
2026-01-20T23:14:42+00:00,SAT-52496,206.9666958319801,47.42947565237836,1091.4230673552615,-4.281689953867084,149962.8937149726,10.5,10500149962.893715,47.655,-122.3035,60.0,14.7
2026-01-20T23:14:43+00:00,SAT-52496,207.07173919627897,47.7315562460252,1087.1527952412716,-4.254180774299162,148999.40588278975,10.5,10500148999.405882,47.655,-122.3035,60.0,14.716666666666667
2026-01-20T23:14:44+00:00,SAT-52496,207.1792458450263,48.03566473775461,1082.9099589490372,-4.226342332200506,148024.38588400153,10.5,10500148024.385883,47.655,-122.3035,60.0,14.733333333333333
2026-01-20T23:14:45+00:00,SAT-52496,207.28928807679182,48.341805871362475,1078.694886863056,-4.198171617975472,147037.7283098378,10.5,10500147037.72831,47.655,-122.3035,60.0,14.75
2026-01-20T23:14:46+00:00,SAT-52496,207.40194099435197,48.649983818957374,1074.507910369395,-4.169665708314349,146039.33077362695,10.5,10500146039.330774,47.655,-122.3035,60.0,14.766666666666667
2026-01-20T23:14:47+00:00,SAT-52496,207.51728264069575,48.96020215623214,1070.349363769636,-4.140821678796202,145029.09084977754,10.5,10500145029.090849,47.655,-122.3035,60.0,14.783333333333333
2026-01-20T23:14:48+00:00,SAT-52496,207.63539414031646,49.27246383009996,1066.2195842819833,-4.111636648587439,144006.90763931128,10.5,10500144006.907639,47.655,-122.3035,60.0,14.8
2026-01-20T23:14:49+00:00,SAT-52496,207.7563598497488,49.58677112813817,1062.118911997792,-4.082107757104739,142972.6809525,10.5,10500142972.680952,47.655,-122.3035,60.0,14.816666666666666
2026-01-20T23:14:50+00:00,SAT-52496,207.8802675159667,49.90312564474424,1058.047689861373,-4.052232218729228,141926.31322518756,10.5,10500141926.313225,47.655,-122.3035,60.0,14.833333333333334
2026-01-20T23:14:51+00:00,SAT-52496,208.00720844557026,50.2215282499242,1054.0062635952272,-4.022007259698419,140867.70730847868,10.5,10500140867.707308,47.655,-122.3035,60.0,14.85
2026-01-20T23:14:52+00:00,SAT-52496,208.13727768183836,50.54197905160908,1049.9949816882213,-3.9914301530676655,139796.7676932369,10.5,10500139796.767693,47.655,-122.3035,60.0,14.866666666666667
2026-01-20T23:14:53+00:00,SAT-52496,208.2705741931452,50.86447735886328,1046.014195348895,-3.960498253543163,138713.4017300836,10.5,10500138713.40173,47.655,-122.3035,60.0,14.883333333333333
2026-01-20T23:14:54+00:00,SAT-52496,208.407201073703,51.18902164610981,1042.0642584240281,-3.929208937879968,137617.51754188447,10.5,10500137617.517542,47.655,-122.3035,60.0,14.9
2026-01-20T23:14:55+00:00,SAT-52496,208.54726575415697,51.51560951072039,1038.1455273766492,-3.8975596477658345,136509.0255257231,10.5,10500136509.025526,47.655,-122.3035,60.0,14.916666666666666
2026-01-20T23:14:56+00:00,SAT-52496,208.6908802262395,51.844237631968866,1034.2583612212773,-3.8655478852261482,135387.83819196196,10.5,10500135387.838192,47.655,-122.3035,60.0,14.933333333333334
2026-01-20T23:14:57+00:00,SAT-52496,208.83816128079724,52.17490172754937,1030.403121463745,-3.8331712384572403,134253.87106903477,10.5,10500134253.871069,47.655,-122.3035,60.0,14.95
2026-01-20T23:14:58+00:00,SAT-52496,208.98923076126505,52.50759651006563,1026.5801720152572,-3.8004273360521825,133107.0411002398,10.5,10500133107.0411,47.655,-122.3035,60.0,14.966666666666667
2026-01-20T23:14:59+00:00,SAT-52496,209.14421583090683,52.84231563733716,1022.789879152101,-3.7673138810234277,131947.26783535694,10.5,10500131947.267836,47.655,-122.3035,60.0,14.983333333333333
