satellites_20260121_005943/SAT-64046.csv

timestamp,satellite,azimuth_deg,elevation_deg,distance_km,relative_velocity_kms,doppler_shift_hz,tx_freq_ghz,rx_freq_hz,ue_lat,ue_lon,ue_alt_m,time_minutes
2026-01-20T23:06:37+00:00,SAT-64046,249.38985413186137,30.047306839860735,3519.2060726973227,-4.887532037444437,171182.0461913241,10.5,10500171182.046192,47.655,-122.3035,60.0,6.616666666666666
2026-01-20T23:06:38+00:00,SAT-64046,249.45740932307018,30.113522897063163,3514.331574078645,-4.882551869022925,171007.6196271112,10.5,10500171007.619627,47.655,-122.3035,60.0,6.633333333333334
2026-01-20T23:06:39+00:00,SAT-64046,249.52529972791984,30.179775629674747,3509.4620423479396,-4.877545458864763,170832.2739662784,10.5,10500170832.273966,47.655,-122.3035,60.0,6.65
2026-01-20T23:06:40+00:00,SAT-64046,249.59352711031855,30.246064612635223,3504.5975036769655,-4.872512682275692,170656.00484150526,10.5,10500170656.00484,47.655,-122.3035,60.0,6.666666666666667
2026-01-20T23:06:41+00:00,SAT-64046,249.66209324332914,30.312389413756716,3499.7379843618423,-4.867453443473564,170478.80889809583,10.5,10500170478.808899,47.655,-122.3035,60.0,6.683333333333334
2026-01-20T23:06:42+00:00,SAT-64046,249.73099990963544,30.378749594040922,3494.8835107942177,-4.862367621616425,170300.6819036537,10.5,10500170300.681904,47.655,-122.3035,60.0,6.7
2026-01-20T23:06:43+00:00,SAT-64046,249.80024890117687,30.44514470726522,3490.0341094862592,-4.857255090829926,170121.61944952674,10.5,10500170121.61945,47.655,-122.3035,60.0,6.716666666666667
2026-01-20T23:06:44+00:00,SAT-64046,249.86984201912128,30.51157429984115,3485.1898070756715,-4.8521157582003145,169941.61828148225,10.5,10500169941.618282,47.655,-122.3035,60.0,6.733333333333333
2026-01-20T23:06:45+00:00,SAT-64046,249.93978107435726,30.57803791118601,3480.3506302928263,-4.846949506057432,169760.6742782136,10.5,10500169760.674278,47.655,-122.3035,60.0,6.75
2026-01-20T23:06:46+00:00,SAT-64046,250.0100678871638,30.64453507330932,3475.5166059854514,-4.8417562194663635,169578.7834142139,10.5,10500169578.783415,47.655,-122.3035,60.0,6.766666666666667
2026-01-20T23:06:47+00:00,SAT-64046,250.08070428727015,30.7110653107772,3470.687761115904,-4.836535763280799,169395.94095608767,10.5,10500169395.940956,47.655,-122.3035,60.0,6.783333333333333
2026-01-20T23:06:48+00:00,SAT-64046,250.15169211356334,30.777628140354906,3465.864122781325,-4.831288038847149,169212.1434485689,10.5,10500169212.143448,47.655,-122.3035,60.0,6.8
2026-01-20T23:06:49+00:00,SAT-64046,250.2230332146643,30.844223071428218,3461.045718177248,-4.82601295985242,169027.38786861143,10.5,10500169027.387869,47.655,-122.3035,60.0,6.816666666666666
2026-01-20T23:06:50+00:00,SAT-64046,250.29472944914767,30.910849606093983,3456.2325745852886,-4.820710343651065,168841.66781919572,10.5,10500168841.66782,47.655,-122.3035,60.0,6.833333333333333
2026-01-20T23:06:51+00:00,SAT-64046,250.36678268406695,30.977507237763596,3451.4247194692207,-4.815380136536453,168654.98141928823,10.5,10500168654.981419,47.655,-122.3035,60.0,6.85
2026-01-20T23:06:52+00:00,SAT-64046,250.43919479696996,31.044195452845397,3446.622180346382,-4.810022184315213,168467.323268385,10.5,10500168467.323269,47.655,-122.3035,60.0,6.866666666666666
2026-01-20T23:06:53+00:00,SAT-64046,250.5119676743489,31.110913729288843,3441.8249848878913,-4.804636390647174,168278.68999224564,10.5,10500168278.689993,47.655,-122.3035,60.0,6.883333333333334
2026-01-20T23:06:54+00:00,SAT-64046,250.58510321256995,31.177661537295727,3437.0331608609526,-4.799222617524749,168089.07675726071,10.5,10500168089.076757,47.655,-122.3035,60.0,6.9
2026-01-20T23:06:55+00:00,SAT-64046,250.65860331721962,31.244438338664224,3432.246736170408,-4.793780776090793,167898.4804512772,10.5,10500167898.480452,47.655,-122.3035,60.0,6.916666666666667
2026-01-20T23:06:56+00:00,SAT-64046,250.73246990390163,31.311243587383302,3427.4657388097203,-4.788310723190981,167706.8960604249,10.5,10500167706.89606,47.655,-122.3035,60.0,6.933333333333334
2026-01-20T23:06:57+00:00,SAT-64046,250.80670489738824,31.378076728800767,3422.690196915124,-4.782812344651706,167514.31958586138,10.5,10500167514.319586,47.655,-122.3035,60.0,6.95
2026-01-20T23:06:58+00:00,SAT-64046,250.8813102320906,31.444937199935886,3417.9201387367248,-4.777285537811053,167320.7474319319,10.5,10500167320.747433,47.655,-122.3035,60.0,6.966666666666667
2026-01-20T23:06:59+00:00,SAT-64046,250.95628785224812,31.511824429556615,3413.1555926270144,-4.77173014641685,167126.17412602465,10.5,10500167126.174126,47.655,-122.3035,60.0,6.983333333333333
2026-01-20T23:07:00+00:00,SAT-64046,251.03163971108316,31.578737837347877,3408.396587094322,-4.766146108620788,166930.59750195008,10.5,10500166930.597502,47.655,-122.3035,60.0,7.0
2026-01-20T23:07:01+00:00,SAT-64046,251.10736777232387,31.645676835135678,3403.6431507086572,-4.7605332548029935,166734.01161890282,10.5,10500166734.01162,47.655,-122.3035,60.0,7.016666666666667
2026-01-20T23:07:02+00:00,SAT-64046,251.18347400847648,31.712640825303577,3398.8953122092003,-4.754891477035884,166536.41269680235,10.5,10500166536.412697,47.655,-122.3035,60.0,7.033333333333333
2026-01-20T23:07:03+00:00,SAT-64046,251.25996040181073,31.77962920155954,3394.1531004427698,-4.749220658575279,166337.79664677364,10.5,10500166337.796646,47.655,-122.3035,60.0,7.05
2026-01-20T23:07:04+00:00,SAT-64046,251.33682894424214,31.84664134872537,3389.4165443726174,-4.743520686640605,166138.15951876398,10.5,10500166138.15952,47.655,-122.3035,60.0,7.066666666666666
2026-01-20T23:07:05+00:00,SAT-64046,251.41408163738708,31.913676642702388,3384.6856730744744,-4.737791423360479,165937.49648393434,10.5,10500165937.496485,47.655,-122.3035,60.0,7.083333333333333
2026-01-20T23:07:06+00:00,SAT-64046,251.4917204921432,31.980734450029097,3379.9605157615765,-4.732032763344861,165735.8038510797,10.5,10500165735.80385,47.655,-122.3035,60.0,7.1
2026-01-20T23:07:07+00:00,SAT-64046,251.56974752924583,32.047814128245065,3375.2411017522672,-4.726244572177244,165533.07691236536,10.5,10500165533.076912,47.655,-122.3035,60.0,7.116666666666666
2026-01-20T23:07:08+00:00,SAT-64046,251.6481647787569,32.11491502539158,3370.527460498949,-4.720426739632382,165329.31180723704,10.5,10500165329.311808,47.655,-122.3035,60.0,7.133333333333334
2026-01-20T23:07:09+00:00,SAT-64046,251.72697428049048,32.18203648025812,3365.8196215639555,-4.7145791102184065,165124.50308971174,10.5,10500165124.50309,47.655,-122.3035,60.0,7.15
2026-01-20T23:07:10+00:00,SAT-64046,251.80617808321313,32.24917782165147,3361.117614664698,-4.708701613771512,164918.64830235616,10.5,10500164918.648302,47.655,-122.3035,60.0,7.166666666666667
2026-01-20T23:07:11+00:00,SAT-64046,251.88577824611667,32.316338369503974,3356.421469588563,-4.702794081943392,164711.74154890052,10.5,10500164711.741549,47.655,-122.3035,60.0,7.183333333333334
2026-01-20T23:07:12+00:00,SAT-64046,251.96577683710765,32.383517433392974,3351.731216290838,-4.696856411273716,164503.77920572643,10.5,10500164503.779205,47.655,-122.3035,60.0,7.2
2026-01-20T23:07:13+00:00,SAT-64046,252.04617593392663,32.45071431336131,3347.0468848299943,-4.6908884817860255,164294.7570707508,10.5,10500164294.75707,47.655,-122.3035,60.0,7.216666666666667
2026-01-20T23:07:14+00:00,SAT-64046,252.12697762383652,32.51792829958667,3342.3685053841596,-4.6848901443894775,164084.6699221817,10.5,10500164084.669922,47.655,-122.3035,60.0,7.233333333333333
2026-01-20T23:07:15+00:00,SAT-64046,252.20818400311177,32.585158671872136,3337.6961082801554,-4.678861290671648,163873.51396295734,10.5,10500163873.513964,47.655,-122.3035,60.0,7.25
2026-01-20T23:07:16+00:00,SAT-64046,252.28979717771767,32.652404700123476,3333.029723952926,-4.672801823673861,163661.28579717487,10.5,10500163661.285797,47.655,-122.3035,60.0,7.266666666666667
2026-01-20T23:07:17+00:00,SAT-64046,252.37181926353074,32.7196656444164,3328.369382934115,-4.66671155339206,163447.97877008843,10.5,10500163447.97877,47.655,-122.3035,60.0,7.283333333333333
2026-01-20T23:07:18+00:00,SAT-64046,252.45425238461303,32.78694075356855,3323.7151159448654,-4.660590414548969,163233.59059541178,10.5,10500163233.590595,47.655,-122.3035,60.0,7.3
2026-01-20T23:07:19+00:00,SAT-64046,252.5370986754669,32.85422926681907,3319.0669537714216,-4.65443825277792,163018.1158665711,10.5,10500163018.115866,47.655,-122.3035,60.0,7.316666666666666
2026-01-20T23:07:20+00:00,SAT-64046,252.62036027938154,32.921530412455894,3314.4249273539845,-4.648254933974449,162801.549886661,10.5,10500162801.549887,47.655,-122.3035,60.0,7.333333333333333
2026-01-20T23:07:21+00:00,SAT-64046,252.70403934877154,32.9888434080003,3309.7890677665005,-4.642040351023114,162583.88890404542,10.5,10500162583.888905,47.655,-122.3035,60.0,7.35
2026-01-20T23:07:22+00:00,SAT-64046,252.7881380456543,33.05616746049513,3305.159406189747,-4.635794377421406,162365.12848807144,10.5,10500162365.128489,47.655,-122.3035,60.0,7.366666666666666
2026-01-20T23:07:23+00:00,SAT-64046,252.8726585412609,33.12350176612021,3300.5359739306655,-4.629516865423229,162145.26346404586,10.5,10500162145.263464,47.655,-122.3035,60.0,7.383333333333334
2026-01-20T23:07:24+00:00,SAT-64046,252.95760301559605,33.19084550978468,3295.91880244355,-4.623207699960007,161924.28980178037,10.5,10500161924.289803,47.655,-122.3035,60.0,7.4
2026-01-20T23:07:25+00:00,SAT-64046,253.04297365802415,33.258197865489485,3291.3079232974565,-4.616866760617196,161702.2032838483,10.5,10500161702.203283,47.655,-122.3035,60.0,7.416666666666667
2026-01-20T23:07:26+00:00,SAT-64046,253.1287726671259,33.325557996148866,3286.703368181534,-4.6104939038501564,161478.9988827092,10.5,10500161478.998882,47.655,-122.3035,60.0,7.433333333333334
2026-01-20T23:07:27+00:00,SAT-64046,253.2150022502235,33.39292505314621,3282.1051689280944,-4.604089020598481,161254.67277860624,10.5,10500161254.67278,47.655,-122.3035,60.0,7.45
2026-01-20T23:07:28+00:00,SAT-64046,253.30166462399671,33.460298176729296,3277.513357478217,-4.597651962831477,161029.21978687836,10.5,10500161029.219788,47.655,-122.3035,60.0,7.466666666666667
2026-01-20T23:07:29+00:00,SAT-64046,253.38876201368168,33.52767649533434,3272.92796592062,-4.591182605122027,160802.63551453745,10.5,10500160802.635515,47.655,-122.3035,60.0,7.483333333333333
2026-01-20T23:07:30+00:00,SAT-64046,253.47629665346403,33.59505912580833,3268.349026469112,-4.584680822577666,160574.91558732104,10.5,10500160574.915586,47.655,-122.3035,60.0,7.5
2026-01-20T23:07:31+00:00,SAT-64046,253.56427078644015,33.66244517330528,3263.7765714620614,-4.578146497195861,160346.05587228126,10.5,10500160346.055872,47.655,-122.3035,60.0,7.516666666666667
2026-01-20T23:07:32+00:00,SAT-64046,253.65268666469666,33.729833731279946,3259.2106333555244,-4.571579476064464,160116.05101378792,10.5,10500160116.051014,47.655,-122.3035,60.0,7.533333333333333
2026-01-20T23:07:33+00:00,SAT-64046,253.7415465485713,33.79722388086433,3254.6512447580626,-4.564979644521475,159884.89699589272,10.5,10500159884.896996,47.655,-122.3035,60.0,7.55
2026-01-20T23:07:34+00:00,SAT-64046,253.83085270734196,33.8646146913183,3250.0984383925934,-4.558346876511109,159652.58940358882,10.5,10500159652.589403,47.655,-122.3035,60.0,7.566666666666666
2026-01-20T23:07:35+00:00,SAT-64046,253.92060741895693,33.93200521975023,3245.552247107753,-4.551681014035973,159419.12270313923,10.5,10500159419.122704,47.655,-122.3035,60.0,7.583333333333333
2026-01-20T23:07:36+00:00,SAT-64046,254.0108129693005,33.99939451053481,3241.0127039097542,-4.544981957711659,159184.4934136816,10.5,10500159184.493414,47.655,-122.3035,60.0,7.6
2026-01-20T23:07:37+00:00,SAT-64046,254.101471653337,34.06678159606199,3236.4798419039303,-4.538249580445615,158948.69708389713,10.5,10500158948.697084,47.655,-122.3035,60.0,7.616666666666666
2026-01-20T23:07:38+00:00,SAT-64046,254.19258577447022,34.13416549621685,3231.953694322365,-4.531483712365891,158711.7277641516,10.5,10500158711.727764,47.655,-122.3035,60.0,7.633333333333334
2026-01-20T23:07:39+00:00,SAT-64046,254.28415764358073,34.20154521763181,3227.434294566566,-4.524684245219139,158473.58166295482,10.5,10500158473.581663,47.655,-122.3035,60.0,7.65
2026-01-20T23:07:40+00:00,SAT-64046,254.3761895802252,34.26891975448233,3222.9216761460007,-4.517851067096887,158234.25486079877,10.5,10500158234.25486,47.655,-122.3035,60.0,7.666666666666667
2026-01-20T23:07:41+00:00,SAT-64046,254.46868391249427,34.33628808831765,3218.4158726817495,-4.510984003152224,157993.74123380496,10.5,10500157993.741234,47.655,-122.3035,60.0,7.683333333333334
2026-01-20T23:07:42+00:00,SAT-64046,254.56164297559138,34.4036491870132,3213.9169179692726,-4.504082964604746,157752.03767250822,10.5,10500157752.037672,47.655,-122.3035,60.0,7.7
2026-01-20T23:07:43+00:00,SAT-64046,254.65506911357687,34.471002005927474,3209.424845892573,-4.497147795461478,157509.1387133746,10.5,10500157509.138714,47.655,-122.3035,60.0,7.716666666666667
2026-01-20T23:07:44+00:00,SAT-64046,254.74896467784333,34.538345486790675,3204.939690491233,-4.490178356118008,157265.03946686705,10.5,10500157265.039467,47.655,-122.3035,60.0,7.733333333333333
2026-01-20T23:07:45+00:00,SAT-64046,254.84333202737227,34.60567855782547,3200.4614859440644,-4.483174537006725,157019.73609546447,10.5,10500157019.736095,47.655,-122.3035,60.0,7.75
2026-01-20T23:07:46+00:00,SAT-64046,254.9381735292818,34.67300013407924,3195.9902665391564,-4.476136190150807,156773.22341639255,10.5,10500156773.223417,47.655,-122.3035,60.0,7.766666666666667
2026-01-20T23:07:47+00:00,SAT-64046,255.03349155789766,34.74030911673078,3191.5260667121793,-4.469063186135138,156525.49689698647,10.5,10500156525.496897,47.655,-122.3035,60.0,7.783333333333333
2026-01-20T23:07:48+00:00,SAT-64046,255.12928849505232,34.80760439324911,3187.0689210278742,-4.461955392485628,156276.55189744328,10.5,10500156276.551897,47.655,-122.3035,60.0,7.8
2026-01-20T23:07:49+00:00,SAT-64046,255.22556672990873,34.8748848372251,3182.618864183102,-4.454812679344503,156026.3838695945,10.5,10500156026.38387,47.655,-122.3035,60.0,7.816666666666666
2026-01-20T23:07:50+00:00,SAT-64046,255.32232865890228,34.94214930829333,3178.1759310042357,-4.447634902285869,155774.9877550343,10.5,10500155774.987755,47.655,-122.3035,60.0,7.833333333333333
2026-01-20T23:07:51+00:00,SAT-64046,255.41957668530853,35.00939665178908,3173.7401564616894,-4.440421939138778,155522.35927481926,10.5,10500155522.359274,47.655,-122.3035,60.0,7.85
2026-01-20T23:07:52+00:00,SAT-64046,255.5173132196066,35.0766256989632,3169.311575647721,-4.433173652558867,155268.493618569,10.5,10500155268.493618,47.655,-122.3035,60.0,7.866666666666666
2026-01-20T23:07:53+00:00,SAT-64046,255.6155406790328,35.14383526663106,3164.890223791569,-4.425889908694775,155013.38609824248,10.5,10500155013.386099,47.655,-122.3035,60.0,7.883333333333334
2026-01-20T23:07:54+00:00,SAT-64046,255.71426148751164,35.211024157103296,3160.4761362559643,-4.418570577677036,154757.0321652617,10.5,10500154757.032166,47.655,-122.3035,60.0,7.9
2026-01-20T23:07:55+00:00,SAT-64046,255.81347807563145,35.27819115812203,3156.069348533161,-4.411215513999281,154499.42672337824,10.5,10500154499.426723,47.655,-122.3035,60.0,7.916666666666667
2026-01-20T23:07:56+00:00,SAT-64046,255.91319288013352,35.345335042501894,3151.6698962605324,-4.403824598904273,154240.56561321125,10.5,10500154240.565613,47.655,-122.3035,60.0,7.933333333333334
2026-01-20T23:07:57+00:00,SAT-64046,256.0134083443954,35.412454568410894,3147.277815193892,-4.396397683098898,153980.44360588424,10.5,10500153980.443605,47.655,-122.3035,60.0,7.95
2026-01-20T23:07:58+00:00,SAT-64046,256.11412691757084,35.47954847878361,3142.893141237948,-4.388934643650383,153719.0563957717,10.5,10500153719.056396,47.655,-122.3035,60.0,7.966666666666667
2026-01-20T23:07:59+00:00,SAT-64046,256.2153510550636,35.54661550159682,3138.5159104200143,-4.381435346199653,153456.39927705037,10.5,10500153456.399277,47.655,-122.3035,60.0,7.983333333333333
2026-01-20T23:08:00+00:00,SAT-64046,256.31708321809145,35.61365434957139,3134.1461589014043,-4.373899645228648,153192.4671530623,10.5,10500153192.467154,47.655,-122.3035,60.0,8.0
2026-01-20T23:08:01+00:00,SAT-64046,256.4193258732741,35.68066371987693,3129.783922988563,-4.366327424897821,152927.2559666165,10.5,10500152927.255966,47.655,-122.3035,60.0,8.016666666666667
2026-01-20T23:08:02+00:00,SAT-64046,256.5220814931639,35.74764229445955,3125.429239103465,-4.358718528290254,152660.76022181872,10.5,10500152660.760221,47.655,-122.3035,60.0,8.033333333333333
2026-01-20T23:08:03+00:00,SAT-64046,256.6253525551013,35.81458873928906,3121.0821438245835,-4.351072832286655,152392.9756065107,10.5,10500152392.975607,47.655,-122.3035,60.0,8.05
2026-01-20T23:08:04+00:00,SAT-64046,256.72914154184036,35.88150170474828,3116.7426738531826,-4.343390209667422,152123.89766492372,10.5,10500152123.897665,47.655,-122.3035,60.0,8.066666666666666
2026-01-20T23:08:05+00:00,SAT-64046,256.8334509412853,35.94837982544657,3112.410866017408,-4.335670518138135,151853.52141330528,10.5,10500151853.521414,47.655,-122.3035,60.0,8.083333333333334
2026-01-20T23:08:06+00:00,SAT-64046,256.93828324593125,36.015221719862,3108.086757287318,-4.327913612372334,151581.84176170806,10.5,10500151581.841763,47.655,-122.3035,60.0,8.1
2026-01-20T23:08:07+00:00,SAT-64046,257.0436409525935,36.08202599016733,3103.770384777912,-4.32011937599938,151308.85463434004,10.5,10500151308.854635,47.655,-122.3035,60.0,8.116666666666667
2026-01-20T23:08:08+00:00,SAT-64046,257.14952656292786,36.14879122254939,3099.461785720249,-4.312287674519929,151034.55532046527,10.5,10500151034.55532,47.655,-122.3035,60.0,8.133333333333333
2026-01-20T23:08:09+00:00,SAT-64046,257.25594258279693,36.215515986803915,3095.1609974795274,-4.3044183510129965,150758.93832404705,10.5,10500150758.938324,47.655,-122.3035,60.0,8.15
2026-01-20T23:08:10+00:00,SAT-64046,257.3628915214689,36.28219883586336,3090.86805757745,-4.296511297125109,150481.99985008844,10.5,10500150481.99985,47.655,-122.3035,60.0,8.166666666666666
2026-01-20T23:08:11+00:00,SAT-64046,257.4703758926591,36.34883830641781,3086.583003643784,-4.288566366728348,150203.73478057163,10.5,10500150203.734781,47.655,-122.3035,60.0,8.183333333333334
2026-01-20T23:08:12+00:00,SAT-64046,257.5783982133361,36.415432918207735,3082.3058734540336,-4.280583422092612,149924.1382916058,10.5,10500149924.138292,47.655,-122.3035,60.0,8.2
2026-01-20T23:08:13+00:00,SAT-64046,257.6869610037194,36.48198117402492,3078.0367049210668,-4.272562324711245,149643.20553210206,10.5,10500149643.205532,47.655,-122.3035,60.0,8.216666666666667
2026-01-20T23:08:14+00:00,SAT-64046,257.79606678701816,36.54848155957441,3073.7755360958877,-4.264502962606153,149360.93258011385,10.5,10500149360.93258,47.655,-122.3035,60.0,8.233333333333333
2026-01-20T23:08:15+00:00,SAT-64046,257.90571808989716,36.61493254375899,3069.5224051411824,-4.256405171694516,149077.3136887667,10.5,10500149077.313688,47.655,-122.3035,60.0,8.25
2026-01-20T23:08:16+00:00,SAT-64046,258.01591744086306,36.681332577745394,3065.277350383279,-4.248268847508204,148792.34519914488,10.5,10500148792.3452,47.655,-122.3035,60.0,8.266666666666667
2026-01-20T23:08:17+00:00,SAT-64046,258.1266673715954,36.747680095762156,3061.0404102526973,-4.240093837179794,148506.02175718456,10.5,10500148506.021757,47.655,-122.3035,60.0,8.283333333333333
2026-01-20T23:08:18+00:00,SAT-64046,258.2379704153975,36.813973514223605,3056.8116233324167,-4.231879999726579,148218.338425075,10.5,10500148218.338425,47.655,-122.3035,60.0,8.3
2026-01-20T23:08:19+00:00,SAT-64046,258.3498291072573,36.8802112317857,3052.5910283460225,-4.2236272192825846,147929.29114469964,10.5,10500147929.291145,47.655,-122.3035,60.0,8.316666666666666
2026-01-20T23:08:20+00:00,SAT-64046,258.46224598424544,36.94639162961418,3048.3786641326583,-4.215335358378428,147638.87510129926,10.5,10500147638.875101,47.655,-122.3035,60.0,8.333333333333334
2026-01-20T23:08:21+00:00,SAT-64046,258.5752235846785,37.012513070921564,3044.174569668569,-4.207004276079181,147347.08535873643,10.5,10500147347.08536,47.655,-122.3035,60.0,8.35
2026-01-20T23:08:22+00:00,SAT-64046,258.6887644477225,37.07857390078834,3039.9787840705594,-4.198633835617818,147053.91712685142,10.5,10500147053.917128,47.655,-122.3035,60.0,8.366666666666667
2026-01-20T23:08:23+00:00,SAT-64046,258.80287111322025,37.144572446102444,3035.7913465918364,-4.190223928487893,146759.3666052896,10.5,10500146759.366606,47.655,-122.3035,60.0,8.383333333333333
2026-01-20T23:08:24+00:00,SAT-64046,258.91754612219336,37.21050701587933,3031.6122965938243,-4.181774385764273,146463.4278775781,10.5,10500146463.427877,47.655,-122.3035,60.0,8.4
2026-01-20T23:08:25+00:00,SAT-64046,259.03279201484605,37.276375900189834,3027.4416736064222,-4.173285103077928,146166.09728827217,10.5,10500146166.097288,47.655,-122.3035,60.0,8.416666666666666
2026-01-20T23:08:26+00:00,SAT-64046,259.1486113320615,37.342177371050816,3023.2795172636193,-4.164755937048882,145867.36981559842,10.5,10500145867.369816,47.655,-122.3035,60.0,8.433333333333334
2026-01-20T23:08:27+00:00,SAT-64046,259.26500661400314,37.40790968168914,3019.125867342402,-4.156186747712392,145567.2405573996,10.5,10500145567.240557,47.655,-122.3035,60.0,8.45
2026-01-20T23:08:28+00:00,SAT-64046,259.3819803998624,37.47357106647363,3014.9807637593503,-4.147577410184634,145265.70513971586,10.5,10500145265.70514,47.655,-122.3035,60.0,8.466666666666667
2026-01-20T23:08:29+00:00,SAT-64046,259.49953522797875,37.53915974103051,3010.8442465555927,-4.138927795781819,144962.75905549663,10.5,10500144962.759056,47.655,-122.3035,60.0,8.483333333333333
2026-01-20T23:08:30+00:00,SAT-64046,259.61767363537865,37.60467390206362,3006.7163559006,-4.130237779690255,144658.39793323845,10.5,10500144658.397934,47.655,-122.3035,60.0,8.5
2026-01-20T23:08:31+00:00,SAT-64046,259.7363981575662,37.67011172729567,3002.5971320883223,-4.121507198344999,144352.61604420515,10.5,10500144352.616045,47.655,-122.3035,60.0,8.516666666666667
2026-01-20T23:08:32+00:00,SAT-64046,259.85571132700255,37.73547137473633,2998.486615575839,-4.112735963191808,144045.41028685245,10.5,10500144045.410286,47.655,-122.3035,60.0,8.533333333333333
2026-01-20T23:08:33+00:00,SAT-64046,259.9756156749762,37.800750983749666,2994.3848469085497,-4.103923900466275,143736.77457521594,10.5,10500143736.774574,47.655,-122.3035,60.0,8.55
2026-01-20T23:08:34+00:00,SAT-64046,260.0961137286925,37.86594867358919,2990.291866805151,-4.095070915013906,143426.70557658264,10.5,10500143426.705576,47.655,-122.3035,60.0,8.566666666666666
2026-01-20T23:08:35+00:00,SAT-64046,260.217208013256,37.931062544524906,2986.2077160792437,-4.086176865667004,143115.19834666268,10.5,10500143115.198347,47.655,-122.3035,60.0,8.583333333333334
2026-01-20T23:08:36+00:00,SAT-64046,260.3389010498945,37.99609067700065,2982.1324356852188,-4.0772415979547105,142802.24747523322,10.5,10500142802.247475,47.655,-122.3035,60.0,8.6
2026-01-20T23:08:37+00:00,SAT-64046,260.4611953551584,38.06103113130634,2978.066066731525,-4.0682650274810355,142487.85000638966,10.5,10500142487.850006,47.655,-122.3035,60.0,8.616666666666667
2026-01-20T23:08:38+00:00,SAT-64046,260.58409344266084,38.125881948578964,2974.0086504107844,-4.059246997032767,142172.00043386032,10.5,10500142172.000433,47.655,-122.3035,60.0,8.633333333333333
2026-01-20T23:08:39+00:00,SAT-64046,260.70759782044325,38.19064114953284,2969.96022807241,-4.050187356725732,141854.69350806746,10.5,10500141854.693508,47.655,-122.3035,60.0,8.65
2026-01-20T23:08:40+00:00,SAT-64046,260.83171099074485,38.25530673446427,2965.920841215302,-4.041086030217188,141535.9265551653,10.5,10500141535.926556,47.655,-122.3035,60.0,8.666666666666666
2026-01-20T23:08:41+00:00,SAT-64046,260.9564354519026,38.319876684313876,2961.890531414499,-4.0319428507363435,141215.69373413528,10.5,10500141215.693733,47.655,-122.3035,60.0,8.683333333333334
2026-01-20T23:08:42+00:00,SAT-64046,261.081773695066,38.38434895911752,2957.8693404113646,-4.022757704885139,140893.99107329766,10.5,10500140893.991074,47.655,-122.3035,60.0,8.7
2026-01-20T23:08:43+00:00,SAT-64046,261.20772820543914,38.44872149874999,2953.857310060359,-4.013530451179763,140570.81361729093,10.5,10500140570.813618,47.655,-122.3035,60.0,8.716666666666667
2026-01-20T23:08:44+00:00,SAT-64046,261.3343014609151,38.51299222237138,2949.854482357049,-4.0042609801324005,140246.1575313886,10.5,10500140246.157532,47.655,-122.3035,60.0,8.733333333333333
2026-01-20T23:08:45+00:00,SAT-64046,261.46149593266426,38.57715902883471,2945.8608994061974,-3.9949491548667586,139920.01802160402,10.5,10500139920.018023,47.655,-122.3035,60.0,8.75
2026-01-20T23:08:46+00:00,SAT-64046,261.58931408375605,38.64121979614592,2941.876603449077,-3.985594870049721,139592.39139872583,10.5,10500139592.3914,47.655,-122.3035,60.0,8.766666666666667
2026-01-20T23:08:47+00:00,SAT-64046,261.7177583697354,38.70517238186845,2937.9016368320135,-3.9761979659391713,139263.2720679094,10.5,10500139263.272068,47.655,-122.3035,60.0,8.783333333333333
2026-01-20T23:08:48+00:00,SAT-64046,261.8468312363103,38.76901462215262,2933.9360420606504,-3.966758331530764,138932.65614131303,10.5,10500138932.656141,47.655,-122.3035,60.0,8.8
2026-01-20T23:08:49+00:00,SAT-64046,261.97653512047526,38.83274433241944,2929.979861751337,-3.9572758557764502,138600.53972956428,10.5,10500138600.53973,47.655,-122.3035,60.0,8.816666666666666
2026-01-20T23:08:50+00:00,SAT-64046,262.10687245000395,38.896359307265726,2926.0331386311764,-3.947750401365917,138266.9180234752,10.5,10500138266.918024,47.655,-122.3035,60.0,8.833333333333334
2026-01-20T23:08:51+00:00,SAT-64046,262.2378456420505,38.95985731994936,2922.095915564214,-3.938181848327793,137931.78682114088,10.5,10500137931.786821,47.655,-122.3035,60.0,8.85
2026-01-20T23:08:52+00:00,SAT-64046,262.3694571031997,39.023236122576705,2918.168235534148,-3.928570074011875,137595.14182683238,10.5,10500137595.141827,47.655,-122.3035,60.0,8.866666666666667
2026-01-20T23:08:53+00:00,SAT-64046,262.5017092288458,39.08649344597056,2914.2501416470004,-3.918914959481524,137256.9788748855,10.5,10500137256.978874,47.655,-122.3035,60.0,8.883333333333333
2026-01-20T23:08:54+00:00,SAT-64046,262.6346044027596,39.149626999643516,2910.341677127411,-3.909216373519477,136917.29336951667,10.5,10500136917.29337,47.655,-122.3035,60.0,8.9
2026-01-20T23:08:55+00:00,SAT-64046,262.7681449961181,39.21263447151553,2906.4428853308873,-3.8994742016797246,136576.08130234253,10.5,10500136576.081303,47.655,-122.3035,60.0,8.916666666666666
2026-01-20T23:08:56+00:00,SAT-64046,262.90233336750117,39.27551352810223,2902.5538097270787,-3.8896883372025735,136233.33893418702,10.5,10500136233.338934,47.655,-122.3035,60.0,8.933333333333334
2026-01-20T23:08:57+00:00,SAT-64046,263.0371718626141,39.338261814559175,2898.6744938921092,-3.879858630478798,135889.0610251022,10.5,10500135889.061026,47.655,-122.3035,60.0,8.95
2026-01-20T23:08:58+00:00,SAT-64046,263.17266281215564,39.40087695391457,2894.8049815513114,-3.869984989370693,135543.24434803583,10.5,10500135543.244349,47.655,-122.3035,60.0,8.966666666666667
2026-01-20T23:08:59+00:00,SAT-64046,263.3088085332761,39.4633565479202,2890.9453165219124,-3.8600672756607772,135195.8840620272,10.5,10500135195.884062,47.655,-122.3035,60.0,8.983333333333333
2026-01-20T23:09:00+00:00,SAT-64046,263.44561132731167,39.52569817623778,2887.095542758987,-3.8501053920458035,134846.97675910493,10.5,10500134846.976759,47.655,-122.3035,60.0,9.0
2026-01-20T23:09:01+00:00,SAT-64046,263.5830734806557,39.58789939702975,2883.255704314653,-3.8400992148525246,134496.51810770872,10.5,10500134496.518108,47.655,-122.3035,60.0,9.016666666666667
2026-01-20T23:09:02+00:00,SAT-64046,263.72119726316,39.64995774646725,2879.4258453643733,-3.830048618451044,134144.50370774826,10.5,10500134144.503708,47.655,-122.3035,60.0,9.033333333333333
2026-01-20T23:09:03+00:00,SAT-64046,263.8599849274306,39.71187073863573,2875.6060102089045,-3.819953487723996,133790.92952732637,10.5,10500133790.929527,47.655,-122.3035,60.0,9.05
2026-01-20T23:09:04+00:00,SAT-64046,263.99943870854025,39.773635865644245,2871.7962432638146,-3.809813724701347,133435.79213511816,10.5,10500133435.792135,47.655,-122.3035,60.0,9.066666666666666
2026-01-20T23:09:05+00:00,SAT-64046,264.1395608240396,39.83525059784612,2867.9965890423796,-3.7996291993555764,133079.08697700978,10.5,10500133079.086977,47.655,-122.3035,60.0,9.083333333333334
2026-01-20T23:09:06+00:00,SAT-64046,264.2803534720577,39.896712383266554,2864.2070921875556,-3.789399809099985,132720.8104599811,10.5,10500132720.81046,47.655,-122.3035,60.0,9.1
2026-01-20T23:09:07+00:00,SAT-64046,264.4218188316765,39.95801864799622,2860.427797444613,-3.779125441683054,132360.95865250909,10.5,10500132360.958652,47.655,-122.3035,60.0,9.116666666666667
2026-01-20T23:09:08+00:00,SAT-64046,264.56395906185816,40.019166795988085,2856.6587496707743,-3.7688059863032195,131999.52767385432,10.5,10500131999.527674,47.655,-122.3035,60.0,9.133333333333333
2026-01-20T23:09:09+00:00,SAT-64046,264.70677630081207,40.08015420903735,2852.8999938337683,-3.758441313515382,131636.5129903018,10.5,10500131636.51299,47.655,-122.3035,60.0,9.15
2026-01-20T23:09:10+00:00,SAT-64046,264.8502726645262,40.14097824643937,2849.151575030422,-3.748031336816469,131271.9115721481,10.5,10500131271.911572,47.655,-122.3035,60.0,9.166666666666666
2026-01-20T23:09:11+00:00,SAT-64046,264.99445024774275,40.20163624564913,2845.413538443837,-3.73757595098466,130905.71973407993,10.5,10500130905.719734,47.655,-122.3035,60.0,9.183333333333334
2026-01-20T23:09:12+00:00,SAT-64046,265.1393111224828,40.262125521946224,2841.685929362055,-3.7270750392198733,130537.93338526439,10.5,10500130537.933386,47.655,-122.3035,60.0,9.2
2026-01-20T23:09:13+00:00,SAT-64046,265.28485733685665,40.322443368217996,2837.968793189606,-3.716528482522958,130168.5483578478,10.5,10500130168.548357,47.655,-122.3035,60.0,9.216666666666667
2026-01-20T23:09:14+00:00,SAT-64046,265.43109091418114,40.38258705490073,2834.262175449703,-3.7059361915814035,129797.5615237283,10.5,10500129797.561523,47.655,-122.3035,60.0,9.233333333333333
2026-01-20T23:09:15+00:00,SAT-64046,265.57801385342776,40.44255383043891,2830.5661217546326,-3.6952980682813514,129424.96944654355,10.5,10500129424.969446,47.655,-122.3035,60.0,9.25
2026-01-20T23:09:16+00:00,SAT-64046,265.7256281280904,40.50234092112782,2826.8806778145336,-3.6846139936866704,129050.76796064709,10.5,10500129050.767962,47.655,-122.3035,60.0,9.266666666666667
2026-01-20T23:09:17+00:00,SAT-64046,265.8739356845375,40.56194553076376,2823.2058894581637,-3.6738838688698423,128674.9536011788,10.5,10500128674.953602,47.655,-122.3035,60.0,9.283333333333333
2026-01-20T23:09:18+00:00,SAT-64046,266.0229384420386,40.62136484096137,2819.541802612944,-3.663107598874067,128297.52304234986,10.5,10500128297.523043,47.655,-122.3035,60.0,9.3
2026-01-20T23:09:19+00:00,SAT-64046,266.17263829210367,40.680596011215115,2815.8884633010002,-3.652285087084736,127918.47290030801,10.5,10500127918.4729,47.655,-122.3035,60.0,9.316666666666666
2026-01-20T23:09:20+00:00,SAT-64046,266.3230370976221,40.73963617887387,2812.2459176408147,-3.641416212591791,127537.79894027156,10.5,10500127537.79894,47.655,-122.3035,60.0,9.333333333333334
2026-01-20T23:09:21+00:00,SAT-64046,266.4741366909677,40.79848245875512,2808.6142118714565,-3.6305009089861544,127155.49883631371,10.5,10500127155.498837,47.655,-122.3035,60.0,9.35
2026-01-20T23:09:22+00:00,SAT-64046,266.62593887549735,40.85713194403813,2804.9933922982273,-3.6195390547921233,126771.56833384147,10.5,10500126771.568335,47.655,-122.3035,60.0,9.366666666666667
2026-01-20T23:09:23+00:00,SAT-64046,266.77844542233,40.915581705389485,2801.383505347581,-3.6085305702649317,126386.00463985582,10.5,10500126386.00464,47.655,-122.3035,60.0,9.383333333333333
2026-01-20T23:09:24+00:00,SAT-64046,266.93165807128,40.97382879165982,2797.784597525504,-3.5974753519854143,125998.80413218017,10.5,10500125998.804132,47.655,-122.3035,60.0,9.4
2026-01-20T23:09:25+00:00,SAT-64046,267.08557852895575,41.03187022952802,2794.1967154411236,-3.5863733070621784,125609.96355736499,10.5,10500125609.963558,47.655,-122.3035,60.0,9.416666666666666
2026-01-20T23:09:26+00:00,SAT-64046,267.24020846833054,41.08970302370352,2790.6199057962135,-3.5752243531483763,125219.48003127535,10.5,10500125219.480032,47.655,-122.3035,60.0,9.433333333333334
2026-01-20T23:09:27+00:00,SAT-64046,267.39554952830713,41.14732415713416,2787.0542153746737,-3.564028393853013,124827.35017789084,10.5,10500124827.350178,47.655,-122.3035,60.0,9.45
2026-01-20T23:09:28+00:00,SAT-64046,267.55160331220793,41.20473059082261,2783.4996910565374,-3.552785333912833,124433.57066068934,10.5,10500124433.570662,47.655,-122.3035,60.0,9.466666666666667
2026-01-20T23:09:29+00:00,SAT-64046,267.70837138687295,41.261919263893134,2779.9563798168483,-3.5414950920279202,124038.1386322039,10.5,10500124038.138632,47.655,-122.3035,60.0,9.483333333333333
2026-01-20T23:09:30+00:00,SAT-64046,267.86585528238714,41.31888709387228,2776.424328711733,-3.5301575876007196,123641.05126956715,10.5,10500123641.05127,47.655,-122.3035,60.0,9.5
2026-01-20T23:09:31+00:00,SAT-64046,268.0240564911655,41.37563097675968,2772.903584877699,-3.5187727268895848,123242.30528955015,10.5,10500123242.30529,47.655,-122.3035,60.0,9.516666666666667
2026-01-20T23:09:32+00:00,SAT-64046,268.1829764664103,41.43214778688345,2769.3941955447476,-3.507340429252746,122841.89786773697,10.5,10500122841.897867,47.655,-122.3035,60.0,9.533333333333333
2026-01-20T23:09:33+00:00,SAT-64046,268.34261662174833,41.488434377183346,2765.8962080233064,-3.495860615627977,122439.8262350341,10.5,10500122439.826235,47.655,-122.3035,60.0,9.55
2026-01-20T23:09:34+00:00,SAT-64046,268.5029783303488,41.54448757931509,2762.4096697026534,-3.4843331993297566,122036.08735534783,10.5,10500122036.087355,47.655,-122.3035,60.0,9.566666666666666
2026-01-20T23:09:35+00:00,SAT-64046,268.66406292357067,41.60030420361337,2758.9346280585214,-3.4727580983527595,121630.67835650481,10.5,10500121630.678356,47.655,-122.3035,60.0,9.583333333333334
2026-01-20T23:09:36+00:00,SAT-64046,268.82587169020917,41.65588103925842,2755.4711306484314,-3.461135249702638,121223.59703217652,10.5,10500121223.597033,47.655,-122.3035,60.0,9.6
2026-01-20T23:09:37+00:00,SAT-64046,268.98840587639467,41.71121485467963,2752.0192250927275,-3.449464565481258,120814.84030379847,10.5,10500120814.840303,47.655,-122.3035,60.0,9.616666666666667
2026-01-20T23:09:38+00:00,SAT-64046,269.1516666834157,41.76630239726071,2748.5789590994214,-3.4377459798899155,120404.40586682173,10.5,10500120404.405867,47.655,-122.3035,60.0,9.633333333333333
2026-01-20T23:09:39+00:00,SAT-64046,269.31565526775114,41.821140393806296,2745.1503804421445,-3.4259794023694354,119992.29054948097,10.5,10500119992.29055,47.655,-122.3035,60.0,9.65
2026-01-20T23:09:40+00:00,SAT-64046,269.4803727388463,41.87572555026358,2741.733536984848,-3.4141647760911935,119578.49236139734,10.5,10500119578.492361,47.655,-122.3035,60.0,9.666666666666666
2026-01-20T23:09:41+00:00,SAT-64046,269.64582015972445,41.930054552388384,2738.3284766481597,-3.4023020370718453,119163.00906160346,10.5,10500119163.009062,47.655,-122.3035,60.0,9.683333333333334
2026-01-20T23:09:42+00:00,SAT-64046,269.81199854562027,41.9841240657631,2734.93524741652,-3.390391102572196,118745.83775222275,10.5,10500118745.837751,47.655,-122.3035,60.0,9.7
2026-01-20T23:09:43+00:00,SAT-64046,269.97890886197706,42.03793073563733,2731.553897356888,-3.378431912026171,118326.97631197513,10.5,10500118326.976313,47.655,-122.3035,60.0,9.716666666666667
2026-01-20T23:09:44+00:00,SAT-64046,270.1465520245093,42.091471187430194,2728.184474596627,-3.366424400555959,117906.42246856514,10.5,10500117906.422468,47.655,-122.3035,60.0,9.733333333333333
2026-01-20T23:09:45+00:00,SAT-64046,270.31492889790593,42.14474202681547,2724.8270273278063,-3.354368502401989,117484.17391881447,10.5,10500117484.17392,47.655,-122.3035,60.0,9.75
2026-01-20T23:09:46+00:00,SAT-64046,270.4840402947348,42.197739839872106,2721.481603808077,-3.3422641647068625,117060.22881143347,10.5,10500117060.228811,47.655,-122.3035,60.0,9.766666666666667
2026-01-20T23:09:47+00:00,SAT-64046,270.65388697500714,42.25046119345738,2718.1482523478094,-3.330111319449939,116634.58476405153,10.5,10500116634.584764,47.655,-122.3035,60.0,9.783333333333333
2026-01-20T23:09:48+00:00,SAT-64046,270.8244696443258,42.30290263514616,2714.8270213252117,-3.3179099116916433,116207.23985245237,10.5,10500116207.239853,47.655,-122.3035,60.0,9.8
2026-01-20T23:09:49+00:00,SAT-64046,270.9957889534529,42.355060693623784,2711.5179591732845,-3.305659888501904,115778.192222801,10.5,10500115778.192223,47.655,-122.3035,60.0,9.816666666666666
2026-01-20T23:09:50+00:00,SAT-64046,271.1678454973359,42.406931878913134,2708.2211143778186,-3.293361181636971,115347.43948491257,10.5,10500115347.439486,47.655,-122.3035,60.0,9.833333333333334
2026-01-20T23:09:51+00:00,SAT-64046,271.34063981315734,42.4585126823343,2704.936535492666,-3.2810137643863366,114914.98070327217,10.5,10500114914.980703,47.655,-122.3035,60.0,9.85
2026-01-20T23:09:52+00:00,SAT-64046,271.51417238148815,42.50979957737062,2701.6642710983174,-3.2686175694606887,114480.81352112343,10.5,10500114480.81352,47.655,-122.3035,60.0,9.866666666666667
2026-01-20T23:09:53+00:00,SAT-64046,271.68844362295226,42.56078901924847,2698.4043698423757,-3.256172548722974,114044.93625250316,10.5,10500114044.936253,47.655,-122.3035,60.0,9.883333333333333
2026-01-20T23:09:54+00:00,SAT-64046,271.8634538981574,42.61147744546632,2695.1568804204494,-3.243678655773237,113607.34727228858,10.5,10500113607.347273,47.655,-122.3035,60.0,9.9
2026-01-20T23:09:55+00:00,SAT-64046,272.0392035066384,42.66186127605905,2691.9218515744246,-3.231135851834817,113168.04522235706,10.5,10500113168.045223,47.655,-122.3035,60.0,9.916666666666666
2026-01-20T23:09:56+00:00,SAT-64046,272.21569268617725,42.71193691396103,2688.6993320848615,-3.218544086262598,112727.02832890238,10.5,10500112727.02833,47.655,-122.3035,60.0,9.933333333333334
2026-01-20T23:09:57+00:00,SAT-64046,272.39292161097336,42.761700745075366,2685.4893707828287,-3.2059033433078654,112284.29604033797,10.5,10500112284.29604,47.655,-122.3035,60.0,9.95
2026-01-20T23:09:58+00:00,SAT-64046,272.5708903925154,42.81114913907753,2682.292016515103,-3.1932135438158986,111839.84558433066,10.5,10500111839.845585,47.655,-122.3035,60.0,9.966666666666667
2026-01-20T23:09:59+00:00,SAT-64046,272.7495990747866,42.86027844870428,2679.107318207404,-3.1804746816265657,111393.67674512658,10.5,10500111393.676744,47.655,-122.3035,60.0,9.983333333333333
2026-01-20T23:10:00+00:00,SAT-64046,272.9290476373133,42.90908501116656,2675.935324791595,-3.1676867144747867,110945.78804242387,10.5,10500110945.788042,47.655,-122.3035,60.0,10.0
2026-01-20T23:10:01+00:00,SAT-64046,273.1092359919288,42.95756514787767,2672.7760852416927,-3.1548496131668924,110496.17845373672,10.5,10500110496.178453,47.655,-122.3035,60.0,10.016666666666667
2026-01-20T23:10:02+00:00,SAT-64046,273.29016398240185,43.00571516495588,2669.6296485608273,-3.1419633425544053,110044.84674801677,10.5,10500110044.846748,47.655,-122.3035,60.0,10.033333333333333
2026-01-20T23:10:03+00:00,SAT-64046,273.4718313829015,43.05353135344043,2666.4960637871864,-3.129027875232589,109591.79196543424,10.5,10500109591.791965,47.655,-122.3035,60.0,10.05
2026-01-20T23:10:04+00:00,SAT-64046,273.6542378973232,43.10100998972927,2663.3753799862875,-3.116043193747145,109137.01349466576,10.5,10500109137.013494,47.655,-122.3035,60.0,10.066666666666666
2026-01-20T23:10:05+00:00,SAT-64046,273.8373831587069,43.14814733605656,2660.2676462410573,-3.1030092671271596,108680.51025097894,10.5,10500108680.51025,47.655,-122.3035,60.0,10.083333333333334
2026-01-20T23:10:06+00:00,SAT-64046,274.02126672729145,43.19493964062417,2657.172911665309,-3.0899260745966095,108222.28150670955,10.5,10500108222.281507,47.655,-122.3035,60.0,10.1
2026-01-20T23:10:07+00:00,SAT-64046,274.20588808994756,43.2413831381032,2654.091225393578,-3.0767936055748675,107762.32689127926,10.5,10500107762.32689,47.655,-122.3035,60.0,10.116666666666667
2026-01-20T23:10:08+00:00,SAT-64046,274.39124665966983,43.28747405014387,2651.0226365709514,-3.063611835939281,107300.64555981076,10.5,10500107300.64556,47.655,-122.3035,60.0,10.133333333333333
2026-01-20T23:10:09+00:00,SAT-64046,274.57734177357094,43.33320858553616,2647.967194366575,-3.050380757215795,106837.23721550677,10.5,10500106837.237215,47.655,-122.3035,60.0,10.15
2026-01-20T23:10:10+00:00,SAT-64046,274.76417269271815,43.37858294082187,2644.924947958045,-3.037100347635832,106372.10109593962,10.5,10500106372.101095,47.655,-122.3035,60.0,10.166666666666666
2026-01-20T23:10:11+00:00,SAT-64046,274.95173860011914,43.423593300481315,2641.895946544669,-3.0237706111157325,105905.23733827617,10.5,10500105905.237339,47.655,-122.3035,60.0,10.183333333333334
2026-01-20T23:10:12+00:00,SAT-64046,275.14003860122335,43.46823583771071,2638.88023932185,-3.01039154345811,105436.64579550616,10.5,10500105436.645796,47.655,-122.3035,60.0,10.2
2026-01-20T23:10:13+00:00,SAT-64046,275.32907172225555,43.512506714705914,2635.8778754891746,-2.996963120301959,104966.32561440412,10.5,10500104966.325615,47.655,-122.3035,60.0,10.216666666666667
2026-01-20T23:10:14+00:00,SAT-64046,275.5188369077802,43.55640208278057,2632.8889042705264,-2.983485355251305,104494.27727144057,10.5,10500104494.277271,47.655,-122.3035,60.0,10.233333333333333
2026-01-20T23:10:15+00:00,SAT-64046,275.70933302198966,43.599918083352385,2629.9133748762224,-2.969958254264009,104020.50097528503,10.5,10500104020.500975,47.655,-122.3035,60.0,10.25
2026-01-20T23:10:16+00:00,SAT-64046,275.90055884713394,43.64305084826389,2626.9513365106363,-2.956381805637802,103544.99631607451,10.5,10500103544.996317,47.655,-122.3035,60.0,10.266666666666667
2026-01-20T23:10:17+00:00,SAT-64046,276.0925130811843,43.68579649996973,2624.002838389814,-2.9427560254527583,103067.76385700125,10.5,10500103067.763857,47.655,-122.3035,60.0,10.283333333333333
2026-01-20T23:10:18+00:00,SAT-64046,276.285194338577,43.72815115239865,2621.067929713762,-2.9290809222530685,102588.80389731893,10.5,10500102588.803898,47.655,-122.3035,60.0,10.3
2026-01-20T23:10:19+00:00,SAT-64046,276.47860114858815,43.77011091130745,2618.1466596739683,-2.915356502329985,102108.11665737382,10.5,10500102108.116657,47.655,-122.3035,60.0,10.316666666666666
2026-01-20T23:10:20+00:00,SAT-64046,276.67273195408995,43.81167187472563,2615.2390774556443,-2.901582777093549,101625.70253679385,10.5,10500101625.702538,47.655,-122.3035,60.0,10.333333333333334
2026-01-20T23:10:21+00:00,SAT-64046,276.8675851107642,43.85283013351548,2612.3452322326234,-2.8877597729905014,101141.56246185575,10.5,10500101141.562462,47.655,-122.3035,60.0,10.35
2026-01-20T23:10:22+00:00,SAT-64046,277.06315888709537,43.893581772082804,2609.465173152361,-2.873887511544458,100655.69718640756,10.5,10500100655.697186,47.655,-122.3035,60.0,10.366666666666667
2026-01-20T23:10:23+00:00,SAT-64046,277.25945146293196,43.933922868810065,2606.5989493408474,-2.8599659977242835,100168.10688447999,10.5,10500100168.106884,47.655,-122.3035,60.0,10.383333333333333
2026-01-20T23:10:24+00:00,SAT-64046,277.45646092725843,43.973849496341,2603.746609919117,-2.8459952660065895,99678.79276358978,10.5,10500099678.792763,47.655,-122.3035,60.0,10.4
2026-01-20T23:10:25+00:00,SAT-64046,277.65418527919553,44.013357722524,2600.9082039738196,-2.83197534866689,99187.75595416196,10.5,10500099187.755955,47.655,-122.3035,60.0,10.416666666666666
2026-01-20T23:10:26+00:00,SAT-64046,277.852622426831,44.052443610915546,2598.083780559416,-2.8179062663973533,98694.99718092376,10.5,10500098694.99718,47.655,-122.3035,60.0,10.433333333333334
2026-01-20T23:10:27+00:00,SAT-64046,278.05177018533016,44.091103221165355,2595.2733887097293,-2.8037880618533704,98200.51793784749,10.5,10500098200.517939,47.655,-122.3035,60.0,10.45
2026-01-20T23:10:28+00:00,SAT-64046,278.2516262775249,44.12933260987777,2592.4770774160406,-2.789620766179159,97704.31931573532,10.5,10500097704.319315,47.655,-122.3035,60.0,10.466666666666667
2026-01-20T23:10:29+00:00,SAT-64046,278.4521883320453,44.16712783101879,2589.6948956385713,-2.775404411273132,97206.40243180463,10.5,10500097206.402431,47.655,-122.3035,60.0,10.483333333333333
2026-01-20T23:10:30+00:00,SAT-64046,278.6534538823878,44.2044849365048,2586.926892305728,-2.7611390505598608,96706.76915720987,10.5,10500096706.769157,47.655,-122.3035,60.0,10.5
2026-01-20T23:10:31+00:00,SAT-64046,278.855420367521,44.24139997708117,2584.173116292636,-2.7468247286457927,96205.42105425756,10.5,10500096205.421055,47.655,-122.3035,60.0,10.516666666666667
2026-01-20T23:10:32+00:00,SAT-64046,279.0580851303041,44.27786900279657,2581.433616429934,-2.7324614815479564,95702.35938441633,10.5,10500095702.359385,47.655,-122.3035,60.0,10.533333333333333
2026-01-20T23:10:33+00:00,SAT-64046,279.2614454158433,44.31388806349545,2578.7084415123363,-2.7180493691381957,95197.58624465148,10.5,10500095197.586245,47.655,-122.3035,60.0,10.55
2026-01-20T23:10:34+00:00,SAT-64046,279.4654983724023,44.34945320975341,2575.9976402748493,-2.7035884471936322,94691.1035885137,10.5,10500094691.103588,47.655,-122.3035,60.0,10.566666666666666
2026-01-20T23:10:35+00:00,SAT-64046,279.6702410501721,44.38456049344353,2573.301261396848,-2.6890787564882297,94182.91284407966,10.5,10500094182.912844,47.655,-122.3035,60.0,10.583333333333334
2026-01-20T23:10:36+00:00,SAT-64046,279.87567039921487,44.41920596817894,2570.6193535170437,-2.6745203747913,93673.01673515968,10.5,10500093673.016735,47.655,-122.3035,60.0,10.6
2026-01-20T23:10:37+00:00,SAT-64046,280.0817832714627,44.45338569043734,2567.951965196585,-2.6599133624793545,93161.41737639451,10.5,10500093161.417376,47.655,-122.3035,60.0,10.616666666666667
2026-01-20T23:10:38+00:00,SAT-64046,280.28857641854756,44.487095719985746,2565.2991449364063,-2.645257774150948,92648.11668005656,10.5,10500092648.11668,47.655,-122.3035,60.0,10.633333333333333
2026-01-20T23:10:39+00:00,SAT-64046,280.49604649044625,44.520332120472005,2562.660941182986,-2.630553689900502,92133.11745139123,10.5,10500092133.11745,47.655,-122.3035,60.0,10.65
2026-01-20T23:10:40+00:00,SAT-64046,280.7041900367608,44.5530909604209,2560.0374023029253,-2.615801172924634,91616.42190381141,10.5,10500091616.421904,47.655,-122.3035,60.0,10.666666666666666
2026-01-20T23:10:41+00:00,SAT-64046,280.9130035045203,44.58536831370001,2557.428576599795,-2.601000302889845,91098.0328275749,10.5,10500091098.032827,47.655,-122.3035,60.0,10.683333333333334
2026-01-20T23:10:42+00:00,SAT-64046,281.12248323879174,44.617160260417165,2554.834512297713,-2.5861511668424906,90577.95327141335,10.5,10500090577.953272,47.655,-122.3035,60.0,10.7
2026-01-20T23:10:43+00:00,SAT-64046,281.3326254825485,44.648462887704355,2552.255257533982,-2.5712538311225295,90056.1855588327,10.5,10500090056.185558,47.655,-122.3035,60.0,10.716666666666667
2026-01-20T23:10:44+00:00,SAT-64046,281.5434263742196,44.67927229017314,2549.6908603797424,-2.5563083785504723,89532.73259055757,10.5,10500089532.73259,47.655,-122.3035,60.0,10.733333333333333
2026-01-20T23:10:45+00:00,SAT-64046,281.7548819483402,44.70958457083359,2547.141368823535,-2.5413149229121514,89007.5983518491,10.5,10500089007.598352,47.655,-122.3035,60.0,10.75
2026-01-20T23:10:46+00:00,SAT-64046,281.96698813759406,44.7393958421827,2544.6068307404175,-2.5262735255547746,88480.78499134602,10.5,10500088480.784992,47.655,-122.3035,60.0,10.766666666666667
2026-01-20T23:10:47+00:00,SAT-64046,282.17974076761516,44.76870222631195,2542.087293944264,-2.511184300279929,87952.29649486131,10.5,10500087952.296495,47.655,-122.3035,60.0,10.783333333333333
2026-01-20T23:10:48+00:00,SAT-64046,282.3931355609442,44.79749985626641,2539.5828061354514,-2.4960473344465273,87422.13592207358,10.5,10500087422.135921,47.655,-122.3035,60.0,10.8
2026-01-20T23:10:49+00:00,SAT-64046,282.6071681341107,44.825784876480874,2537.0934149272302,-2.4808627397577165,86890.30718529958,10.5,10500086890.307186,47.655,-122.3035,60.0,10.816666666666666
2026-01-20T23:10:50+00:00,SAT-64046,282.8218339992533,44.853553443812366,2534.619167821445,-2.465630610354095,86356.81358174124,10.5,10500086356.813581,47.655,-122.3035,60.0,10.833333333333334
2026-01-20T23:10:51+00:00,SAT-64046,283.0371285620013,44.88080172810153,2532.1601122260518,-2.450351052268599,85821.65882512058,10.5,10500085821.658825,47.655,-122.3035,60.0,10.85
2026-01-20T23:10:52+00:00,SAT-64046,283.2530471220335,44.90752591307813,2529.716295443256,-2.435024193237189,85284.84738929117,10.5,10500085284.84739,47.655,-122.3035,60.0,10.866666666666667
2026-01-20T23:10:53+00:00,SAT-64046,283.4695848746112,44.93372219736979,2527.2877646478673,-2.419650133639366,84746.3827899678,10.5,10500084746.38279,47.655,-122.3035,60.0,10.883333333333333
2026-01-20T23:10:54+00:00,SAT-64046,283.68673690764155,44.959386794983715,2524.8745669145846,-2.404228997744011,84206.26937957232,10.5,10500084206.269379,47.655,-122.3035,60.0,10.9
2026-01-20T23:10:55+00:00,SAT-64046,283.90449820345157,44.9845159363536,2522.4767491941675,-2.388760903132343,83664.51127629635,10.5,10500083664.511276,47.655,-122.3035,60.0,10.916666666666666
2026-01-20T23:10:56+00:00,SAT-64046,284.1228636378157,45.009105869060804,2520.0943583201106,-2.373245970964461,83121.11272367914,10.5,10500083121.112724,47.655,-122.3035,60.0,10.933333333333334
2026-01-20T23:10:57+00:00,SAT-64046,284.34182797990906,45.033152858673716,2517.727441005068,-2.3576843475959715,82576.07884771304,10.5,10500082576.078848,47.655,-122.3035,60.0,10.95
2026-01-20T23:10:58+00:00,SAT-64046,284.56138589447187,45.05665318980605,2515.376043815733,-2.3420761471908196,82029.41364690237,10.5,10500082029.413647,47.655,-122.3035,60.0,10.966666666666667
2026-01-20T23:10:59+00:00,SAT-64046,284.7815319383965,45.07960316659906,2513.0402132049344,-2.3264215093117455,81481.12200932462,10.5,10500081481.12201,47.655,-122.3035,60.0,10.983333333333333
2026-01-20T23:11:00+00:00,SAT-64046,285.00226056296447,45.101999113795486,2510.7199954863145,-2.310720574972964,80931.2088738941,10.5,10500080931.208874,47.655,-122.3035,60.0,11.0
2026-01-20T23:11:01+00:00,SAT-64046,285.22356611377603,45.12383737757001,2508.4154368328745,-2.2949734944022047,80379.67950222133,10.5,10500080379.679502,47.655,-122.3035,60.0,11.016666666666667
2026-01-20T23:11:02+00:00,SAT-64046,285.44544283154306,45.145114326435866,2506.126583267791,-2.2791803983562837,79826.53847396313,10.5,10500079826.538473,47.655,-122.3035,60.0,11.033333333333333
2026-01-20T23:11:03+00:00,SAT-64046,285.66788484995163,45.16582635189305,2503.85348068383,-2.2633414424078784,79271.79123793275,10.5,10500079271.791239,47.655,-122.3035,60.0,11.05
2026-01-20T23:11:04+00:00,SAT-64046,285.89088619810474,45.18596986949185,2501.596174818602,-2.2474567929334017,78715.44362133593,10.5,10500078715.44362,47.655,-122.3035,60.0,11.066666666666666
2026-01-20T23:11:05+00:00,SAT-64046,286.11444080157503,45.20554131975714,2499.354711243783,-2.231526582415584,78157.50026427828,10.5,10500078157.500265,47.655,-122.3035,60.0,11.083333333333334
2026-01-20T23:11:06+00:00,SAT-64046,286.33854247889155,45.22453716872978,2497.1291353989204,-2.2155509882556497,77597.96738010108,10.5,10500077597.96738,47.655,-122.3035,60.0,11.1
2026-01-20T23:11:07+00:00,SAT-64046,286.56318494618495,45.24295390920026,2494.9194925466336,-2.199530178049233,77036.85083871237,10.5,10500077036.85084,47.655,-122.3035,60.0,11.116666666666667
2026-01-20T23:11:08+00:00,SAT-64046,286.78836181631937,45.26078806145734,2492.7258277823926,-2.1834643030699796,76474.15593835515,10.5,10500076474.15594,47.655,-122.3035,60.0,11.133333333333333
2026-01-20T23:11:09+00:00,SAT-64046,287.0140665971504,45.27803617400471,2490.5481860507975,-2.167353547472848,75909.88912891499,10.5,10500075909.88913,47.655,-122.3035,60.0,11.15
2026-01-20T23:11:10+00:00,SAT-64046,287.2402926952392,45.29469482467344,2488.3866121127844,-2.151198087959752,75344.05659924039,10.5,10500075344.056599,47.655,-122.3035,60.0,11.166666666666666
2026-01-20T23:11:11+00:00,SAT-64046,287.4670334152216,45.31076062140336,2486.2411505530595,-2.1349980853710684,74776.66398264168,10.5,10500074776.663982,47.655,-122.3035,60.0,11.183333333333334
2026-01-20T23:11:12+00:00,SAT-64046,287.6942819582589,45.326230202979716,2484.111845795916,-2.1187537452207077,74207.71847708533,10.5,10500074207.718477,47.655,-122.3035,60.0,11.2
2026-01-20T23:11:13+00:00,SAT-64046,287.9220314272401,45.3411002402087,2481.998742060682,-2.102465241011848,73637.22615938658,10.5,10500073637.22616,47.655,-122.3035,60.0,11.216666666666667
2026-01-20T23:11:14+00:00,SAT-64046,288.15027482353287,45.355367436531914,2479.9018833936466,-2.08613276081833,73065.19361668687,10.5,10500073065.193617,47.655,-122.3035,60.0,11.233333333333333
2026-01-20T23:11:15+00:00,SAT-64046,288.3790050489009,45.369028528984884,2477.8213136535237,-2.0697565015443136,72491.62774540276,10.5,10500072491.627745,47.655,-122.3035,60.0,11.25
2026-01-20T23:11:16+00:00,SAT-64046,288.6082149069257,45.382080289102255,2475.75707650265,-2.0533366654297556,71916.53562883304,10.5,10500071916.53563,47.655,-122.3035,60.0,11.266666666666667
2026-01-20T23:11:17+00:00,SAT-64046,288.83789710401817,45.39451952379564,2473.7092154016614,-2.0368734430006574,71339.9239400042,10.5,10500071339.92394,47.655,-122.3035,60.0,11.283333333333333
2026-01-20T23:11:18+00:00,SAT-64046,289.0680442485328,45.40634307613001,2471.677773621175,-2.0203670456444254,70761.80008259736,10.5,10500070761.800083,47.655,-122.3035,60.0,11.3
2026-01-20T23:11:19+00:00,SAT-64046,289.2986488536693,45.41754782629428,2469.662794220986,-2.003817683215165,70182.171406591,10.5,10500070182.171406,47.655,-122.3035,60.0,11.316666666666666
2026-01-20T23:11:20+00:00,SAT-64046,289.5297033378848,45.42813069242858,2467.6643200515928,-1.9872255577617448,69601.04498859114,10.5,10500069601.044989,47.655,-122.3035,60.0,11.333333333333334
2026-01-20T23:11:21+00:00,SAT-64046,289.76120002446817,45.438088631429416,2465.6823937619856,-1.9705908933536864,69018.42867646026,10.5,10500069018.428677,47.655,-122.3035,60.0,11.35
2026-01-20T23:11:22+00:00,SAT-64046,289.9931311448578,45.44741863989848,2463.7170577776806,-1.9539139125821001,68434.33026628058,10.5,10500068434.330267,47.655,-122.3035,60.0,11.366666666666667
2026-01-20T23:11:23+00:00,SAT-64046,290.2254888391183,45.45611775496216,2461.7683543021985,-1.9371948288977645,67848.75723400128,10.5,10500067848.757235,47.655,-122.3035,60.0,11.383333333333333
2026-01-20T23:11:24+00:00,SAT-64046,290.4582651555191,45.46418305506332,2459.8363253261778,-1.920433877366552,67261.71781262355,10.5,10500067261.717813,47.655,-122.3035,60.0,11.4
2026-01-20T23:11:25+00:00,SAT-64046,290.6914520539086,45.471611660882445,2457.9210126058174,-1.9036312837498486,66673.21990926606,10.5,10500066673.21991,47.655,-122.3035,60.0,11.416666666666666
2026-01-20T23:11:26+00:00,SAT-64046,290.9250414054128,45.47840073611546,2456.022457672158,-1.8867872825951428,66083.27173877403,10.5,10500066083.271738,47.655,-122.3035,60.0,11.433333333333334
2026-01-20T23:11:27+00:00,SAT-64046,291.15902499426903,45.48454748832918,2454.1407018223163,-1.8699021167084953,65491.881805242745,10.5,10500065491.881805,47.655,-122.3035,60.0,11.45
2026-01-20T23:11:28+00:00,SAT-64046,291.3933945198024,45.490049169794176,2452.2757861112523,-1.8529760248134357,64899.05846978003,10.5,10500064899.05847,47.655,-122.3035,60.0,11.466666666666667
2026-01-20T23:11:29+00:00,SAT-64046,291.6281415967994,45.494903078275065,2450.4277513558386,-1.8360092480820982,64304.81017925418,10.5,10500064304.810179,47.655,-122.3035,60.0,11.483333333333333
2026-01-20T23:11:30+00:00,SAT-64046,291.8632577566918,45.49910655784408,2448.596638132418,-1.8190020434886938,63709.14593398906,10.5,10500063709.145933,47.655,-122.3035,60.0,11.5
2026-01-20T23:11:31+00:00,SAT-64046,292.09873445069616,45.502656999704676,2446.782486761045,-1.8019546640743203,63112.074596554274,10.5,10500063112.074596,47.655,-122.3035,60.0,11.516666666666667
2026-01-20T23:11:32+00:00,SAT-64046,292.3345630502665,45.50555184296426,2444.9853373094084,-1.784867359239189,62513.60490200018,10.5,10500062513.604902,47.655,-122.3035,60.0,11.533333333333333
2026-01-20T23:11:33+00:00,SAT-64046,292.5707348476541,45.50778857540993,2443.205229596461,-1.7677403941367997,61913.74613712396,10.5,10500061913.746138,47.655,-122.3035,60.0,11.55
2026-01-20T23:11:34+00:00,SAT-64046,292.8072410591057,45.509364734302814,2441.442203176708,-1.750574037313528,61312.50770755562,10.5,10500061312.507708,47.655,-122.3035,60.0,11.566666666666666
2026-01-20T23:11:35+00:00,SAT-64046,293.04407282653256,45.51027790713067,2439.6962973368277,-1.733368548257747,60709.89870167562,10.5,10500060709.898703,47.655,-122.3035,60.0,11.583333333333334
2026-01-20T23:11:36+00:00,SAT-64046,293.28122121728893,45.51052573236481,2437.9675511046985,-1.7161242029643011,60105.92878599087,10.5,10500060105.928785,47.655,-122.3035,60.0,11.6
2026-01-20T23:11:37+00:00,SAT-64046,293.51867722779855,45.51010590020254,2436.256003232942,-1.698841278433801,59500.607662234484,10.5,10500059500.607662,47.655,-122.3035,60.0,11.616666666666667
2026-01-20T23:11:38+00:00,SAT-64046,293.75643178482636,45.50901615330178,2434.5616921979176,-1.6815200563516268,58893.94519621999,10.5,10500058893.945196,47.655,-122.3035,60.0,11.633333333333333
2026-01-20T23:11:39+00:00,SAT-64046,293.9944757475514,45.50725428749015,2432.884656195049,-1.6641608100698801,58285.950961894254,10.5,10500058285.950962,47.655,-122.3035,60.0,11.65
2026-01-20T23:11:40+00:00,SAT-64046,294.23279990745846,45.50481815250153,2431.2249331471394,-1.6467638289795696,57676.63509495452,10.5,10500057676.635096,47.655,-122.3035,60.0,11.666666666666666
2026-01-20T23:11:41+00:00,SAT-64046,294.4713949921187,45.50170565265692,2429.5825606883704,-1.6293294140428514,57066.00813636859,10.5,10500057066.008137,47.655,-122.3035,60.0,11.683333333333334
2026-01-20T23:11:42+00:00,SAT-64046,294.71025166831015,45.49791474751964,2427.9575761527653,-1.611857847002027,56454.07995394361,10.5,10500056454.079954,47.655,-122.3035,60.0,11.7
2026-01-20T23:11:43+00:00,SAT-64046,294.9493605404386,45.493443452622465,2426.350016593355,-1.594349428224635,55840.86106782136,10.5,10500055840.861069,47.655,-122.3035,60.0,11.716666666666667
2026-01-20T23:11:44+00:00,SAT-64046,295.1887121547701,45.48828984009546,2424.759918763606,-1.5768044626613413,55226.36215866406,10.5,10500055226.362158,47.655,-122.3035,60.0,11.733333333333333
2026-01-20T23:11:45+00:00,SAT-64046,295.428297001685,45.48245203929179,2423.1873191128448,-1.5592232501242012,54610.59372715811,10.5,10500054610.593727,47.655,-122.3035,60.0,11.75
2026-01-20T23:11:46+00:00,SAT-64046,295.66810551619506,45.47592823746221,2421.6322537913875,-1.5416061040506406,53993.56675120802,10.5,10500053993.566751,47.655,-122.3035,60.0,11.766666666666667
2026-01-20T23:11:47+00:00,SAT-64046,295.90812808172774,45.4687166803176,2420.0947586369475,-1.523953331411499,53375.29198223106,10.5,10500053375.291983,47.655,-122.3035,60.0,11.783333333333333
2026-01-20T23:11:48+00:00,SAT-64046,296.148355030507,45.46081567268221,2418.574869181087,-1.5062652518302546,52755.780614793424,10.5,10500052755.780615,47.655,-122.3035,60.0,11.8
2026-01-20T23:11:49+00:00,SAT-64046,296.38877664722907,45.45222357902684,2417.072620636595,-1.4885421853745693,52135.04385901855,10.5,10500052135.04386,47.655,-122.3035,60.0,11.816666666666666
2026-01-20T23:11:50+00:00,SAT-64046,296.6293831706631,45.44293882405177,2415.588047897048,-1.470784447662641,51513.09276919078,10.5,10500051513.09277,47.655,-122.3035,60.0,11.833333333333334
2026-01-20T23:11:51+00:00,SAT-64046,296.87016479446805,45.432959893298296,2414.1211855412457,-1.452992372239104,50889.93902745409,10.5,10500050889.939028,47.655,-122.3035,60.0,11.85
