satellites_20260121_005943/SAT-60265.csv

timestamp,satellite,azimuth_deg,elevation_deg,distance_km,relative_velocity_kms,doppler_shift_hz,tx_freq_ghz,rx_freq_hz,ue_lat,ue_lon,ue_alt_m,time_minutes
2026-01-20T23:00:39+00:00,SAT-60265,186.79966386557726,30.332520833011454,911.7893413958925,-5.021980794820926,175891.01039232855,10.5,10500175891.010393,47.655,-122.3035,60.0,0.65
2026-01-20T23:00:40+00:00,SAT-60265,186.7910214955915,30.669914503250055,906.7807525498579,-4.995035439391697,174947.27006645652,10.5,10500174947.270067,47.655,-122.3035,60.0,0.6666666666666666
2026-01-20T23:00:41+00:00,SAT-60265,186.7826099161056,31.010758461471372,901.7990372049712,-4.9676355998006,173987.61178276976,10.5,10500173987.611782,47.655,-122.3035,60.0,0.6833333333333333
2026-01-20T23:00:42+00:00,SAT-60265,186.77443543947348,31.35509109008331,896.8446486334368,-4.939773747805233,173011.77187037485,10.5,10500173011.77187,47.655,-122.3035,60.0,0.7
2026-01-20T23:00:43+00:00,SAT-60265,186.76650461555968,31.70295076703271,891.9180476156257,-4.911442242587937,172019.48271551696,10.5,10500172019.482716,47.655,-122.3035,60.0,0.7166666666666667
2026-01-20T23:00:44+00:00,SAT-60265,186.7588242430815,32.05437583348193,887.0197025523513,-4.882633442928931,171010.47669035682,10.5,10500171010.47669,47.655,-122.3035,60.0,0.7333333333333333
2026-01-20T23:00:45+00:00,SAT-60265,186.75140138137445,32.409404567384,882.1500894652702,-4.853339585788911,169984.48190042048,10.5,10500169984.481901,47.655,-122.3035,60.0,0.75
2026-01-20T23:00:46+00:00,SAT-60265,186.74424336311344,32.768075146637585,877.3096921183766,-4.823552898916713,168941.2261285956,10.5,10500168941.22613,47.655,-122.3035,60.0,0.7666666666666667
2026-01-20T23:00:47+00:00,SAT-60265,186.73735780756476,33.130425618139746,872.4990020271904,-4.793265535540526,167880.43454774143,10.5,10500167880.434547,47.655,-122.3035,60.0,0.7833333333333333
2026-01-20T23:00:48+00:00,SAT-60265,186.73075263474976,33.496493860072796,867.718518533078,-4.762469620848274,166801.8313486288,10.5,10500166801.831348,47.655,-122.3035,60.0,0.8
2026-01-20T23:00:49+00:00,SAT-60265,186.7244360803559,33.866317545365014,862.9687488312186,-4.731157232321295,165705.13905114183,10.5,10500165705.139051,47.655,-122.3035,60.0,0.8166666666666667
2026-01-20T23:00:50+00:00,SAT-60265,186.7184167116516,34.23993410145083,858.2502080181835,-4.699320406324928,164590.0787351086,10.5,10500164590.078735,47.655,-122.3035,60.0,0.8333333333333334
2026-01-20T23:00:51+00:00,SAT-60265,186.71270344431105,34.61738066808928,853.563419132942,-4.666951165512107,163456.37100009076,10.5,10500163456.371,47.655,-122.3035,60.0,0.85
2026-01-20T23:00:52+00:00,SAT-60265,186.70730556025958,34.99869405481762,848.908913170538,-4.634041504178757,162303.73545246743,10.5,10500162303.735453,47.655,-122.3035,60.0,0.8666666666666667
2026-01-20T23:00:53+00:00,SAT-60265,186.70223272666732,35.383910694780845,844.2872291103704,-4.600583420975866,161131.89185115055,10.5,10500161131.891851,47.655,-122.3035,60.0,0.8833333333333333
2026-01-20T23:00:54+00:00,SAT-60265,186.6974950160839,35.77306659850779,839.6989139118506,-4.566568889522689,159940.5590783349,10.5,10500159940.559078,47.655,-122.3035,60.0,0.9
2026-01-20T23:00:55+00:00,SAT-60265,186.69310292793404,36.16619730263194,835.1445225393664,-4.53198988447614,158729.45605255844,10.5,10500158729.456053,47.655,-122.3035,60.0,0.9166666666666666
2026-01-20T23:00:56+00:00,SAT-60265,186.68906741133162,36.56333781779016,830.624617961249,-4.496838427602059,157498.30334231295,10.5,10500157498.303343,47.655,-122.3035,60.0,0.9333333333333333
2026-01-20T23:00:57+00:00,SAT-60265,186.68539988934782,36.96452257767676,826.1397711027872,-4.461106521228781,156246.8208353067,10.5,10500156246.820835,47.655,-122.3035,60.0,0.95
2026-01-20T23:00:58+00:00,SAT-60265,186.6821122849473,37.36978537934335,821.690560865615,-4.424786229303116,154974.73057738738,10.5,10500154974.730577,47.655,-122.3035,60.0,0.9666666666666667
2026-01-20T23:00:59+00:00,SAT-60265,186.67921704859103,37.779159327503486,817.2775740662568,-4.387869648407968,153681.7557574569,10.5,10500153681.755758,47.655,-122.3035,60.0,0.9833333333333333
2026-01-20T23:01:00+00:00,SAT-60265,186.67672718767818,38.19267677310648,812.9014054035779,-4.35034892317003,152367.62124711394,10.5,10500152367.621246,47.655,-122.3035,60.0,1.0
2026-01-20T23:01:01+00:00,SAT-60265,186.67465629806145,38.61036925012515,808.5626574108696,-4.312216261993259,151032.0541517066,10.5,10500151032.054152,47.655,-122.3035,60.0,1.0166666666666666
2026-01-20T23:01:02+00:00,SAT-60265,186.67301859761395,39.03226741028585,804.2619403922417,-4.273463967598058,149674.78487994388,10.5,10500149674.78488,47.655,-122.3035,60.0,1.0333333333333334
2026-01-20T23:01:03+00:00,SAT-60265,186.6718289622021,39.45840095749239,799.9998723285572,-4.234084411889667,148295.54626368056,10.5,10500148295.546263,47.655,-122.3035,60.0,1.05
2026-01-20T23:01:04+00:00,SAT-60265,186.67110296415058,39.88879857626758,795.7770788084325,-4.194070106420438,146894.0760258038,10.5,10500146894.076025,47.655,-122.3035,60.0,1.0666666666666667
2026-01-20T23:01:05+00:00,SAT-60265,186.670856913414,40.32348786364138,791.5941928889625,-4.153413622454218,145470.11398055014,10.5,10500145470.113981,47.655,-122.3035,60.0,1.0833333333333333
2026-01-20T23:01:06+00:00,SAT-60265,186.67110790180675,40.76249524942455,787.4518550361682,-4.112107714081715,144023.40634552587,10.5,10500144023.406345,47.655,-122.3035,60.0,1.1
2026-01-20T23:01:07+00:00,SAT-60265,186.67187385031104,41.20584592518638,783.3507129426574,-4.070145258907676,142553.70366432166,10.5,10500142553.703665,47.655,-122.3035,60.0,1.1166666666666667
2026-01-20T23:01:08+00:00,SAT-60265,186.67317355993086,41.65356376355497,779.2914214044401,-4.027519310542126,141060.7626449773,10.5,10500141060.762646,47.655,-122.3035,60.0,1.1333333333333333
2026-01-20T23:01:09+00:00,SAT-60265,186.6750267663638,42.105671239311846,775.2746421453928,-3.984223096567485,139544.34608878184,10.5,10500139544.346088,47.655,-122.3035,60.0,1.15
2026-01-20T23:01:10+00:00,SAT-60265,186.67745419874325,42.562189346421675,771.3010436437496,-3.9402500374406517,138004.22355230447,10.5,10500138004.223553,47.655,-122.3035,60.0,1.1666666666666667
2026-01-20T23:01:11+00:00,SAT-60265,186.6804776428995,43.023137513332365,767.371300939742,-3.895593762381489,136440.17190387635,10.5,10500136440.171904,47.655,-122.3035,60.0,1.1833333333333333
2026-01-20T23:01:12+00:00,SAT-60265,186.6841200094993,43.48853351608956,763.4860954273936,-3.8502481633951784,134851.97721568224,10.5,10500134851.977215,47.655,-122.3035,60.0,1.2
2026-01-20T23:01:13+00:00,SAT-60265,186.688405407526,43.95839339394792,759.6461145924342,-3.8042073512541683,133239.4332220618,10.5,10500133239.433222,47.655,-122.3035,60.0,1.2166666666666666
2026-01-20T23:01:14+00:00,SAT-60265,186.69335922358587,44.432731355990114,755.8520517941166,-3.7574657239684632,131602.34371762903,10.5,10500131602.343718,47.655,-122.3035,60.0,1.2333333333333334
2026-01-20T23:01:15+00:00,SAT-60265,186.69900820764053,44.91155969195981,752.1046059787454,-3.7100179650705054,129940.5224972014,10.5,10500129940.522497,47.655,-122.3035,60.0,1.25
2026-01-20T23:01:16+00:00,SAT-60265,186.70538056566178,45.39488867908575,748.4044813949151,-3.661859084875506,128253.79480091127,10.5,10500128253.794802,47.655,-122.3035,60.0,1.2666666666666666
2026-01-20T23:01:17+00:00,SAT-60265,186.71250606001368,45.882726490403535,744.7523872675993,-3.612984395304877,126541.99643241594,10.5,10500126541.996433,47.655,-122.3035,60.0,1.2833333333333334
2026-01-20T23:01:18+00:00,SAT-60265,186.720416118188,46.37507909598076,741.1490374973484,-3.5633895903370325,124804.97657662503,10.5,10500124804.976576,47.655,-122.3035,60.0,1.3
2026-01-20T23:01:19+00:00,SAT-60265,186.729143950831,46.87195017093261,737.5951502792525,-3.513070739644996,123042.5975768625,10.5,10500123042.597576,47.655,-122.3035,60.0,1.3166666666666667
2026-01-20T23:01:20+00:00,SAT-60265,186.73872467993763,47.37334099922108,734.0914477282464,-3.4620242801829346,121254.73464019169,10.5,10500121254.73464,47.655,-122.3035,60.0,1.3333333333333333
2026-01-20T23:01:21+00:00,SAT-60265,186.74919547821798,47.87925037264344,730.6386555128107,-3.410247112039089,119441.27919459014,10.5,10500119441.279194,47.655,-122.3035,60.0,1.35
2026-01-20T23:01:22+00:00,SAT-60265,186.76059572091418,48.389674499780185,727.2375023930704,-3.3577365420041874,117602.13691247685,10.5,10500117602.136913,47.655,-122.3035,60.0,1.3666666666666667
2026-01-20T23:01:23+00:00,SAT-60265,186.77296715122037,48.90460690387748,723.8887198151782,-3.304490370142108,115737.23074278318,10.5,10500115737.230743,47.655,-122.3035,60.0,1.3833333333333333
2026-01-20T23:01:24+00:00,SAT-60265,186.78635406088483,49.42403833005373,720.5930414193565,-3.2505068674897077,113846.50012990632,10.5,10500113846.50013,47.655,-122.3035,60.0,1.4
2026-01-20T23:01:25+00:00,SAT-60265,186.80080348755465,49.94795664649515,717.35120257018,-3.1957848155501964,111929.90239693443,10.5,10500111929.902397,47.655,-122.3035,60.0,1.4166666666666667
2026-01-20T23:01:26+00:00,SAT-60265,186.81636543072878,50.476346748681934,714.1639398474713,-3.1403235561348866,109987.41449131555,10.5,10500109987.414492,47.655,-122.3035,60.0,1.4333333333333333
2026-01-20T23:01:27+00:00,SAT-60265,186.83309308848118,51.009190469201556,711.0319904874862,-3.0841229614990535,108019.03193888908,10.5,10500108019.031939,47.655,-122.3035,60.0,1.45
2026-01-20T23:01:28+00:00,SAT-60265,186.8510431171445,51.54646648054827,707.9560918538843,-3.0271835020087337,106024.77121386323,10.5,10500106024.771214,47.655,-122.3035,60.0,1.4666666666666666
2026-01-20T23:01:29+00:00,SAT-60265,186.8702759167526,52.088150206863055,704.9369808412143,-2.9695062363995457,104004.66939763784,10.5,10500104004.669397,47.655,-122.3035,60.0,1.4833333333333334
2026-01-20T23:01:30+00:00,SAT-60265,186.89085594514773,52.63421373235711,701.975393288112,-2.911092872870298,101958.78631856086,10.5,10500101958.786318,47.655,-122.3035,60.0,1.5
2026-01-20T23:01:31+00:00,SAT-60265,186.91285206439022,53.18462571901452,699.0720633295692,-2.851945752136147,99887.20395837825,10.5,10500099887.203959,47.655,-122.3035,60.0,1.5166666666666666
2026-01-20T23:01:32+00:00,SAT-60265,186.93633792305786,53.7393513202952,696.2277227661054,-2.7920678818912323,97790.02765926134,10.5,10500097790.027658,47.655,-122.3035,60.0,1.5333333333333334
2026-01-20T23:01:33+00:00,SAT-60265,186.96139237910174,54.29835210017156,693.4431003985659,-2.731462965106103,95667.38711490227,10.5,10500095667.387115,47.655,-122.3035,60.0,1.55
2026-01-20T23:01:34+00:00,SAT-60265,186.98809996836417,54.86158595710143,690.7189213347001,-2.670135421213234,93519.43711252055,10.5,10500093519.437113,47.655,-122.3035,60.0,1.5666666666666667
2026-01-20T23:01:35+00:00,SAT-60265,187.01655142454976,55.42900705233399,688.05590627461,-2.6080903844084347,91346.357473371,10.5,10500091346.357473,47.655,-122.3035,60.0,1.5833333333333333
2026-01-20T23:01:36+00:00,SAT-60265,187.04684425720555,56.00056573814271,685.4547707978934,-2.5453337446706588,89148.35448943119,10.5,10500089148.35449,47.655,-122.3035,60.0,1.6
2026-01-20T23:01:37+00:00,SAT-60265,187.07908339574692,56.576208495234525,682.9162246098753,-2.4818721552835323,86925.6611868371,10.5,10500086925.661186,47.655,-122.3035,60.0,1.6166666666666667
2026-01-20T23:01:38+00:00,SAT-60265,187.11338190822033,57.155877873151454,680.4409707803391,-2.4177130375304166,84678.53749032396,10.5,10500084678.53749,47.655,-122.3035,60.0,1.6333333333333333
2026-01-20T23:01:39+00:00,SAT-60265,187.1498618050739,57.739512433215744,678.0297049775754,-2.352864627548583,82407.27186425791,10.5,10500082407.271864,47.655,-122.3035,60.0,1.65
2026-01-20T23:01:40+00:00,SAT-60265,187.18865494034293,58.32704670429915,675.6831146557003,-2.2873359450927575,80112.18021860294,10.5,10500080112.180218,47.655,-122.3035,60.0,1.6666666666666667
2026-01-20T23:01:41+00:00,SAT-60265,187.22990402354299,58.918411134133024,673.4018782731279,-2.221136836023308,77793.60739703709,10.5,10500077793.607397,47.655,-122.3035,60.0,1.6833333333333333
2026-01-20T23:01:42+00:00,SAT-60265,187.27376375912644,59.51353205341431,671.1866644686672,-2.154277977412076,75451.92735578025,10.5,10500075451.927357,47.655,-122.3035,60.0,1.7
2026-01-20T23:01:43+00:00,SAT-60265,187.32040213246373,60.112331645179076,669.0381312325283,-2.086770868488188,73087.54284647807,10.5,10500073087.542847,47.655,-122.3035,60.0,1.7166666666666666
2026-01-20T23:01:44+00:00,SAT-60265,187.37000186437024,60.71472791562267,666.956925086356,-2.0186278550957475,70700.88627281394,10.5,10500070700.886272,47.655,-122.3035,60.0,1.7333333333333334
2026-01-20T23:01:45+00:00,SAT-60265,187.42276206120633,61.32063467574776,664.943680238874,-1.94986212402058,68292.41949180752,10.5,10500068292.419493,47.655,-122.3035,60.0,1.75
2026-01-20T23:01:46+00:00,SAT-60265,187.47890009131734,61.92996152633912,662.999017747184,-1.8804877050980735,65862.63388764027,10.5,10500065862.633888,47.655,-122.3035,60.0,1.7666666666666666
2026-01-20T23:01:47+00:00,SAT-60265,187.5386537251624,62.5426138487699,661.1235446759663,-1.810519471665878,63412.05038751081,10.5,10500063412.050388,47.655,-122.3035,60.0,1.7833333333333334
2026-01-20T23:01:48+00:00,SAT-60265,187.6022835831141,63.158492801170674,659.3178532562248,-1.7399731346357716,60941.21925400672,10.5,10500060941.219254,47.655,-122.3035,60.0,1.8
2026-01-20T23:01:49+00:00,SAT-60265,187.67007594387542,63.777495318498296,657.582520049948,-1.668865243576426,58450.72012302749,10.5,10500058450.720123,47.655,-122.3035,60.0,1.8166666666666667
2026-01-20T23:01:50+00:00,SAT-60265,187.7423459770844,64.39951411869727,655.9181051136878,-1.5972131712870292,55941.16146348754,10.5,10500055941.161463,47.655,-122.3035,60.0,1.8333333333333333
2026-01-20T23:01:51+00:00,SAT-60265,187.81944147632495,65.02443770961598,654.3251511775243,-1.5250350992196375,53413.18006674535,10.5,10500053413.180067,47.655,-122.3035,60.0,1.85
2026-01-20T23:01:52+00:00,SAT-60265,187.90174718500654,65.65215039565524,652.8041828385692,-1.45235001568427,50867.44098373827,10.5,10500050867.440983,47.655,-122.3035,60.0,1.8666666666666667
2026-01-20T23:01:53+00:00,SAT-60265,187.98968982881274,66.28253228901004,651.3557057562601,-1.3791777000285352,48304.6369708861,10.5,10500048304.63697,47.655,-122.3035,60.0,1.8833333333333333
2026-01-20T23:01:54+00:00,SAT-60265,188.08374399199982,66.91545931939982,649.9802058634316,-1.305538692456111,45725.48743300662,10.5,10500045725.487432,47.655,-122.3035,60.0,1.9
2026-01-20T23:01:55+00:00,SAT-60265,188.18443900671508,67.55080323496807,648.6781486074888,-1.231454272870318,43130.737682328014,10.5,10500043130.737682,47.655,-122.3035,60.0,1.9166666666666667
2026-01-20T23:01:56+00:00,SAT-60265,188.29236706489544,68.18843159469229,647.4499782126794,-1.1569464578556756,40521.15883277021,10.5,10500040521.158833,47.655,-122.3035,60.0,1.9333333333333333
2026-01-20T23:01:57+00:00,SAT-60265,188.40819281498335,68.82820775951967,646.296116945378,-1.0820379484080056,37897.545969232015,10.5,10500037897.545969,47.655,-122.3035,60.0,1.95
2026-01-20T23:01:58+00:00,SAT-60265,188.5326647657851,69.4699908548871,645.216964431499,-1.0067521136078748,35260.71757576598,10.5,10500035260.717575,47.655,-122.3035,60.0,1.9666666666666666
2026-01-20T23:01:59+00:00,SAT-60265,188.66662890979256,70.11363571637176,644.212896990194,-0.931112961980629,32611.514532485682,10.5,10500032611.514532,47.655,-122.3035,60.0,1.9833333333333334
2026-01-20T23:02:00+00:00,SAT-60265,188.81104508443028,70.75899280669775,643.284266996112,-0.8551451020012399,29950.79873227838,10.5,10500029950.798733,47.655,-122.3035,60.0,2.0
2026-01-20T23:02:01+00:00,SAT-60265,188.96700673271798,71.40590808941388,642.4314022810495,-0.7788737072773118,27279.45186136662,10.5,10500027279.45186,47.655,-122.3035,60.0,2.0166666666666666
2026-01-20T23:02:02+00:00,SAT-60265,189.1357649149814,72.0542228497696,641.654605570325,-0.7023244740330652,24598.37391021753,10.5,10500024598.37391,47.655,-122.3035,60.0,2.033333333333333
2026-01-20T23:02:03+00:00,SAT-60265,189.3187576735088,72.70377344214077,640.954153961556,-0.6255235913125423,21908.482129933018,10.5,10500021908.48213,47.655,-122.3035,60.0,2.05
2026-01-20T23:02:04+00:00,SAT-60265,189.5176461938817,73.35439095354735,640.3302984331536,-0.5484976906136277,19210.70926822012,10.5,10500019210.709269,47.655,-122.3035,60.0,2.066666666666667
2026-01-20T23:02:05+00:00,SAT-60265,189.73435966069405,74.00590074186844,639.7832634030483,-0.47127380103269995,16506.00199836698,10.5,10500016506.001999,47.655,-122.3035,60.0,2.0833333333333335
2026-01-20T23:02:06+00:00,SAT-60265,189.97115133831278,74.6581218142081,639.3132463321517,-0.3938793059028121,13795.319400528506,10.5,10500013795.3194,47.655,-122.3035,60.0,2.1
2026-01-20T23:02:07+00:00,SAT-60265,190.2306692815228,75.31086599767414,638.9204173710647,-0.3163418990414337,11079.631429337205,10.5,10500011079.63143,47.655,-122.3035,60.0,2.1166666666666667
2026-01-20T23:02:08+00:00,SAT-60265,190.51604630855056,75.96393683727096,638.6049190504207,-0.2386895277642759,8359.916918006313,10.5,10500008359.916918,47.655,-122.3035,60.0,2.1333333333333333
2026-01-20T23:02:09+00:00,SAT-60265,190.83101560503715,76.6171281084967,638.3668660280637,-0.16095035125624763,5637.162120304573,10.5,10500005637.16212,47.655,-122.3035,60.0,2.15
2026-01-20T23:02:10+00:00,SAT-60265,191.1800608560626,77.27022183430755,638.2063448777442,-0.08315268378882387,2912.3587217882937,10.5,10500002912.358723,47.655,-122.3035,60.0,2.1666666666666665
2026-01-20T23:02:11+00:00,SAT-60265,191.5686134643018,77.92298559378665,638.1234139344455,-0.005324948698585394,186.5022279351225,10.5,10500000186.502228,47.655,-122.3035,60.0,2.183333333333333
2026-01-20T23:02:12+00:00,SAT-60265,192.00331490089354,78.57516887334948,638.11810318561,0.07250437681218214,-2539.4099691724477,10.5,10499997460.59003,47.655,-122.3035,60.0,2.2
2026-01-20T23:02:13+00:00,SAT-60265,192.49237049171194,79.22649804521605,638.1904142174174,0.1503068121784298,-5264.380359673735,10.5,10499994735.61964,47.655,-122.3035,60.0,2.216666666666667
2026-01-20T23:02:14+00:00,SAT-60265,193.04603369459898,79.87666937735358,638.3403202114299,0.2280539259201175,-7987.413152872691,10.5,10499992012.586847,47.655,-122.3035,60.0,2.2333333333333334
2026-01-20T23:02:15+00:00,SAT-60265,193.67727998816088,80.52533918589052,638.5677659935477,0.30571738636191137,-10707.51605365626,10.5,10499989292.483946,47.655,-122.3035,60.0,2.25
2026-01-20T23:02:16+00:00,SAT-60265,194.40276168162623,81.17210968774471,638.872668133546,0.383269015438792,-13423.702146994357,10.5,10499986576.297853,47.655,-122.3035,60.0,2.2666666666666666
2026-01-20T23:02:17+00:00,SAT-60265,195.24418802263278,81.81650831957911,639.2549150982769,0.4606808334426449,-16134.991465154775,10.5,10499983865.008535,47.655,-122.3035,60.0,2.283333333333333
2026-01-20T23:02:18+00:00,SAT-60265,196.23036442548513,82.45795678247514,639.7143674494971,0.5379251185725309,-18840.413073405518,10.5,10499981159.586927,47.655,-122.3035,60.0,2.3
2026-01-20T23:02:19+00:00,SAT-60265,197.40027987409454,83.09572356005464,640.2508581010867,0.6149744449571481,-21539.006401722272,10.5,10499978460.993599,47.655,-122.3035,60.0,2.316666666666667
2026-01-20T23:02:20+00:00,SAT-60265,198.80790810258054,83.72884886351883,640.8641926141906,0.6918017390704024,-24229.82322070032,10.5,10499975770.176779,47.655,-122.3035,60.0,2.3333333333333335
2026-01-20T23:02:21+00:00,SAT-60265,200.529895308873,84.35602203596079,641.5541495486235,0.7683803192870413,-26911.929026960155,10.5,10499973088.070972,47.655,-122.3035,60.0,2.35
2026-01-20T23:02:22+00:00,SAT-60265,202.67825933958332,84.97537354891011,642.3204808537258,0.8446839422156531,-29584.40466592511,10.5,10499970415.595335,47.655,-122.3035,60.0,2.3666666666666667
2026-01-20T23:02:23+00:00,SAT-60265,205.42203786744338,85.58410685001287,643.1629123054289,0.9206868476047109,-32246.347904620954,10.5,10499967753.652096,47.655,-122.3035,60.0,2.3833333333333333
2026-01-20T23:02:24+00:00,SAT-60265,209.0252116701658,86.17781597271863,644.0811439881066,0.9963638019595188,-34896.874959325854,10.5,10499965103.12504,47.655,-122.3035,60.0,2.4
2026-01-20T23:02:25+00:00,SAT-60265,213.91384488454833,86.74916034900691,645.0748508199276,1.0716901210576164,-37535.121284155095,10.5,10499962464.878716,47.655,-122.3035,60.0,2.4166666666666665
2026-01-20T23:02:26+00:00,SAT-60265,220.78976658591654,87.28519615299618,646.1436831006624,1.1466417275662912,-40160.243589070065,10.5,10499959839.75641,47.655,-122.3035,60.0,2.433333333333333
2026-01-20T23:02:27+00:00,SAT-60265,230.77838579191658,87.76204263603518,647.2872671169551,1.2211951767527798,-42771.42074035828,10.5,10499957228.57926,47.655,-122.3035,60.0,2.45
2026-01-20T23:02:28+00:00,SAT-60265,245.36518942295265,88.13588300925899,648.5052057732365,1.2953276720036495,-45367.854304187735,10.5,10499954632.145697,47.655,-122.3035,60.0,2.466666666666667
2026-01-20T23:02:29+00:00,SAT-60265,265.12229090065097,88.33835895264917,649.7970792381149,1.369017134252318,-47948.77097825236,10.5,10499952051.229021,47.655,-122.3035,60.0,2.4833333333333334
2026-01-20T23:02:30+00:00,SAT-60265,286.9198281195746,88.30954180772532,651.1624456600093,1.4422421764074684,-50513.421696146936,10.5,10499949486.578304,47.655,-122.3035,60.0,2.5
2026-01-20T23:02:31+00:00,SAT-60265,305.40505189878286,88.06222375261095,652.6008418572796,1.5149821787662567,-53061.0842686566,10.5,10499946938.915731,47.655,-122.3035,60.0,2.5166666666666666
2026-01-20T23:02:32+00:00,SAT-60265,318.6238605550234,87.66703530045277,654.1117840835692,1.587217261378462,-55591.06241583254,10.5,10499944408.937584,47.655,-122.3035,60.0,2.533333333333333
2026-01-20T23:02:33+00:00,SAT-60265,327.6424036641764,87.18751924453954,655.694768765584,1.6589283523757488,-58102.68816017167,10.5,10499941897.31184,47.655,-122.3035,60.0,2.55
2026-01-20T23:02:34+00:00,SAT-60265,333.8967058293615,86.66149729970888,657.3492733090201,1.7300971649263095,-60595.32101947091,10.5,10499939404.67898,47.655,-122.3035,60.0,2.566666666666667
2026-01-20T23:02:35+00:00,SAT-60265,338.38688997346935,86.10929843569461,659.0747568815066,1.800706233879547,-63068.34929027882,10.5,10499936931.65071,47.655,-122.3035,60.0,2.5833333333333335
2026-01-20T23:02:36+00:00,SAT-60265,341.7268746596194,85.54201214364632,660.8706612320958,1.8707389020169487,-65521.18956634313,10.5,10499934478.810434,47.655,-122.3035,60.0,2.6
2026-01-20T23:02:37+00:00,SAT-60265,344.2904639313759,84.96599471209736,662.7364114970406,1.9401793641115657,-67953.28828176005,10.5,10499932046.711718,47.655,-122.3035,60.0,2.6166666666666667
2026-01-20T23:02:38+00:00,SAT-60265,346.31118268939355,84.38509549689506,664.6714170495146,2.0090126536184982,-70364.12124481874,10.5,10499929635.878756,47.655,-122.3035,60.0,2.6333333333333333
2026-01-20T23:02:39+00:00,SAT-60265,347.93995840472985,83.8017691859803,666.6750723360567,2.077224630394654,-72753.1932078954,10.5,10499927246.806791,47.655,-122.3035,60.0,2.65
2026-01-20T23:02:40+00:00,SAT-60265,349.27769664588084,83.21765504277079,668.7467577007704,2.144802010650554,-75120.03891649209,10.5,10499924879.961084,47.655,-122.3035,60.0,2.6666666666666665
2026-01-20T23:02:41+00:00,SAT-60265,350.39399604515614,82.63389322608033,670.8858402393925,2.2117323524334167,-77464.22260079296,10.5,10499922535.7774,47.655,-122.3035,60.0,2.683333333333333
2026-01-20T23:02:42+00:00,SAT-60265,351.3382179755021,82.05130561322757,673.0916746388862,2.2780040457647703,-79785.3376302418,10.5,10499920214.66237,47.655,-122.3035,60.0,2.7
2026-01-20T23:02:43+00:00,SAT-60265,352.1462447313646,81.47050355969952,675.3636040071956,2.343606324089756,-82083.00691454498,10.5,10499917916.993086,47.655,-122.3035,60.0,2.716666666666667
2026-01-20T23:02:44+00:00,SAT-60265,352.84473426866845,80.8919545433546,677.7009607144211,2.40852925077157,-84356.88243064968,10.5,10499915643.117569,47.655,-122.3035,60.0,2.7333333333333334
2026-01-20T23:02:45+00:00,SAT-60265,353.45387653940065,80.3160247666695,680.1030672205238,2.4727636869006924,-86606.64409528697,10.5,10499913393.355906,47.655,-122.3035,60.0,2.75
2026-01-20T23:02:46+00:00,SAT-60265,353.9892263774383,79.74300720528367,682.5692368709263,2.536301331108956,-88832.0011594289,10.5,10499911167.99884,47.655,-122.3035,60.0,2.7666666666666666
2026-01-20T23:02:47+00:00,SAT-60265,354.4629515568259,79.17314054988142,685.0987747318188,2.5991346436632354,-91032.68954972833,10.5,10499908967.31045,47.655,-122.3035,60.0,2.783333333333333
2026-01-20T23:02:48+00:00,SAT-60265,354.8847010238944,78.60662232285503,687.6909783497656,2.6612568950604056,-93208.4735705201,10.5,10499906791.52643,47.655,-122.3035,60.0,2.8
2026-01-20T23:02:49+00:00,SAT-60265,355.26222075956895,78.04361813489511,690.3451385597725,2.722662106381402,-95359.14381476774,10.5,10499904640.856186,47.655,-122.3035,60.0,2.816666666666667
2026-01-20T23:02:50+00:00,SAT-60265,355.6017983714527,77.48426836303372,693.0605402338703,2.783345045046946,-97484.51701541114,10.5,10499902515.482985,47.655,-122.3035,60.0,2.8333333333333335
2026-01-20T23:02:51+00:00,SAT-60265,355.9085892337037,76.9286930469836,695.8364630254638,2.8433012183686204,-99584.43581949788,10.5,10499900415.56418,47.655,-122.3035,60.0,2.85
2026-01-20T23:02:52+00:00,SAT-60265,356.1868592505953,76.37699553905117,698.6721821072501,2.90252683418801,-101658.76740959943,10.5,10499898341.23259,47.655,-122.3035,60.0,2.8666666666666667
2026-01-20T23:02:53+00:00,SAT-60265,356.4401679838743,75.82926527318384,701.5669688698802,2.9610188043963768,-103707.40362708509,10.5,10499896292.596373,47.655,-122.3035,60.0,2.8833333333333333
2026-01-20T23:02:54+00:00,SAT-60265,356.6715084993878,75.28557989039426,704.5200916241315,3.018774713511813,-105730.259871561,10.5,10499894269.740128,47.655,-122.3035,60.0,2.9
2026-01-20T23:02:55+00:00,SAT-60265,356.8834153687741,74.74600689861164,707.5308162717407,3.0757927866873143,-107727.27398037746,10.5,10499892272.726019,47.655,-122.3035,60.0,2.9166666666666665
2026-01-20T23:02:56+00:00,SAT-60265,357.0780489487399,74.21060498756584,710.5984069443302,3.1320718751298324,-109698.4057179425,10.5,10499890301.594282,47.655,-122.3035,60.0,2.933333333333333
2026-01-20T23:02:57+00:00,SAT-60265,357.2572617850726,73.67942508185546,713.7221266277929,3.187611465631292,-111643.63710953851,10.5,10499888356.36289,47.655,-122.3035,60.0,2.95
2026-01-20T23:02:58+00:00,SAT-60265,357.4226514020649,73.15251119131723,716.9012377961826,3.2424115763210377,-113562.96879013178,10.5,10499886437.03121,47.655,-122.3035,60.0,2.966666666666667
2026-01-20T23:02:59+00:00,SAT-60265,357.5756026117623,72.62990112398887,720.1350029416335,3.2964728534271854,-115456.4233933645,10.5,10499884543.576607,47.655,-122.3035,60.0,2.9833333333333334
2026-01-20T23:03:00+00:00,SAT-60265,357.71732169670594,72.11162706186481,723.4226852007848,3.3497964252404384,-117324.04043674977,10.5,10499882675.959562,47.655,-122.3035,60.0,3.0
2026-01-20T23:03:01+00:00,SAT-60265,357.8488642153316,71.59771606569055,726.7635488355579,3.4023839617696856,-119165.87841106298,10.5,10499880834.12159,47.655,-122.3035,60.0,3.0166666666666666
2026-01-20T23:03:02+00:00,SAT-60265,357.97115778205784,71.08819049398781,730.1568597734296,3.454237619989578,-120982.01286268039,10.5,10499879017.987137,47.655,-122.3035,60.0,3.033333333333333
2026-01-20T23:03:03+00:00,SAT-60265,358.08502084410816,70.58306836996701,733.6018860930991,3.5053600225707733,-122772.53564862235,10.5,10499877227.464352,47.655,-122.3035,60.0,3.05
2026-01-20T23:03:04+00:00,SAT-60265,358.19117825197947,70.08236370216655,737.0978984889431,3.5557542531265485,-124537.55477006949,10.5,10499875462.44523,47.655,-122.3035,60.0,3.066666666666667
2026-01-20T23:03:05+00:00,SAT-60265,358.2902742442185,69.58608676527759,740.644170730728,3.605423788554275,-126277.192002675,10.5,10499873722.807997,47.655,-122.3035,60.0,3.0833333333333335
2026-01-20T23:03:06+00:00,SAT-60265,358.38288333102304,69.0942443570957,744.239980055846,3.654372536519666,-127991.58420942162,10.5,10499872008.41579,47.655,-122.3035,60.0,3.1
2026-01-20T23:03:07+00:00,SAT-60265,358.4695194655323,68.6068400218773,747.8846075989351,3.702604764747788,-129680.88086409356,10.5,10499870319.119137,47.655,-122.3035,60.0,3.1166666666666667
2026-01-20T23:03:08+00:00,SAT-60265,358.5506438053796,68.123874259905,751.5773387509769,3.750125119662138,-131345.2447040961,10.5,10499868654.755297,47.655,-122.3035,60.0,3.1333333333333333
2026-01-20T23:03:09+00:00,SAT-60265,358.6266713131331,67.64534471411308,755.3174635369865,3.7969385386666836,-132984.84865820134,10.5,10499867015.151342,47.655,-122.3035,60.0,3.15
2026-01-20T23:03:10+00:00,SAT-60265,358.6979763904086,67.17124635067884,759.1042769062168,3.843050317360209,-134599.87820067906,10.5,10499865400.1218,47.655,-122.3035,60.0,3.1666666666666665
2026-01-20T23:03:11+00:00,SAT-60265,358.76489771010614,66.70157161546902,762.9370790893973,3.8884660391528274,-136190.52888616928,10.5,10499863809.471113,47.655,-122.3035,60.0,3.183333333333333
2026-01-20T23:03:12+00:00,SAT-60265,358.827742373585,66.23631058634624,766.8151758857791,3.9331915519096134,-137757.00553164328,10.5,10499862242.994469,47.655,-122.3035,60.0,3.2
2026-01-20T23:03:13+00:00,SAT-60265,358.88678950130225,65.77545111624892,770.7378789268837,3.977232920378037,-139299.5205502114,10.5,10499860700.47945,47.655,-122.3035,60.0,3.216666666666667
2026-01-20T23:03:14+00:00,SAT-60265,358.9422933443365,65.31897897103543,774.7045058928073,4.02059652114084,-140818.29727677413,10.5,10499859181.702723,47.655,-122.3035,60.0,3.2333333333333334
2026-01-20T23:03:15+00:00,SAT-60265,358.99448599213235,64.86687794651753,778.7143808232252,4.0632888942802685,-142313.56477267624,10.5,10499857686.435226,47.655,-122.3035,60.0,3.25
2026-01-20T23:03:16+00:00,SAT-60265,359.04357973219976,64.41912999429744,782.766834280454,4.105316799618059,-143785.55979546896,10.5,10499856214.440205,47.655,-122.3035,60.0,3.2666666666666666
2026-01-20T23:03:17+00:00,SAT-60265,359.08976911611296,63.97571533274994,786.8612035686064,4.146687157963708,-145234.5247411759,10.5,10499854765.475258,47.655,-122.3035,60.0,3.283333333333333
2026-01-20T23:03:18+00:00,SAT-60265,359.13323277171975,63.53661255720806,790.9968328941488,4.1874070691749505,-146660.70827684723,10.5,10499853339.291723,47.655,-122.3035,60.0,3.3
2026-01-20T23:03:19+00:00,SAT-60265,359.1741349983241,63.10179874115867,795.1730735444727,4.227483796285801,-148064.36478465685,10.5,10499851935.635216,47.655,-122.3035,60.0,3.316666666666667
2026-01-20T23:03:20+00:00,SAT-60265,359.21262717395587,62.67124953289897,799.3892840506351,4.266924724554211,-149445.7529275777,10.5,10499850554.247072,47.655,-122.3035,60.0,3.3333333333333335
2026-01-20T23:03:21+00:00,SAT-60265,359.248848999899,62.24493925046642,803.6448303092571,4.305737333956949,-150805.13468603656,10.5,10499849194.865314,47.655,-122.3035,60.0,3.35
2026-01-20T23:03:22+00:00,SAT-60265,359.2829296039913,61.8228409735583,807.9390856769902,4.343929258768087,-152142.77744460444,10.5,10499847857.222555,47.655,-122.3035,60.0,3.3666666666666667
2026-01-20T23:03:23+00:00,SAT-60265,359.3149885221036,61.40492662411064,812.2714311244015,4.381508180880622,-153458.95025566831,10.5,10499846541.049744,47.655,-122.3035,60.0,3.3833333333333333
2026-01-20T23:03:24+00:00,SAT-60265,359.3451365713564,60.99116705254005,816.6412552834665,4.418481901896042,-154753.92636431317,10.5,10499845246.073635,47.655,-122.3035,60.0,3.4
2026-01-20T23:03:25+00:00,SAT-60265,359.3734766305756,60.58153211202949,821.0479545669575,4.454858230293074,-156027.97925649377,10.5,10499843972.020744,47.655,-122.3035,60.0,3.4166666666666665
2026-01-20T23:03:26+00:00,SAT-60265,359.40010433751746,60.17599073903994,825.4909331753032,4.4906451045403495,-157281.3869709613,10.5,10499842718.61303,47.655,-122.3035,60.0,3.433333333333333
2026-01-20T23:03:27+00:00,SAT-60265,359.42510871509904,59.774511017864654,829.9696032262314,4.525850450576215,-158514.4271076034,10.5,10499841485.572893,47.655,-122.3035,60.0,3.45
2026-01-20T23:03:28+00:00,SAT-60265,359.4485727326721,59.377060254377774,834.4833847422726,4.560482254375784,-159727.37936904913,10.5,10499840272.62063,47.655,-122.3035,60.0,3.466666666666667
2026-01-20T23:03:29+00:00,SAT-60265,359.47057381184516,58.98360503902149,839.0317057106369,4.594548501853942,-160920.52345581818,10.5,10499839079.476543,47.655,-122.3035,60.0,3.4833333333333334
2026-01-20T23:03:30+00:00,SAT-60265,359.49118428202,58.59411131141913,843.6140020831525,4.628057231871915,-162094.14092283507,10.5,10499837905.859077,47.655,-122.3035,60.0,3.5
2026-01-20T23:03:31+00:00,SAT-60265,359.510471792283,58.20854441674904,848.2297178290727,4.661016453056803,-163248.5122660972,10.5,10499836751.487734,47.655,-122.3035,60.0,3.5166666666666666
2026-01-20T23:03:32+00:00,SAT-60265,359.52849968342434,57.82686916587116,852.8783049049215,4.693434175024195,-164383.91801622324,10.5,10499835616.081984,47.655,-122.3035,60.0,3.533333333333333
2026-01-20T23:03:33+00:00,SAT-60265,359.54532732537973,57.4490498893124,857.5592232554789,4.725318406564459,-165500.63867492898,10.5,10499834499.361324,47.655,-122.3035,60.0,3.55
2026-01-20T23:03:34+00:00,SAT-60265,359.56101042339964,57.07505048833655,862.2719408129591,4.756677155297279,-166598.95470292793,10.5,10499833401.045298,47.655,-122.3035,60.0,3.566666666666667
2026-01-20T23:03:35+00:00,SAT-60265,359.57560129646686,56.70483448305516,867.0159334958423,4.787518365987369,-167679.14435948676,10.5,10499832320.85564,47.655,-122.3035,60.0,3.5833333333333335
2026-01-20T23:03:36+00:00,SAT-60265,359.5891491303394,56.338365062570986,871.7906851461871,4.817849947728893,-168741.4846545385,10.5,10499831258.515345,47.655,-122.3035,60.0,3.6
2026-01-20T23:03:37+00:00,SAT-60265,359.6017002085418,55.97560512996312,876.5956874940554,4.8476798227000115,-169786.2530562731,10.5,10499830213.746944,47.655,-122.3035,60.0,3.6166666666666667
2026-01-20T23:03:38+00:00,SAT-60265,359.61329812334117,55.61651734104368,881.4304401705614,4.877015826020579,-170813.72398373036,10.5,10499829186.276016,47.655,-122.3035,60.0,3.6333333333333333
2026-01-20T23:03:39+00:00,SAT-60265,359.62398396830474,55.261064148210245,886.294450621046,4.9058657710559785,-171824.17109401655,10.5,10499828175.828905,47.655,-122.3035,60.0,3.65
2026-01-20T23:03:40+00:00,SAT-60265,359.633796514742,54.90920783691541,891.1872340833792,4.9342373512255,-172817.86384321834,10.5,10499827182.136156,47.655,-122.3035,60.0,3.6666666666666665
2026-01-20T23:03:41+00:00,SAT-60265,359.64277237314957,54.56091056691794,896.1083134683347,4.962138304591351,-173795.07325100614,10.5,10499826204.926748,47.655,-122.3035,60.0,3.683333333333333
2026-01-20T23:03:42+00:00,SAT-60265,359.6509461419325,54.216134399435546,901.0572194041139,4.989576232034513,-174756.06553238368,10.5,10499825243.934467,47.655,-122.3035,60.0,3.7
2026-01-20T23:03:43+00:00,SAT-60265,359.65835054342114,53.8748413353036,906.0334900995297,5.016558679504022,-175701.10497840552,10.5,10499824298.895021,47.655,-122.3035,60.0,3.716666666666667
2026-01-20T23:03:44+00:00,SAT-60265,359.6650165492816,53.536993345090536,911.0366712892217,5.043093135639382,-176630.453872904,10.5,10499823369.546127,47.655,-122.3035,60.0,3.7333333333333334
2026-01-20T23:03:45+00:00,SAT-60265,359.6709734960257,53.202552397491274,916.0663161764992,5.069187032950528,-177544.37253381652,10.5,10499822455.627466,47.655,-122.3035,60.0,3.75
2026-01-20T23:03:46+00:00,SAT-60265,359.6762491914773,52.87148048588852,921.1219853773619,5.094847684701378,-178443.11710258058,10.5,10499821556.882898,47.655,-122.3035,60.0,3.7666666666666666
2026-01-20T23:03:47+00:00,SAT-60265,359.6808700128917,52.54373965731782,926.2032468015708,5.120082346412551,-179326.94169821907,10.5,10499820673.058302,47.655,-122.3035,60.0,3.783333333333333
2026-01-20T23:03:48+00:00,SAT-60265,359.68486099776317,52.21929203558874,931.3096755950595,5.144898187785665,-180196.09743401044,10.5,10499819803.902567,47.655,-122.3035,60.0,3.8
2026-01-20T23:03:49+00:00,SAT-60265,359.6882459277679,51.89809984468395,936.4408540543444,5.1693023213352856,-181050.83342030068,10.5,10499818949.16658,47.655,-122.3035,60.0,3.816666666666667
2026-01-20T23:03:50+00:00,SAT-60265,359.69104740651886,51.58012542884426,941.5963715694895,5.193301735450542,-181891.39442003804,10.5,10499818108.60558,47.655,-122.3035,60.0,3.8333333333333335
2026-01-20T23:03:51+00:00,SAT-60265,359.69328693149674,51.2653312753978,946.7758245003122,5.216903347940276,-182718.0227241504,10.5,10499817281.977276,47.655,-122.3035,60.0,3.85
2026-01-20T23:03:52+00:00,SAT-60265,359.6949849608643,50.953680032811015,951.9788161059912,5.240114006523976,-183530.95816874004,10.5,10499816469.041832,47.655,-122.3035,60.0,3.8666666666666667
2026-01-20T23:03:53+00:00,SAT-60265,359.69616097553103,50.64513452746208,957.2049564751645,5.262940420010949,-184330.43572468715,10.5,10499815669.564276,47.655,-122.3035,60.0,3.8833333333333333
2026-01-20T23:03:54+00:00,SAT-60265,359.69683353666596,50.33965778327303,962.4538623873889,5.285389277936008,-185116.68968779754,10.5,10499814883.310312,47.655,-122.3035,60.0,3.9
2026-01-20T23:03:55+00:00,SAT-60265,359.69702033944907,50.037213033035805,967.7251572939169,5.307467083867082,-185889.94784053025,10.5,10499814110.05216,47.655,-122.3035,60.0,3.9166666666666665
2026-01-20T23:03:56+00:00,SAT-60265,359.6967382627794,49.737763738399735,973.0184711322271,5.329180365894461,-186650.43882422103,10.5,10499813349.561176,47.655,-122.3035,60.0,3.933333333333333
2026-01-20T23:03:57+00:00,SAT-60265,359.6960034159696,49.44127359659018,978.3334403504791,5.350535446614227,-187398.3840829291,10.5,10499812601.615917,47.655,-122.3035,60.0,3.95
2026-01-20T23:03:58+00:00,SAT-60265,359.6948311818969,49.14770655931361,983.6697077025691,5.371538627088931,-188134.00430651856,10.5,10499811865.995693,47.655,-122.3035,60.0,3.966666666666667
2026-01-20T23:03:59+00:00,SAT-60265,359.6932362575754,48.85702684021011,989.0269222266523,5.392196087756813,-188857.51596007973,10.5,10499811142.48404,47.655,-122.3035,60.0,3.9833333333333334
2026-01-20T23:04:00+00:00,SAT-60265,359.69123269187907,48.56919892701652,994.4047391248419,5.412513919903439,-189569.13238619934,10.5,10499810430.867615,47.655,-122.3035,60.0,4.0
2026-01-20T23:04:01+00:00,SAT-60265,359.6888339208665,48.28418759108921,999.8028196742922,5.432498125157169,-190269.06378728937,10.5,10499809730.936213,47.655,-122.3035,60.0,4.016666666666667
2026-01-20T23:04:02+00:00,SAT-60265,359.6860528008004,48.00195789616616,1005.2208311377823,5.452154593344871,-190957.51645000072,10.5,10499809042.48355,47.655,-122.3035,60.0,4.033333333333333
2026-01-20T23:04:03+00:00,SAT-60265,359.68290163905755,47.72247520750468,1010.6584466522116,5.471489147787397,-191634.69433166212,10.5,10499808365.305668,47.655,-122.3035,60.0,4.05
2026-01-20T23:04:04+00:00,SAT-60265,359.679392223085,47.44570519793576,1016.1153451622715,5.490507496129058,-192300.79733812084,10.5,10499807699.202662,47.655,-122.3035,60.0,4.066666666666666
2026-01-20T23:04:05+00:00,SAT-60265,359.67553584755734,47.17161385578845,1021.5912113050776,5.509215280140119,-192956.02306803613,10.5,10499807043.976933,47.655,-122.3035,60.0,4.083333333333333
2026-01-20T23:04:06+00:00,SAT-60265,359.67134333981795,46.900167489640396,1027.0857353444708,5.527617998443886,-193600.56410645528,10.5,10499806399.435894,47.655,-122.3035,60.0,4.1
2026-01-20T23:04:07+00:00,SAT-60265,359.66682508377966,46.631332736311236,1032.598613028252,5.545721122549249,-194234.61208876414,10.5,10499805765.38791,47.655,-122.3035,60.0,4.116666666666666
2026-01-20T23:04:08+00:00,SAT-60265,359.66199104238467,46.365076562525864,1038.1295455611412,5.5635299769448725,-194858.3535010783,10.5,10499805141.6465,47.655,-122.3035,60.0,4.133333333333334
2026-01-20T23:04:09+00:00,SAT-60265,359.656850778687,46.10136627196583,1043.6782394581476,5.581049846640655,-195471.97344679988,10.5,10499804528.026554,47.655,-122.3035,60.0,4.15
2026-01-20T23:04:10+00:00,SAT-60265,359.6514134757053,45.84016950657798,1049.244406505197,5.598285851553967,-196075.65124709258,10.5,10499803924.348753,47.655,-122.3035,60.0,4.166666666666667
2026-01-20T23:04:11+00:00,SAT-60265,359.6456879550842,45.581454253400864,1054.8277635944803,5.615243116529881,-196669.56639570883,10.5,10499803330.433605,47.655,-122.3035,60.0,4.183333333333334
2026-01-20T23:04:12+00:00,SAT-60265,359.6396826946821,45.325188842918344,1060.4280327293661,5.631926612340424,-197253.89299011134,10.5,10499802746.10701,47.655,-122.3035,60.0,4.2
2026-01-20T23:04:13+00:00,SAT-60265,359.6334058451447,45.071341954494,1066.0449408707402,5.648341231006167,-197828.8023695538,10.5,10499802171.19763,47.655,-122.3035,60.0,4.216666666666667
2026-01-20T23:04:14+00:00,SAT-60265,359.6268652454994,44.819882617840896,1071.6782198584638,5.66449179763878,-198394.463529857,10.5,10499801605.53647,47.655,-122.3035,60.0,4.233333333333333
2026-01-20T23:04:15+00:00,SAT-60265,359.62006843791613,44.57078021362987,1077.3276063446422,5.680383056006301,-198951.04261784384,10.5,10499801048.957382,47.655,-122.3035,60.0,4.25
2026-01-20T23:04:16+00:00,SAT-60265,359.6130226815797,44.3240044744604,1082.992841712499,5.696019623011903,-199498.70133699288,10.5,10499800501.298662,47.655,-122.3035,60.0,4.266666666666667
2026-01-20T23:04:17+00:00,SAT-60265,359.60573496585374,44.07952548747032,1088.6736719498497,5.711406073536988,-200037.59991900256,10.5,10499799962.400082,47.655,-122.3035,60.0,4.283333333333333
2026-01-20T23:04:18+00:00,SAT-60265,359.5982120226519,43.83731369293822,1094.3698476071904,5.726546901877476,-200567.8957731268,10.5,10499799432.104227,47.655,-122.3035,60.0,4.3
2026-01-20T23:04:19+00:00,SAT-60265,359.5904603381881,43.59733988433548,1100.0811237173298,5.741446470669105,-201089.74169732316,10.5,10499798910.258303,47.655,-122.3035,60.0,4.316666666666666
2026-01-20T23:04:20+00:00,SAT-60265,359.5824861640612,43.359575210270954,1105.807259664077,5.756109136022964,-201603.29026102828,10.5,10499798396.70974,47.655,-122.3035,60.0,4.333333333333333
2026-01-20T23:04:21+00:00,SAT-60265,359.57429552775034,43.12399117090638,1111.5480191757372,5.7705391012094,-202108.68868054947,10.5,10499797891.31132,47.655,-122.3035,60.0,4.35
2026-01-20T23:04:22+00:00,SAT-60265,359.56589424255543,42.89055962031032,1117.3031701726766,5.7847405451178044,-202606.08331826996,10.5,10499797393.916681,47.655,-122.3035,60.0,4.366666666666666
2026-01-20T23:04:23+00:00,SAT-60265,359.5572879170159,42.65925276324988,1123.0724847430076,5.798717540002388,-203095.6168017578,10.5,10499796904.383198,47.655,-122.3035,60.0,4.383333333333334
2026-01-20T23:04:24+00:00,SAT-60265,359.5484819638214,42.43004315521396,1128.8557390362366,5.8124741170340215,-203577.43031966878,10.5,10499796422.569681,47.655,-122.3035,60.0,4.4
2026-01-20T23:04:25+00:00,SAT-60265,359.5394816082781,42.20290369961323,1134.652713222292,5.8260141576474185,-204051.65981626496,10.5,10499795948.340183,47.655,-122.3035,60.0,4.416666666666667
2026-01-20T23:04:26+00:00,SAT-60265,359.53029189634657,41.977807649133766,1140.4631913421854,5.839341564421269,-204518.44197635996,10.5,10499795481.558023,47.655,-122.3035,60.0,4.433333333333334
2026-01-20T23:04:27+00:00,SAT-60265,359.5209177022304,41.75472860020158,1146.2869613291018,5.852460127279981,-204977.9095391379,10.5,10499795022.090462,47.655,-122.3035,60.0,4.45
2026-01-20T23:04:28+00:00,SAT-60265,359.51136373561326,41.53364049264274,1152.1238148960422,5.865373495491282,-205430.190317391,10.5,10499794569.809683,47.655,-122.3035,60.0,4.466666666666667
2026-01-20T23:04:29+00:00,SAT-60265,359.50163454858136,41.31451761015777,1157.9735473955454,5.878085387238134,-205875.41453761456,10.5,10499794124.585463,47.655,-122.3035,60.0,4.483333333333333
2026-01-20T23:04:30+00:00,SAT-60265,359.4917345420559,41.097334572775054,1163.8359578884179,5.89059935219574,-206313.7065244492,10.5,10499793686.293476,47.655,-122.3035,60.0,4.5
2026-01-20T23:04:31+00:00,SAT-60265,359.4816679720739,40.88206633823884,1169.7108489756743,5.902918881302054,-206745.18854530877,10.5,10499793254.811455,47.655,-122.3035,60.0,4.516666666666667
2026-01-20T23:04:32+00:00,SAT-60265,359.47143895566336,40.66868819910035,1175.5980267399596,5.915047414898709,-207169.98109550987,10.5,10499792830.018904,47.655,-122.3035,60.0,4.533333333333333
2026-01-20T23:04:33+00:00,SAT-60265,359.461051476482,40.45717577945786,1181.4973006950852,5.926988356732458,-207588.20338866167,10.5,10499792411.796612,47.655,-122.3035,60.0,4.55
2026-01-20T23:04:34+00:00,SAT-60265,359.45050939010883,40.24750503118731,1187.4084837495332,5.938744976332525,-207999.9699375076,10.5,10499792000.030062,47.655,-122.3035,60.0,4.566666666666666
2026-01-20T23:04:35+00:00,SAT-60265,359.43981642921517,40.0396522335939,1193.3313920725955,5.950320560232651,-208405.39585036138,10.5,10499791594.604149,47.655,-122.3035,60.0,4.583333333333333
2026-01-20T23:04:36+00:00,SAT-60265,359.4289762083355,39.833593987618436,1199.265845111334,5.961718256974495,-208804.5914024702,10.5,10499791195.408598,47.655,-122.3035,60.0,4.6
2026-01-20T23:04:37+00:00,SAT-60265,359.41799222855803,39.62930721549916,1205.2116654529566,5.972941208999811,-209197.6666554367,10.5,10499790802.333345,47.655,-122.3035,60.0,4.616666666666666
2026-01-20T23:04:38+00:00,SAT-60265,359.40686788188066,39.42676915575744,1211.1686788187326,5.983992474712141,-209584.72872749015,10.5,10499790415.271273,47.655,-122.3035,60.0,4.633333333333334
2026-01-20T23:04:39+00:00,SAT-60265,359.39560645545004,39.225957360886845,1217.1367139801787,5.994875051816824,-209965.88261095167,10.5,10499790034.11739,47.655,-122.3035,60.0,4.65
2026-01-20T23:04:40+00:00,SAT-60265,359.38421113554807,39.026849694205914,1223.115602698524,6.005591907168222,-210341.23221761078,10.5,10499789658.767782,47.655,-122.3035,60.0,4.666666666666667
2026-01-20T23:04:41+00:00,SAT-60265,359.3726850114243,38.8294243256955,1229.1051796939398,6.016145893729916,-210710.8774703202,10.5,10499789289.12253,47.655,-122.3035,60.0,4.683333333333334
2026-01-20T23:04:42+00:00,SAT-60265,359.36103107897867,38.633659730598715,1235.1052825319532,6.026539885471228,-211074.91902764243,10.5,10499788925.080973,47.655,-122.3035,60.0,4.7
2026-01-20T23:04:43+00:00,SAT-60265,359.3492522441985,38.439534683545034,1241.1157516443964,6.036776624738407,-211433.4529381432,10.5,10499788566.547062,47.655,-122.3035,60.0,4.716666666666667
2026-01-20T23:04:44+00:00,SAT-60265,359.3373513265553,38.247028257700386,1247.1364301981355,6.0468588625586,-211786.57555443005,10.5,10499788213.424446,47.655,-122.3035,60.0,4.733333333333333
2026-01-20T23:04:45+00:00,SAT-60265,359.3253310621414,38.05611981933409,1253.1671641037274,6.056789244369947,-212134.37953093683,10.5,10499787865.620468,47.655,-122.3035,60.0,4.75
2026-01-20T23:04:46+00:00,SAT-60265,359.31319410676144,37.866789026096555,1259.207801910112,6.066570427347158,-212476.95793316176,10.5,10499787523.042067,47.655,-122.3035,60.0,4.766666666666667
2026-01-20T23:04:47+00:00,SAT-60265,359.3009430387965,37.679015821566125,1265.2581948163197,6.07620493896955,-212814.39928412164,10.5,10499787185.600716,47.655,-122.3035,60.0,4.783333333333333
2026-01-20T23:04:48+00:00,SAT-60265,359.2885803620562,37.49278043427647,1271.3181965421186,6.085695341384393,-213146.79332105187,10.5,10499786853.206678,47.655,-122.3035,60.0,4.8
2026-01-20T23:04:49+00:00,SAT-60265,359.27610850838295,37.30806337161485,1277.3876633625928,6.095044063556411,-213474.22511657153,10.5,10499786525.774883,47.655,-122.3035,60.0,4.816666666666666
2026-01-20T23:04:50+00:00,SAT-60265,359.26352984027415,37.12484541895606,1283.466453975313,6.10425357059873,-213796.7810093697,10.5,10499786203.21899,47.655,-122.3035,60.0,4.833333333333333
2026-01-20T23:04:51+00:00,SAT-60265,359.2508466532599,36.94310763361713,1289.5544295363902,6.113326197307525,-214114.54277388463,10.5,10499785885.457226,47.655,-122.3035,60.0,4.85
2026-01-20T23:04:52+00:00,SAT-60265,359.2380611783222,36.76283134390201,1295.6514535305048,6.122264304898775,-214427.59310988782,10.5,10499785572.40689,47.655,-122.3035,60.0,4.866666666666666
2026-01-20T23:04:53+00:00,SAT-60265,359.22517558407407,36.583998143453414,1301.7573917972572,6.131070184583727,-214736.012265289,10.5,10499785263.987734,47.655,-122.3035,60.0,4.883333333333334
2026-01-20T23:04:54+00:00,SAT-60265,359.21219197893424,36.40658988854517,1307.8721124613487,6.139746035463623,-215039.8772619158,10.5,10499784960.122738,47.655,-122.3035,60.0,4.9
2026-01-20T23:04:55+00:00,SAT-60265,359.19911241324706,36.23058869600584,1313.9954858407177,6.148294097227409,-215339.266543149,10.5,10499784660.733458,47.655,-122.3035,60.0,4.916666666666667
2026-01-20T23:04:56+00:00,SAT-60265,359.1859388811743,36.05597693732831,1320.1273844870193,6.156716488487782,-215634.25431176694,10.5,10499784365.745687,47.655,-122.3035,60.0,4.933333333333334
2026-01-20T23:04:57+00:00,SAT-60265,359.17267332267465,35.88273723750368,1326.267683064871,6.165015380861714,-215924.91662698198,10.5,10499784075.083372,47.655,-122.3035,60.0,4.95
2026-01-20T23:04:58+00:00,SAT-60265,359.1593176252239,35.71085246891219,1332.4162584047172,6.173192779043681,-216211.3237016745,10.5,10499783788.676298,47.655,-122.3035,60.0,4.966666666666667
2026-01-20T23:04:59+00:00,SAT-60265,359.1458736257165,35.54030575148166,1338.57298933635,6.181250752933264,-216493.5480324834,10.5,10499783506.451967,47.655,-122.3035,60.0,4.983333333333333
2026-01-20T23:05:00+00:00,SAT-60265,359.13234311201586,35.37108044633686,1344.7377567539422,6.189191301620288,-216771.65963599065,10.5,10499783228.340364,47.655,-122.3035,60.0,5.0
2026-01-20T23:05:01+00:00,SAT-60265,359.11872782460483,35.20316015334181,1350.9104435454249,6.197016370226218,-217045.7266385777,10.5,10499782954.273361,47.655,-122.3035,60.0,5.016666666666667
2026-01-20T23:05:02+00:00,SAT-60265,359.1050294581672,35.03652870818708,1357.0909345386638,6.204727860589217,-217315.81565066183,10.5,10499782684.18435,47.655,-122.3035,60.0,5.033333333333333
2026-01-20T23:05:03+00:00,SAT-60265,359.0912496630691,34.871170179211774,1363.2791164582914,6.212327685793591,-217581.99367654775,10.5,10499782418.006323,47.655,-122.3035,60.0,5.05
2026-01-20T23:05:04+00:00,SAT-60265,359.0773900467479,34.70706886282442,1369.474877936923,6.219817669186516,-217844.3245775663,10.5,10499782155.675423,47.655,-122.3035,60.0,5.066666666666666
2026-01-20T23:05:05+00:00,SAT-60265,359.0634521751396,34.54420928168299,1375.6781094256582,6.22719962616331,-218102.8719365407,10.5,10499781897.128063,47.655,-122.3035,60.0,5.083333333333333
2026-01-20T23:05:06+00:00,SAT-60265,359.04943757398956,34.38257618072099,1381.8887031861518,6.234475341828376,-218357.69827537806,10.5,10499781642.301725,47.655,-122.3035,60.0,5.1
2026-01-20T23:05:07+00:00,SAT-60265,359.03534773009625,34.22215452383777,1388.106553260402,6.241646515279832,-218608.86310368168,10.5,10499781391.136896,47.655,-122.3035,60.0,5.116666666666666
2026-01-20T23:05:08+00:00,SAT-60265,359.02118409263676,34.062929492058274,1394.3315553849745,6.2487149226504775,-218856.4286291352,10.5,10499781143.571371,47.655,-122.3035,60.0,5.133333333333334
2026-01-20T23:05:09+00:00,SAT-60265,359.00694807416596,33.904886477556154,1400.563607067831,6.255682181155328,-219100.45149344933,10.5,10499780899.548506,47.655,-122.3035,60.0,5.15
2026-01-20T23:05:10+00:00,SAT-60265,358.99264105194976,33.74801108377725,1406.8026074298366,6.262549965510153,-219340.99035225433,10.5,10499780659.009647,47.655,-122.3035,60.0,5.166666666666667
2026-01-20T23:05:11+00:00,SAT-60265,358.97826436891995,33.592289120075584,1413.0484572621056,6.269319861420597,-219578.10074366938,10.5,10499780421.899256,47.655,-122.3035,60.0,5.183333333333334
2026-01-20T23:05:12+00:00,SAT-60265,358.9638193348242,33.43770660011805,1419.301058937229,6.275993481672038,-219811.8391542605,10.5,10499780188.160845,47.655,-122.3035,60.0,5.2
2026-01-20T23:05:13+00:00,SAT-60265,358.9493072271367,33.28424973743211,1425.5603164362833,6.282572357114403,-220042.25920086764,10.5,10499779957.740799,47.655,-122.3035,60.0,5.216666666666667
2026-01-20T23:05:14+00:00,SAT-60265,358.93472929213675,33.13190494371275,1431.826135267112,6.289058019422972,-220269.41452923813,10.5,10499779730.58547,47.655,-122.3035,60.0,5.233333333333333
2026-01-20T23:05:15+00:00,SAT-60265,358.9200867457816,32.98065882512944,1438.0984224651497,6.29545194077904,-220493.35670138814,10.5,10499779506.6433,47.655,-122.3035,60.0,5.25
2026-01-20T23:05:16+00:00,SAT-60265,358.9053807746853,32.830498180150975,1444.3770865340869,6.301755623370721,-220714.13833029973,10.5,10499779285.86167,47.655,-122.3035,60.0,5.266666666666667
2026-01-20T23:05:17+00:00,SAT-60265,358.8906125368867,32.68140999527241,1450.6620374757952,6.30797046724056,-220931.808451385,10.5,10499779068.19155,47.655,-122.3035,60.0,5.283333333333333
2026-01-20T23:05:18+00:00,SAT-60265,358.87578316282077,32.53338144395229,1456.9531866884565,6.314097898185145,-221146.41700207157,10.5,10499778853.582998,47.655,-122.3035,60.0,5.3
2026-01-20T23:05:19+00:00,SAT-60265,358.8608937560452,32.3863998825414,1463.2504469922465,6.320139316851547,-221358.01303894457,10.5,10499778641.986961,47.655,-122.3035,60.0,5.316666666666666
2026-01-20T23:05:20+00:00,SAT-60265,358.8459453940336,32.24045284749121,1469.5537326042531,6.326096053049899,-221566.64313758002,10.5,10499778433.356863,47.655,-122.3035,60.0,5.333333333333333
2026-01-20T23:05:21+00:00,SAT-60265,358.8309391289886,32.09552805366062,1475.8629590678281,6.331969445378474,-221772.35418135158,10.5,10499778227.645819,47.655,-122.3035,60.0,5.35
2026-01-20T23:05:22+00:00,SAT-60265,358.8158759885424,31.95161339080754,1482.1780432613523,6.337760811103013,-221975.19230647766,10.5,10499778024.807693,47.655,-122.3035,60.0,5.366666666666666
2026-01-20T23:05:23+00:00,SAT-60265,358.80075697643565,31.80869692085074,1488.498903376959,6.343471423024857,-222175.20209184516,10.5,10499777824.797909,47.655,-122.3035,60.0,5.383333333333334
2026-01-20T23:05:24+00:00,SAT-60265,358.78558307325443,31.666766875692446,1494.825458876189,6.349102556002881,-222372.42818840442,10.5,10499777627.571812,47.655,-122.3035,60.0,5.4
2026-01-20T23:05:25+00:00,SAT-60265,358.77035523702585,31.525811654039295,1501.1576304920427,6.354655434862479,-222566.9134947218,10.5,10499777433.086506,47.655,-122.3035,60.0,5.416666666666667
2026-01-20T23:05:26+00:00,SAT-60265,358.75507440391914,31.385819819440712,1507.4953401790788,6.360131261590158,-222758.7001094493,10.5,10499777241.29989,47.655,-122.3035,60.0,5.433333333333334
2026-01-20T23:05:27+00:00,SAT-60265,358.73974148884815,31.246780097751937,1513.8385110906381,6.365531247956422,-222947.83047391553,10.5,10499777052.169525,47.655,-122.3035,60.0,5.45
2026-01-20T23:05:28+00:00,SAT-60265,358.72435738601706,31.10868137393585,1520.1870675885998,6.370856540218687,-223134.34473490398,10.5,10499776865.655266,47.655,-122.3035,60.0,5.466666666666667
2026-01-20T23:05:29+00:00,SAT-60265,358.7089229695678,30.971512690562133,1526.5409351780447,6.3761082960665165,-223318.28343960014,10.5,10499776681.71656,47.655,-122.3035,60.0,5.483333333333333
2026-01-20T23:05:30+00:00,SAT-60265,358.6934390940863,30.835263244664613,1532.900040518655,6.381287651458505,-223499.68637407917,10.5,10499776500.313625,47.655,-122.3035,60.0,5.5
2026-01-20T23:05:31+00:00,SAT-60265,358.67790659512605,30.69992238537726,1539.2643114030432,6.386395700447228,-223678.59185669004,10.5,10499776321.408144,47.655,-122.3035,60.0,5.516666666666667
2026-01-20T23:05:32+00:00,SAT-60265,358.66232628978554,30.565479612037738,1545.6336767149558,6.391433516742998,-223855.0374933097,10.5,10499776144.962507,47.655,-122.3035,60.0,5.533333333333333
2026-01-20T23:05:33+00:00,SAT-60265,358.6466989771901,30.43192457186356,1552.0080664089874,6.396402186562657,-224029.06132784666,10.5,10499775970.938673,47.655,-122.3035,60.0,5.55
2026-01-20T23:05:34+00:00,SAT-60265,358.6310254389415,30.2992470569902,1558.3874115230524,6.401302727322792,-224200.69899453345,10.5,10499775799.301006,47.655,-122.3035,60.0,5.566666666666666
2026-01-20T23:05:35+00:00,SAT-60265,358.6153064396616,30.167437003253255,1564.7716441097693,6.406136198577511,-224369.98760343686,10.5,10499775630.012396,47.655,-122.3035,60.0,5.583333333333333
2026-01-20T23:05:36+00:00,SAT-60265,358.5995427273478,30.036484486703113,1571.1606972784837,6.41090359052239,-224536.96183539444,10.5,10499775463.038164,47.655,-122.3035,60.0,5.6
