satellites_20260121_005943/SAT-56465.csv

timestamp,satellite,azimuth_deg,elevation_deg,distance_km,relative_velocity_kms,doppler_shift_hz,tx_freq_ghz,rx_freq_hz,ue_lat,ue_lon,ue_alt_m,time_minutes
2026-01-20T23:03:01+00:00,SAT-56465,252.1526806192992,30.061767055318004,3607.4775627556883,-5.443476239143378,190653.56377646257,10.5,10500190653.563776,47.655,-122.3035,60.0,3.0166666666666666
2026-01-20T23:03:02+00:00,SAT-56465,252.20555578329692,30.12467211580772,3602.0486024531824,-5.440239655320364,190540.2049202446,10.5,10500190540.20492,47.655,-122.3035,60.0,3.033333333333333
2026-01-20T23:03:03+00:00,SAT-56465,252.25871104241412,30.187635338001108,3596.6228701036093,-5.436982234451781,190426.1162625502,10.5,10500190426.116262,47.655,-122.3035,60.0,3.05
2026-01-20T23:03:04+00:00,SAT-56465,252.31214801841125,30.250656612884814,3591.200386488449,-5.433703843593435,190311.29314711134,10.5,10500190311.293148,47.655,-122.3035,60.0,3.066666666666667
2026-01-20T23:03:05+00:00,SAT-56465,252.36586834370667,30.313735827152897,3585.7811725217725,-5.4304043863096085,190195.73219634127,10.5,10500190195.732197,47.655,-122.3035,60.0,3.0833333333333335
2026-01-20T23:03:06+00:00,SAT-56465,252.41987366182036,30.376872863575027,3580.3652492138262,-5.427083784687671,190079.4306814101,10.5,10500190079.430681,47.655,-122.3035,60.0,3.1
2026-01-20T23:03:07+00:00,SAT-56465,252.47416562765363,30.440067601158365,3574.952637652564,-5.423741880457314,189962.38305902208,10.5,10500189962.383059,47.655,-122.3035,60.0,3.1166666666666667
2026-01-20T23:03:08+00:00,SAT-56465,252.52874590671854,30.50331991416455,3569.5433590837883,-5.420378622179072,189844.58752754968,10.5,10500189844.587528,47.655,-122.3035,60.0,3.1333333333333333
2026-01-20T23:03:09+00:00,SAT-56465,252.5836161763536,30.566629673292542,3564.1374348046015,-5.416993855141702,189726.03866835058,10.5,10500189726.038668,47.655,-122.3035,60.0,3.15
2026-01-20T23:03:10+00:00,SAT-56465,252.63877812469065,30.62999674442645,3558.734886266407,-5.413587489555475,189606.7333366088,10.5,10500189606.733337,47.655,-122.3035,60.0,3.1666666666666665
2026-01-20T23:03:11+00:00,SAT-56465,252.6942334514427,30.693420989331837,3553.335735010157,-5.410159425239093,189486.6680235514,10.5,10500189486.668024,47.655,-122.3035,60.0,3.183333333333333
2026-01-20T23:03:12+00:00,SAT-56465,252.74998386785725,30.756902265481003,3547.9400026767184,-5.406709529266154,189365.83807353355,10.5,10500189365.838074,47.655,-122.3035,60.0,3.2
2026-01-20T23:03:13+00:00,SAT-56465,252.80603109645577,30.820440425611956,3542.5477110395304,-5.403237723569015,189244.24075229626,10.5,10500189244.240753,47.655,-122.3035,60.0,3.216666666666667
2026-01-20T23:03:14+00:00,SAT-56465,252.86237687170075,30.88403531831223,3537.1588819498907,-5.399743869408765,189121.87120061583,10.5,10500189121.8712,47.655,-122.3035,60.0,3.2333333333333334
2026-01-20T23:03:15+00:00,SAT-56465,252.91902293941524,30.947686787249726,3531.773537397467,-5.396227863986773,188998.7258180495,10.5,10500188998.725819,47.655,-122.3035,60.0,3.25
2026-01-20T23:03:16+00:00,SAT-56465,252.97597105725765,31.011394671534838,3526.3916994744513,-5.392689590543615,188874.80051518825,10.5,10500188874.800516,47.655,-122.3035,60.0,3.2666666666666666
2026-01-20T23:03:17+00:00,SAT-56465,253.03322299465088,31.07515880549523,3521.0133903894825,-5.389128940669914,188750.09149507724,10.5,10500188750.091496,47.655,-122.3035,60.0,3.283333333333333
2026-01-20T23:03:18+00:00,SAT-56465,253.09078053294405,31.138979018712753,3515.6386324593204,-5.385545814707839,188624.59526727762,10.5,10500188624.595266,47.655,-122.3035,60.0,3.3
2026-01-20T23:03:19+00:00,SAT-56465,253.14864546561242,31.2028551360654,3510.267448100119,-5.381940079698461,188498.3071750052,10.5,10500188498.307175,47.655,-122.3035,60.0,3.316666666666667
2026-01-20T23:03:20+00:00,SAT-56465,253.20681959794325,31.26678697727241,3504.899859860633,-5.378311607210068,188371.22272003826,10.5,10500188371.22272,47.655,-122.3035,60.0,3.3333333333333335
2026-01-20T23:03:21+00:00,SAT-56465,253.26530474718038,31.33077435688107,3499.5358904177087,-5.374660318364413,188243.33913972692,10.5,10500188243.33914,47.655,-122.3035,60.0,3.35
2026-01-20T23:03:22+00:00,SAT-56465,253.32410274315873,31.39481708479077,3494.1755625268597,-5.370986074105451,188114.65156374025,10.5,10500188114.651564,47.655,-122.3035,60.0,3.3666666666666667
2026-01-20T23:03:23+00:00,SAT-56465,253.3832154277128,31.45891496547401,3488.8188990822855,-5.367288771254405,187985.15637832103,10.5,10500187985.156378,47.655,-122.3035,60.0,3.3833333333333333
2026-01-20T23:03:24+00:00,SAT-56465,253.44264465515965,31.52306779833688,3483.465923081088,-5.363568264901046,187854.84850810017,10.5,10500187854.848509,47.655,-122.3035,60.0,3.4
2026-01-20T23:03:25+00:00,SAT-56465,253.50239229189714,31.58727537715389,3478.1166576648934,-5.359824459769926,187723.72461612834,10.5,10500187723.724617,47.655,-122.3035,60.0,3.4166666666666665
2026-01-20T23:03:26+00:00,SAT-56465,253.56246021706565,31.65153749059166,3472.7711260703495,-5.356057251042747,187591.78103122543,10.5,10500187591.78103,47.655,-122.3035,60.0,3.433333333333333
2026-01-20T23:03:27+00:00,SAT-56465,253.62285032252805,31.715853922026685,3467.4293516386424,-5.352266473155233,187459.0119546301,10.5,10500187459.011955,47.655,-122.3035,60.0,3.45
2026-01-20T23:03:28+00:00,SAT-56465,253.68356451221536,31.78022444875048,3462.0913578760824,-5.348452052117191,187325.41479489292,10.5,10500187325.414795,47.655,-122.3035,60.0,3.466666666666667
2026-01-20T23:03:29+00:00,SAT-56465,253.7446047033161,31.844648842992072,3456.7571683627707,-5.3446138486520125,187190.98467395775,10.5,10500187190.984674,47.655,-122.3035,60.0,3.4833333333333334
2026-01-20T23:03:30+00:00,SAT-56465,253.80597282556346,31.909126871067127,3451.4268068177157,-5.3407517323195,187055.7170232573,10.5,10500187055.717024,47.655,-122.3035,60.0,3.5
2026-01-20T23:03:31+00:00,SAT-56465,253.86767082143595,31.973658293409077,3446.1002970900154,-5.336865594535452,186919.60803971344,10.5,10500186919.60804,47.655,-122.3035,60.0,3.5166666666666666
2026-01-20T23:03:32+00:00,SAT-56465,253.92970064649367,32.038242864759226,3440.7776631370652,-5.33295530388491,186782.65312061837,10.5,10500186782.65312,47.655,-122.3035,60.0,3.533333333333333
2026-01-20T23:03:33+00:00,SAT-56465,253.99206426918585,32.10288033381656,3435.458929047324,-5.329020750047591,186644.84840208924,10.5,10500186644.848402,47.655,-122.3035,60.0,3.55
2026-01-20T23:03:34+00:00,SAT-56465,254.05476367119581,32.16757044341855,3430.1441190192763,-5.325061800310034,186506.1892359392,10.5,10500186506.189236,47.655,-122.3035,60.0,3.566666666666667
2026-01-20T23:03:35+00:00,SAT-56465,254.11780084724754,32.23231293019268,3424.8332573837674,-5.321078320277589,186366.67091509915,10.5,10500186366.670916,47.655,-122.3035,60.0,3.5833333333333335
2026-01-20T23:03:36+00:00,SAT-56465,254.18117780515627,32.29710752445937,3419.526368605677,-5.317070194174234,186226.28938460306,10.5,10500186226.289385,47.655,-122.3035,60.0,3.6
2026-01-20T23:03:37+00:00,SAT-56465,254.24489656615572,32.361953950377824,3414.223477265354,-5.313037304360305,186085.0405242123,10.5,10500186085.040524,47.655,-122.3035,60.0,3.6166666666666667
2026-01-20T23:03:38+00:00,SAT-56465,254.30895916494643,32.426851925846385,3408.924608060472,-5.308979515436403,185942.91959166707,10.5,10500185942.919592,47.655,-122.3035,60.0,3.6333333333333333
2026-01-20T23:03:39+00:00,SAT-56465,254.37336764956757,32.491801162204794,3403.6297858237435,-5.304896690456102,185799.9217905244,10.5,10500185799.921791,47.655,-122.3035,60.0,3.65
2026-01-20T23:03:40+00:00,SAT-56465,254.4381240814399,32.55680136413359,3398.339035524462,-5.300788710555945,185656.04295768315,10.5,10500185656.042957,47.655,-122.3035,60.0,3.6666666666666665
2026-01-20T23:03:41+00:00,SAT-56465,254.5032305356953,32.621852229792495,3393.0523822504674,-5.296655460250107,185511.27904834124,10.5,10500185511.279049,47.655,-122.3035,60.0,3.683333333333333
2026-01-20T23:03:42+00:00,SAT-56465,254.56868910129413,32.686953450779185,3387.769851204778,-5.292496787445182,185365.62473554426,10.5,10500185365.624735,47.655,-122.3035,60.0,3.7
2026-01-20T23:03:43+00:00,SAT-56465,254.63450188063553,32.75210471159584,3382.4914677420993,-5.288312561716222,185219.0754512588,10.5,10500185219.07545,47.655,-122.3035,60.0,3.716666666666667
2026-01-20T23:03:44+00:00,SAT-56465,254.70067098991547,32.81730568982831,3377.2172573472144,-5.284102670313656,185071.62724651792,10.5,10500185071.627247,47.655,-122.3035,60.0,3.7333333333333334
2026-01-20T23:03:45+00:00,SAT-56465,254.76719855944833,32.88255605627728,3371.947245617355,-5.279866981625842,184923.27551172534,10.5,10500184923.27551,47.655,-122.3035,60.0,3.75
2026-01-20T23:03:46+00:00,SAT-56465,254.83408673348868,32.94785547463939,3366.681458281014,-5.275605340546142,184774.0148143903,10.5,10500184774.014814,47.655,-122.3035,60.0,3.7666666666666666
2026-01-20T23:03:47+00:00,SAT-56465,254.90133767001566,33.013203601128026,3361.4199212213753,-5.27131762759666,184623.84096989167,10.5,10500184623.84097,47.655,-122.3035,60.0,3.783333333333333
2026-01-20T23:03:48+00:00,SAT-56465,254.9689535412656,33.078600084821986,3356.1626604407857,-5.267003717942359,184472.7496059783,10.5,10500184472.749605,47.655,-122.3035,60.0,3.8
2026-01-20T23:03:49+00:00,SAT-56465,255.0369365337644,33.144044567509404,3350.9097020660915,-5.26266346803504,184320.7356949851,10.5,10500184320.735695,47.655,-122.3035,60.0,3.816666666666667
2026-01-20T23:03:50+00:00,SAT-56465,255.1052888481401,33.20953668336442,3345.6610723673043,-5.258296729440481,184167.7940381177,10.5,10500184167.794039,47.655,-122.3035,60.0,3.8333333333333335
2026-01-20T23:03:51+00:00,SAT-56465,255.17401269913606,33.27507605879118,3340.4167977624757,-5.253903388517183,184013.92065517014,10.5,10500184013.920654,47.655,-122.3035,60.0,3.85
2026-01-20T23:03:52+00:00,SAT-56465,255.24311031616705,33.34066231276239,3335.176904782995,-5.249483304203159,183859.11060555492,10.5,10500183859.110605,47.655,-122.3035,60.0,3.8666666666666667
2026-01-20T23:03:53+00:00,SAT-56465,255.31258394302932,33.40629505638309,3329.941420100936,-5.245036330057935,183703.35876030714,10.5,10500183703.35876,47.655,-122.3035,60.0,3.8833333333333333
2026-01-20T23:03:54+00:00,SAT-56465,255.38243583788812,33.47197389272653,3324.710370534425,-5.240562332670768,183546.6604468184,10.5,10500183546.660446,47.655,-122.3035,60.0,3.9
2026-01-20T23:03:55+00:00,SAT-56465,255.45266827355334,33.537698416898,3319.4837830346414,-5.236061168594598,183389.01064096577,10.5,10500183389.010641,47.655,-122.3035,60.0,3.9166666666666665
2026-01-20T23:03:56+00:00,SAT-56465,255.5232835373969,33.60346821581062,3314.2616846958294,-5.231532711933225,183230.40493333177,10.5,10500183230.404934,47.655,-122.3035,60.0,3.933333333333333
2026-01-20T23:03:57+00:00,SAT-56465,255.59428393169804,33.66928286830422,3309.0441027377947,-5.2269768134225005,183070.83809605462,10.5,10500183070.838097,47.655,-122.3035,60.0,3.95
2026-01-20T23:03:58+00:00,SAT-56465,255.6656717733686,33.73514194475166,3303.831064529208,-5.222393318673392,182910.30472177727,10.5,10500182910.304722,47.655,-122.3035,60.0,3.966666666666667
2026-01-20T23:03:59+00:00,SAT-56465,255.7374493939694,33.80104500689001,3298.6225975927173,-5.217782108337601,182748.8006304175,10.5,10500182748.80063,47.655,-122.3035,60.0,3.9833333333333334
2026-01-20T23:04:00+00:00,SAT-56465,255.80961914027586,33.86699160815808,3293.418729570002,-5.2131430356458335,182586.32068149376,10.5,10500182586.32068,47.655,-122.3035,60.0,4.0
2026-01-20T23:04:01+00:00,SAT-56465,255.88218337396586,33.932981293245476,3288.2194882491185,-5.2084759483644145,182422.85954313885,10.5,10500182422.859543,47.655,-122.3035,60.0,4.016666666666667
2026-01-20T23:04:02+00:00,SAT-56465,255.95514447160838,33.99901359791727,3283.0249015699496,-5.203780702783533,182258.41218202724,10.5,10500182258.412182,47.655,-122.3035,60.0,4.033333333333333
2026-01-20T23:04:03+00:00,SAT-56465,256.02850482486434,34.065088049012836,3277.8349976157065,-5.199057163027582,182092.97383922053,10.5,10500182092.973839,47.655,-122.3035,60.0,4.05
2026-01-20T23:04:04+00:00,SAT-56465,256.1022668406624,34.1312041644368,3272.649804605114,-5.1943051884503015,181926.5395886916,10.5,10500181926.539589,47.655,-122.3035,60.0,4.066666666666666
2026-01-20T23:04:05+00:00,SAT-56465,256.17643294122024,34.19736145298765,3267.469350897166,-5.189524601581855,181759.1032146962,10.5,10500181759.103214,47.655,-122.3035,60.0,4.083333333333333
2026-01-20T23:04:06+00:00,SAT-56465,256.2510055635403,34.263559413778225,3262.293665027855,-5.184715300247707,181590.66113864986,10.5,10500181590.661139,47.655,-122.3035,60.0,4.1
2026-01-20T23:04:07+00:00,SAT-56465,256.32598716062915,34.32979753707968,3257.122775635075,-5.179877105621585,181421.2070973001,10.5,10500181421.207098,47.655,-122.3035,60.0,4.116666666666666
2026-01-20T23:04:08+00:00,SAT-56465,256.40138020039905,34.39607530323271,3251.9567115350683,-5.175009874041448,181250.73605899455,10.5,10500181250.73606,47.655,-122.3035,60.0,4.133333333333334
2026-01-20T23:04:09+00:00,SAT-56465,256.47718716626775,34.46239218297779,3246.7955016873575,-5.170113465166475,181079.24310840399,10.5,10500181079.243109,47.655,-122.3035,60.0,4.15
2026-01-20T23:04:10+00:00,SAT-56465,256.5534105572773,34.52874763738166,3241.639175191431,-5.16518772493594,180906.72284967013,10.5,10500180906.722849,47.655,-122.3035,60.0,4.166666666666667
2026-01-20T23:04:11+00:00,SAT-56465,256.6300528879543,34.59514111754348,3236.4877613004287,-5.160232511502657,180733.1703147045,10.5,10500180733.170315,47.655,-122.3035,60.0,4.183333333333334
2026-01-20T23:04:12+00:00,SAT-56465,256.7071166885506,34.66157206463202,3231.3412894089565,-5.155247651664821,180558.5794372473,10.5,10500180558.579437,47.655,-122.3035,60.0,4.2
2026-01-20T23:04:13+00:00,SAT-56465,256.784604504633,34.72803990936088,3226.1997890843627,-5.150233002131393,180382.94519864014,10.5,10500180382.945198,47.655,-122.3035,60.0,4.216666666666667
2026-01-20T23:04:14+00:00,SAT-56465,256.8625188975901,34.79454407224993,3221.0632900369037,-5.145188427907513,180206.26287079204,10.5,10500180206.26287,47.655,-122.3035,60.0,4.233333333333333
2026-01-20T23:04:15+00:00,SAT-56465,256.94086244485,34.8610839636092,3215.9318221114704,-5.140113762004362,180028.52660504822,10.5,10500180028.526606,47.655,-122.3035,60.0,4.25
2026-01-20T23:04:16+00:00,SAT-56465,257.0196377394124,34.92765898300188,3210.8054153194985,-5.135008841820582,179849.7307064213,10.5,10500179849.730707,47.655,-122.3035,60.0,4.266666666666667
2026-01-20T23:04:17+00:00,SAT-56465,257.0988473899887,34.99426851917235,3205.6840998345892,-5.129873525003313,179669.8701891119,10.5,10500179669.87019,47.655,-122.3035,60.0,4.283333333333333
2026-01-20T23:04:18+00:00,SAT-56465,257.17849402137233,35.06091195018039,3200.5679059723197,-5.124707651899881,179488.93946140815,10.5,10500179488.93946,47.655,-122.3035,60.0,4.3
2026-01-20T23:04:19+00:00,SAT-56465,257.2585802742198,35.12758864304782,3195.4568642074914,-5.119511074379475,179306.9333351424,10.5,10500179306.933334,47.655,-122.3035,60.0,4.316666666666666
2026-01-20T23:04:20+00:00,SAT-56465,257.33910880529186,35.19429795377707,3190.351005162643,-5.114283609090632,179123.84538857086,10.5,10500179123.845388,47.655,-122.3035,60.0,4.333333333333333
2026-01-20T23:04:21+00:00,SAT-56465,257.4200822869283,35.2610392267603,3185.250359643177,-5.109025119889914,178939.6708533745,10.5,10500178939.670853,47.655,-122.3035,60.0,4.35
2026-01-20T23:04:22+00:00,SAT-56465,257.501503407861,35.32781179525914,3180.154958590274,-5.103735456783881,178754.40447614845,10.5,10500178754.404476,47.655,-122.3035,60.0,4.366666666666666
2026-01-20T23:04:23+00:00,SAT-56465,257.58337487305994,35.394614981091024,3175.064833094708,-5.098414429632272,178568.0395973766,10.5,10500178568.039597,47.655,-122.3035,60.0,4.383333333333334
2026-01-20T23:04:24+00:00,SAT-56465,257.66569940308153,35.4614480939659,3169.9800144368883,-5.0930619132575075,178380.5718328105,10.5,10500178380.571833,47.655,-122.3035,60.0,4.4
2026-01-20T23:04:25+00:00,SAT-56465,257.7484797352265,35.52831043219864,3164.9005340220656,-5.087677715801035,178191.99446275216,10.5,10500178191.994463,47.655,-122.3035,60.0,4.416666666666667
2026-01-20T23:04:26+00:00,SAT-56465,257.83171862244035,35.59520128169547,3159.82642344684,-5.082261693231846,178002.30244262645,10.5,10500178002.302443,47.655,-122.3035,60.0,4.433333333333334
2026-01-20T23:04:27+00:00,SAT-56465,257.915418834171,35.662119916439195,3154.757714451457,-5.076813682812891,177811.49007269338,10.5,10500177811.490072,47.655,-122.3035,60.0,4.45
2026-01-20T23:04:28+00:00,SAT-56465,257.99958315608956,35.72906559810179,3149.694438938465,-5.071333504008751,177619.5510298391,10.5,10500177619.55103,47.655,-122.3035,60.0,4.466666666666667
2026-01-20T23:04:29+00:00,SAT-56465,258.0842143898198,35.796037575664634,3144.6366289904668,-5.065821018902306,177426.48048362246,10.5,10500177426.480484,47.655,-122.3035,60.0,4.483333333333333
2026-01-20T23:04:30+00:00,SAT-56465,258.169315353702,35.86303508583495,3139.5843168276147,-5.0602760496872765,177232.2722065156,10.5,10500177232.272207,47.655,-122.3035,60.0,4.5
2026-01-20T23:04:31+00:00,SAT-56465,258.25488888214943,35.93005735237214,3134.5375348473935,-5.054698421900455,177036.920088079,10.5,10500177036.920088,47.655,-122.3035,60.0,4.516666666666667
2026-01-20T23:04:32+00:00,SAT-56465,258.34093782571017,35.99710358598257,3129.496315621285,-5.049087982636305,176840.4187729139,10.5,10500176840.418774,47.655,-122.3035,60.0,4.533333333333333
2026-01-20T23:04:33+00:00,SAT-56465,258.4274650514978,36.06417298445371,3124.460691873269,-5.043444551697374,176642.76194974332,10.5,10500176642.76195,47.655,-122.3035,60.0,4.55
2026-01-20T23:04:34+00:00,SAT-56465,258.5144734427083,36.131264732141226,3119.4306965070427,-5.037767991550751,176443.944801583,10.5,10500176443.944801,47.655,-122.3035,60.0,4.566666666666666
2026-01-20T23:04:35+00:00,SAT-56465,258.6019658994334,36.198378000382114,3114.4063625634694,-5.032058090632174,176243.9599185575,10.5,10500176243.959919,47.655,-122.3035,60.0,4.583333333333333
2026-01-20T23:04:36+00:00,SAT-56465,258.68994533732234,36.26551194635499,3109.3877232944124,-5.026314714149559,176042.8025796779,10.5,10500176042.80258,47.655,-122.3035,60.0,4.6
2026-01-20T23:04:37+00:00,SAT-56465,258.7784146890005,36.332665713944394,3104.374812086167,-5.020537674599799,175840.46621779221,10.5,10500175840.466217,47.655,-122.3035,60.0,4.616666666666666
2026-01-20T23:04:38+00:00,SAT-56465,258.8673769031193,36.39983843288157,3099.367662512033,-5.01472680594038,175636.94501738928,10.5,10500175636.945017,47.655,-122.3035,60.0,4.633333333333334
2026-01-20T23:04:39+00:00,SAT-56465,258.95683494476583,36.46702921886982,3094.366308310908,-5.008881936251226,175432.23295710084,10.5,10500175432.232958,47.655,-122.3035,60.0,4.65
2026-01-20T23:04:40+00:00,SAT-56465,259.0467917953484,36.53423717334508,3089.370783393154,-5.0030028936041315,175226.32401527386,10.5,10500175226.324015,47.655,-122.3035,60.0,4.666666666666667
2026-01-20T23:04:41+00:00,SAT-56465,259.1372504526208,36.60146138331284,3084.381121840599,-4.9970895049192645,175019.21212992046,10.5,10500175019.21213,47.655,-122.3035,60.0,4.683333333333334
2026-01-20T23:04:42+00:00,SAT-56465,259.228213930641,36.66870092116759,3079.397357907693,-4.991141592147925,174810.89106502212,10.5,10500174810.891066,47.655,-122.3035,60.0,4.7
2026-01-20T23:04:43+00:00,SAT-56465,259.3196852596938,36.73595484446065,3074.4195260264573,-4.985158993506993,174601.3551542495,10.5,10500174601.355154,47.655,-122.3035,60.0,4.716666666666667
2026-01-20T23:04:44+00:00,SAT-56465,259.41166748658407,36.803222195951115,3069.4476607902666,-4.979141517098781,174390.59767653394,10.5,10500174390.597677,47.655,-122.3035,60.0,4.733333333333333
2026-01-20T23:04:45+00:00,SAT-56465,259.5041636740556,36.87050200303088,3064.48179698388,-4.973089007809533,174178.61319913558,10.5,10500174178.6132,47.655,-122.3035,60.0,4.75
2026-01-20T23:04:46+00:00,SAT-56465,259.5971769014877,36.93779327805002,3059.521969546758,-4.967001259637957,173965.39450701777,10.5,10500173965.394506,47.655,-122.3035,60.0,4.766666666666667
2026-01-20T23:04:47+00:00,SAT-56465,259.6907102638945,37.00509501745689,3054.5682136238124,-4.960878124510667,173750.93641402412,10.5,10500173750.936415,47.655,-122.3035,60.0,4.783333333333333
2026-01-20T23:04:48+00:00,SAT-56465,259.7847668730238,37.07240620240709,3049.620564507634,-4.954719403500788,173535.23195289413,10.5,10500173535.231953,47.655,-122.3035,60.0,4.8
2026-01-20T23:04:49+00:00,SAT-56465,259.8793498563551,37.13972579790025,3044.679057689209,-4.94852493855502,173318.27558793264,10.5,10500173318.275587,47.655,-122.3035,60.0,4.816666666666666
2026-01-20T23:04:50+00:00,SAT-56465,259.97446235786083,37.20705275315715,3039.7437288171564,-4.942294524943131,173100.06014862083,10.5,10500173100.060148,47.655,-122.3035,60.0,4.833333333333333
2026-01-20T23:04:51+00:00,SAT-56465,260.07010753706265,37.27438600080553,3034.8146137442805,-4.936027994976991,172880.5797618111,10.5,10500172880.579762,47.655,-122.3035,60.0,4.85
2026-01-20T23:04:52+00:00,SAT-56465,260.1662885697152,37.34172445720467,3029.8917484906233,-4.92972517171328,172659.8282302,10.5,10500172659.82823,47.655,-122.3035,60.0,4.866666666666666
2026-01-20T23:04:53+00:00,SAT-56465,260.2630086476033,37.40906702213742,3024.975169252701,-4.923385877855974,172437.79934413068,10.5,10500172437.799345,47.655,-122.3035,60.0,4.883333333333334
2026-01-20T23:04:54+00:00,SAT-56465,260.360270978481,37.47641257862294,3020.0649124038528,-4.917009905575208,172214.48582452227,10.5,10500172214.485825,47.655,-122.3035,60.0,4.9
2026-01-20T23:04:55+00:00,SAT-56465,260.45807878538756,37.543759992312225,3015.1610145246923,-4.910597097003181,171989.88214217647,10.5,10500171989.882143,47.655,-122.3035,60.0,4.916666666666667
2026-01-20T23:04:56+00:00,SAT-56465,260.55643530763905,37.61110811198659,3010.263512353281,-4.904147259792942,171763.98156028957,10.5,10500171763.98156,47.655,-122.3035,60.0,4.933333333333334
2026-01-20T23:04:57+00:00,SAT-56465,260.6553438000389,37.67845576889729,3005.372442819514,-4.897660221966477,171536.778055464,10.5,10500171536.778055,47.655,-122.3035,60.0,4.95
2026-01-20T23:04:58+00:00,SAT-56465,260.754807533262,37.74580177685594,3000.487843024807,-4.891135756425277,171308.26367374932,10.5,10500171308.263674,47.655,-122.3035,60.0,4.966666666666667
2026-01-20T23:04:59+00:00,SAT-56465,260.85482979259757,37.81314493128377,2995.6097502970647,-4.884573723253899,171078.43351471482,10.5,10500171078.433516,47.655,-122.3035,60.0,4.983333333333333
2026-01-20T23:05:00+00:00,SAT-56465,260.95541387973583,37.88048401021931,2990.7382021037397,-4.87797393150655,170847.28089063126,10.5,10500170847.280891,47.655,-122.3035,60.0,5.0
2026-01-20T23:05:01+00:00,SAT-56465,261.0565631116096,37.947817773423544,2985.873236102717,-4.87133616059349,170614.79807551275,10.5,10500170614.798075,47.655,-122.3035,60.0,5.016666666666667
2026-01-20T23:05:02+00:00,SAT-56465,261.1582808196637,38.01514496177233,2981.0148901718853,-4.86466025982705,170380.9797916398,10.5,10500170380.979792,47.655,-122.3035,60.0,5.033333333333333
2026-01-20T23:05:03+00:00,SAT-56465,261.2605703512669,38.08246429802626,2976.1632023394177,-4.857946007464338,170145.81827263828,10.5,10500170145.818274,47.655,-122.3035,60.0,5.05
2026-01-20T23:05:04+00:00,SAT-56465,261.3634350680867,38.149774485647846,2971.3182108546403,-4.851193238804033,169909.30774997128,10.5,10500169909.30775,47.655,-122.3035,60.0,5.066666666666666
2026-01-20T23:05:05+00:00,SAT-56465,261.4668783472154,38.21707420939254,2966.4799541311395,-4.844401759840352,169671.44142873565,10.5,10500169671.44143,47.655,-122.3035,60.0,5.083333333333333
2026-01-20T23:05:06+00:00,SAT-56465,261.57090358044354,38.2843621347012,2961.6484707759923,-4.837571363165759,169432.21204464213,10.5,10500169432.212044,47.655,-122.3035,60.0,5.1
2026-01-20T23:05:07+00:00,SAT-56465,261.6755141738165,38.351636907309164,2956.823799603128,-4.830701882430776,169191.61377142832,10.5,10500169191.613771,47.655,-122.3035,60.0,5.116666666666666
2026-01-20T23:05:08+00:00,SAT-56465,261.78071354845997,38.418897153614616,2952.005979592384,-4.823793117073079,168949.63958455328,10.5,10500168949.639585,47.655,-122.3035,60.0,5.133333333333334
2026-01-20T23:05:09+00:00,SAT-56465,261.8865051396686,38.48614147999571,2947.195049923623,-4.81684484995323,168706.28187887542,10.5,10500168706.28188,47.655,-122.3035,60.0,5.15
2026-01-20T23:05:10+00:00,SAT-56465,261.99289239639097,38.553368472371425,2942.3910499932695,-4.809856928718632,168461.53531836226,10.5,10500168461.535318,47.655,-122.3035,60.0,5.166666666666667
2026-01-20T23:05:11+00:00,SAT-56465,262.0998787825754,38.620576696898084,2937.5940193496945,-4.802829126720038,168215.39196479856,10.5,10500168215.391964,47.655,-122.3035,60.0,5.183333333333334
2026-01-20T23:05:12+00:00,SAT-56465,262.2074677753187,38.68776469872153,2932.803997767312,-4.795761269681269,167967.84571429522,10.5,10500167967.845715,47.655,-122.3035,60.0,5.2
2026-01-20T23:05:13+00:00,SAT-56465,262.3156628659073,38.75493100249729,2928.0210251943495,-4.788653146367384,167718.88916851114,10.5,10500167718.889168,47.655,-122.3035,60.0,5.216666666666667
2026-01-20T23:05:14+00:00,SAT-56465,262.424467558814,38.82207411166144,2923.245141789706,-4.781504572876008,167468.5158864073,10.5,10500167468.515886,47.655,-122.3035,60.0,5.233333333333333
2026-01-20T23:05:15+00:00,SAT-56465,262.533885372146,38.88919250859965,2918.476387895691,-4.77431534886742,167216.7188512391,10.5,10500167216.718851,47.655,-122.3035,60.0,5.25
2026-01-20T23:05:16+00:00,SAT-56465,262.6439198371027,38.956284654201376,2913.7148040544207,-4.767085273177053,166963.4910173726,10.5,10500166963.491018,47.655,-122.3035,60.0,5.266666666666667
2026-01-20T23:05:17+00:00,SAT-56465,262.7545744977516,39.023348987631636,2908.960431008639,-4.759814164509702,166708.82603508284,10.5,10500166708.826035,47.655,-122.3035,60.0,5.283333333333333
2026-01-20T23:05:18+00:00,SAT-56465,262.8658529113261,39.090383926394026,2904.213309681901,-4.752501800109594,166452.71610252027,10.5,10500166452.716103,47.655,-122.3035,60.0,5.3
2026-01-20T23:05:19+00:00,SAT-56465,262.9777586470102,39.15738786552692,2899.473481219925,-4.745148001775056,166195.15497830868,10.5,10500166195.154978,47.655,-122.3035,60.0,5.316666666666666
2026-01-20T23:05:20+00:00,SAT-56465,263.0902952868252,39.22435917801318,2894.740986946155,-4.7377525535381,165936.13509833542,10.5,10500165936.135098,47.655,-122.3035,60.0,5.333333333333333
2026-01-20T23:05:21+00:00,SAT-56465,263.2034664244636,39.291296214024264,2890.0158683994264,-4.730315263915236,165675.64975603885,10.5,10500165675.649755,47.655,-122.3035,60.0,5.35
2026-01-20T23:05:22+00:00,SAT-56465,263.31727566569043,39.358197301045514,2885.2981673095483,-4.72283594014176,165413.69219998352,10.5,10500165413.6922,47.655,-122.3035,60.0,5.366666666666666
2026-01-20T23:05:23+00:00,SAT-56465,263.4317266280557,39.42506074363545,2880.58792559858,-4.715314373316982,165150.25511358364,10.5,10500165150.255114,47.655,-122.3035,60.0,5.383333333333334
2026-01-20T23:05:24+00:00,SAT-56465,263.5468229402684,39.49188482297291,2875.885185396925,-4.7077503536940295,164885.33115061658,10.5,10500164885.33115,47.655,-122.3035,60.0,5.4
2026-01-20T23:05:25+00:00,SAT-56465,263.66256824188906,39.558667796619225,2871.1899890441746,-4.70014368722748,164618.91351479077,10.5,10500164618.913515,47.655,-122.3035,60.0,5.416666666666667
2026-01-20T23:05:26+00:00,SAT-56465,263.77896618348615,39.625407898515725,2866.5023790734463,-4.692494183254114,164350.99552827378,10.5,10500164350.99553,47.655,-122.3035,60.0,5.433333333333334
2026-01-20T23:05:27+00:00,SAT-56465,263.8960204264441,39.69210333880623,2861.8223982080144,-4.684801618624797,164081.56937543894,10.5,10500164081.569376,47.655,-122.3035,60.0,5.45
2026-01-20T23:05:28+00:00,SAT-56465,264.0137346418408,39.758752303146075,2857.1500893937055,-4.677065785663649,163810.62778259857,10.5,10500163810.627783,47.655,-122.3035,60.0,5.466666666666667
2026-01-20T23:05:29+00:00,SAT-56465,264.1321125105416,39.8253529526937,2852.4854957834705,-4.66928651213855,163538.16471745525,10.5,10500163538.164717,47.655,-122.3035,60.0,5.483333333333333
2026-01-20T23:05:30+00:00,SAT-56465,264.251157723846,39.8919034243886,2847.8286607020304,-4.661463565397163,163264.17203153996,10.5,10500163264.172031,47.655,-122.3035,60.0,5.5
2026-01-20T23:05:31+00:00,SAT-56465,264.37087398156064,39.95840182985819,2843.179627706141,-4.653596752305812,162988.64296049444,10.5,10500162988.64296,47.655,-122.3035,60.0,5.516666666666667
2026-01-20T23:05:32+00:00,SAT-56465,264.4912649927387,40.02484625575254,2838.538440545175,-4.645685855427749,162711.5698887641,10.5,10500162711.56989,47.655,-122.3035,60.0,5.533333333333333
2026-01-20T23:05:33+00:00,SAT-56465,264.61233447467015,40.0912347631655,2833.905143185362,-4.637730672694288,162432.94573904865,10.5,10500162432.94574,47.655,-122.3035,60.0,5.55
2026-01-20T23:05:34+00:00,SAT-56465,264.7340861529627,40.15756538762299,2829.279779794462,-4.629731021074145,162152.76410081843,10.5,10500162152.764101,47.655,-122.3035,60.0,5.566666666666666
2026-01-20T23:05:35+00:00,SAT-56465,264.85652376169696,40.22383613912467,2824.6623947227768,-4.621686658460568,161871.01649447088,10.5,10500161871.016495,47.655,-122.3035,60.0,5.583333333333333
2026-01-20T23:05:36+00:00,SAT-56465,264.97965104144293,40.29004500106438,2820.053032562072,-4.613597396933711,161587.696338258,10.5,10500161587.696339,47.655,-122.3035,60.0,5.6
2026-01-20T23:05:37+00:00,SAT-56465,265.1034717403535,40.35618993077458,2815.4517380915304,-4.605463021013472,161302.7960851552,10.5,10500161302.796085,47.655,-122.3035,60.0,5.616666666666666
2026-01-20T23:05:38+00:00,SAT-56465,265.2279896130192,40.422268858897624,2810.8585563052393,-4.597283338194335,161016.308992805,10.5,10500161016.308992,47.655,-122.3035,60.0,5.633333333333334
2026-01-20T23:05:39+00:00,SAT-56465,265.35320842069314,40.48827968948408,2806.2735323892803,-4.58905810484489,160728.22652820483,10.5,10500160728.226528,47.655,-122.3035,60.0,5.65
2026-01-20T23:05:40+00:00,SAT-56465,265.479131929437,40.554220299022326,2801.696711772715,-4.580787162591152,160438.5431444279,10.5,10500160438.543144,47.655,-122.3035,60.0,5.666666666666667
2026-01-20T23:05:41+00:00,SAT-56465,265.60576391209304,40.62008853743393,2797.1281400425573,-4.572470267309248,160147.25029122346,10.5,10500160147.250292,47.655,-122.3035,60.0,5.683333333333334
2026-01-20T23:05:42+00:00,SAT-56465,265.73310814541946,40.68588222660535,2792.567863029294,-4.564107205251091,159854.3404822294,10.5,10500159854.340483,47.655,-122.3035,60.0,5.7
2026-01-20T23:05:43+00:00,SAT-56465,265.86116841045543,40.75159916059027,2788.0159267765907,-4.555697786233219,159559.80705641635,10.5,10500159559.807056,47.655,-122.3035,60.0,5.716666666666667
2026-01-20T23:05:44+00:00,SAT-56465,265.9899484927688,40.81723710571932,2783.472377517787,-4.547241791867502,159263.64236490824,10.5,10500159263.642365,47.655,-122.3035,60.0,5.733333333333333
2026-01-20T23:05:45+00:00,SAT-56465,266.11945218112413,40.882793799957774,2778.9372617040312,-4.5387390196502135,158965.83931516798,10.5,10500158965.839315,47.655,-122.3035,60.0,5.75
2026-01-20T23:05:46+00:00,SAT-56465,266.2496832674734,40.94826695290556,2774.410625988434,-4.530189235387077,158666.38970472137,10.5,10500158666.389706,47.655,-122.3035,60.0,5.766666666666667
2026-01-20T23:05:47+00:00,SAT-56465,266.3806455454642,41.013654245103744,2769.892517257674,-4.521592254924661,158365.28708373624,10.5,10500158365.287085,47.655,-122.3035,60.0,5.783333333333333
2026-01-20T23:05:48+00:00,SAT-56465,266.5123428114329,41.078953328528655,2765.382982582096,-4.512947851515124,158062.5235105441,10.5,10500158062.52351,47.655,-122.3035,60.0,5.8
2026-01-20T23:05:49+00:00,SAT-56465,266.6447788625606,41.14416182574404,2760.8820692581853,-4.504255813613006,157758.09157592803,10.5,10500157758.091576,47.655,-122.3035,60.0,5.816666666666666
2026-01-20T23:05:50+00:00,SAT-56465,266.77795749678774,41.20927732989165,2756.389824793408,-4.495515936885496,157451.98412328874,10.5,10500157451.984123,47.655,-122.3035,60.0,5.833333333333333
2026-01-20T23:05:51+00:00,SAT-56465,266.91188251243824,41.27429740456501,2751.906296899021,-4.486728013254719,157144.19386485885,10.5,10500157144.193865,47.655,-122.3035,60.0,5.85
2026-01-20T23:05:52+00:00,SAT-56465,267.04655770754687,41.33921958352863,2747.431533493802,-4.477891803584468,156834.7124250768,10.5,10500156834.712425,47.655,-122.3035,60.0,5.866666666666666
2026-01-20T23:05:53+00:00,SAT-56465,267.181986878249,41.40404137003704,2742.9655827350266,-4.469007133630581,156523.53370117504,10.5,10500156523.5337,47.655,-122.3035,60.0,5.883333333333334
2026-01-20T23:05:54+00:00,SAT-56465,267.3181738202116,41.46876023755304,2738.5084929537525,-4.460073760267833,156210.64917787974,10.5,10500156210.649178,47.655,-122.3035,60.0,5.9
2026-01-20T23:05:55+00:00,SAT-56465,267.4551223258165,41.53337362852016,2734.060312723512,-4.451091486026418,155896.05193896304,10.5,10500155896.051939,47.655,-122.3035,60.0,5.916666666666667
2026-01-20T23:05:56+00:00,SAT-56465,267.5928361849571,41.597878954803505,2729.621090814782,-4.442060101687504,155579.73465669638,10.5,10500155579.734657,47.655,-122.3035,60.0,5.933333333333334
2026-01-20T23:05:57+00:00,SAT-56465,267.7313191839833,41.66227359729557,2725.1908762066987,-4.432979368087443,155261.68895455718,10.5,10500155261.688955,47.655,-122.3035,60.0,5.95
2026-01-20T23:05:58+00:00,SAT-56465,267.87057510405765,41.726554905260784,2720.769718116926,-4.423849109488411,154941.90867746354,10.5,10500154941.908678,47.655,-122.3035,60.0,5.966666666666667
2026-01-20T23:05:59+00:00,SAT-56465,268.01060772248377,41.79072019703735,2716.3576659383966,-4.414669079163942,154620.38518401084,10.5,10500154620.385183,47.655,-122.3035,60.0,5.983333333333333
2026-01-20T23:06:00+00:00,SAT-56465,268.15142080969304,41.85476675878892,2711.9547693101104,-4.405439093789,154297.11205338093,10.5,10500154297.112053,47.655,-122.3035,60.0,6.0
2026-01-20T23:06:01+00:00,SAT-56465,268.2930181305633,41.9186918452107,2707.5610780539046,-4.396158917726475,153972.08103256547,10.5,10500153972.081032,47.655,-122.3035,60.0,6.016666666666667
2026-01-20T23:06:02+00:00,SAT-56465,268.4354034419475,41.98249267855487,2703.1766422266255,-4.386828341394665,153645.28478112674,10.5,10500153645.28478,47.655,-122.3035,60.0,6.033333333333333
2026-01-20T23:06:03+00:00,SAT-56465,268.57858049273483,42.04616644879805,2698.8015120941413,-4.3774471592278195,153316.7160992826,10.5,10500153316.716099,47.655,-122.3035,60.0,6.05
2026-01-20T23:06:04+00:00,SAT-56465,268.7225530232199,42.10971031349272,2694.435738127338,-4.368015153991976,152986.3673785808,10.5,10500152986.367378,47.655,-122.3035,60.0,6.066666666666666
2026-01-20T23:06:05+00:00,SAT-56465,268.86732476386135,42.1731213973889,2690.079371013757,-4.358532112793364,152654.2311625809,10.5,10500152654.231163,47.655,-122.3035,60.0,6.083333333333333
2026-01-20T23:06:06+00:00,SAT-56465,269.0128994346286,42.23639679229529,2685.732461653264,-4.348997825984722,152320.300108549,10.5,10500152320.300108,47.655,-122.3035,60.0,6.1
2026-01-20T23:06:07+00:00,SAT-56465,269.15928074422715,42.29953355692389,2681.3950611548153,-4.339412069748095,151984.56637743366,10.5,10500151984.566378,47.655,-122.3035,60.0,6.116666666666666
2026-01-20T23:06:08+00:00,SAT-56465,269.3064723887611,42.362528716487766,2677.0672208505866,-4.3297746457095565,151647.0230213408,10.5,10500151647.023022,47.655,-122.3035,60.0,6.133333333333334
2026-01-20T23:06:09+00:00,SAT-56465,269.4544780517017,42.42537926287515,2672.748992270599,-4.320085326520547,151307.66207756216,10.5,10500151307.662077,47.655,-122.3035,60.0,6.15
2026-01-20T23:06:10+00:00,SAT-56465,269.6033014019767,42.48808215403584,2668.4404271716157,-4.310343910619077,150966.47648654424,10.5,10500150966.476486,47.655,-122.3035,60.0,6.166666666666667
2026-01-20T23:06:11+00:00,SAT-56465,269.75294609393757,42.55063431416958,2664.141577511425,-4.30055018191772,150623.45867999145,10.5,10500150623.45868,47.655,-122.3035,60.0,6.183333333333334
2026-01-20T23:06:12+00:00,SAT-56465,269.9034157658959,42.61303263332921,2659.852495463326,-4.290703928162052,150278.60122385583,10.5,10500150278.601223,47.655,-122.3035,60.0,6.2
2026-01-20T23:06:13+00:00,SAT-56465,270.05471403927913,42.675273967295176,2655.5732334123054,-4.280804937437132,149931.8966959799,10.5,10500149931.896696,47.655,-122.3035,60.0,6.216666666666667
2026-01-20T23:06:14+00:00,SAT-56465,270.20684451765993,42.737355137404535,2651.3038439547013,-4.270853001578176,149583.3378055523,10.5,10500149583.337805,47.655,-122.3035,60.0,6.233333333333333
2026-01-20T23:06:15+00:00,SAT-56465,270.3598107858611,42.79927293043176,2647.044379894461,-4.260847898336107,149232.91676847026,10.5,10500149232.916769,47.655,-122.3035,60.0,6.25
2026-01-20T23:06:16+00:00,SAT-56465,270.51361640841327,42.86102409821524,2642.794894257187,-4.250789427454547,148880.6265709084,10.5,10500148880.626572,47.655,-122.3035,60.0,6.266666666666667
2026-01-20T23:06:17+00:00,SAT-56465,270.6682649292992,42.9226053578145,2638.5554402682055,-4.240677370901625,148526.45957646827,10.5,10500148526.459576,47.655,-122.3035,60.0,6.283333333333333
2026-01-20T23:06:18+00:00,SAT-56465,270.8237598702234,42.984013391090436,2634.326071370293,-4.230511528934267,148170.40878930248,10.5,10500148170.408789,47.655,-122.3035,60.0,6.3
2026-01-20T23:06:19+00:00,SAT-56465,270.980104730186,43.045244844818185,2630.106841205436,-4.22029168441202,147812.46660423395,10.5,10500147812.466604,47.655,-122.3035,60.0,6.316666666666666
2026-01-20T23:06:20+00:00,SAT-56465,271.13730298372275,43.10629633028349,2625.8978036321823,-4.210017616806128,147452.62529741274,10.5,10500147452.625298,47.655,-122.3035,60.0,6.333333333333333
2026-01-20T23:06:21+00:00,SAT-56465,271.29535807958615,43.16716442308919,2621.6990127290214,-4.19968913849151,147090.87829741483,10.5,10500147090.878298,47.655,-122.3035,60.0,6.35
2026-01-20T23:06:22+00:00,SAT-56465,271.45427344089273,43.22784566349646,2617.5105227615654,-4.1893060227564085,146727.2176638356,10.5,10500146727.217665,47.655,-122.3035,60.0,6.366666666666666
2026-01-20T23:06:23+00:00,SAT-56465,271.6140524623752,43.288336555721436,2613.3323882215363,-4.178868079259306,146361.63673010984,10.5,10500146361.63673,47.655,-122.3035,60.0,6.383333333333334
2026-01-20T23:06:24+00:00,SAT-56465,271.7746985106395,43.34863356833832,2609.1646637904887,-4.168375078784449,145994.12746813236,10.5,10500145994.127468,47.655,-122.3035,60.0,6.4
2026-01-20T23:06:25+00:00,SAT-56465,271.9362149213382,43.40873313359107,2605.0074043785808,-4.157826828517322,145624.6831247232,10.5,10500145624.683125,47.655,-122.3035,60.0,6.416666666666667
2026-01-20T23:06:26+00:00,SAT-56465,272.0986049994102,43.46863164781053,2600.860665088273,-4.147223114602097,145253.2962097466,10.5,10500145253.29621,47.655,-122.3035,60.0,6.433333333333334
2026-01-20T23:06:27+00:00,SAT-56465,272.26187201691215,43.52832547099749,2596.7245012353096,-4.136563745258485,144879.9600062457,10.5,10500144879.960007,47.655,-122.3035,60.0,6.45
2026-01-20T23:06:28+00:00,SAT-56465,272.4260192126595,43.58781092704381,2592.5989683267053,-4.125848486926469,144504.66633396072,10.5,10500144504.666334,47.655,-122.3035,60.0,6.466666666666667
2026-01-20T23:06:29+00:00,SAT-56465,272.5910497891353,43.647084303030155,2588.4841221024103,-4.115077173553881,144127.40937704226,10.5,10500144127.409376,47.655,-122.3035,60.0,6.483333333333333
2026-01-20T23:06:30+00:00,SAT-56465,272.75696691397513,43.70614185011844,2584.3800184679862,-4.104249562656362,143748.18064266245,10.5,10500143748.180643,47.655,-122.3035,60.0,6.5
2026-01-20T23:06:31+00:00,SAT-56465,272.9237737153779,43.76497978236479,2580.28671357083,-4.093365482316377,143366.974109542,10.5,10500143366.97411,47.655,-122.3035,60.0,6.516666666666667
2026-01-20T23:06:32+00:00,SAT-56465,273.0914732836921,43.823594277667745,2576.2042637298,-4.082424702301735,142983.78171397565,10.5,10500142983.781713,47.655,-122.3035,60.0,6.533333333333333
2026-01-20T23:06:33+00:00,SAT-56465,273.26006866750333,43.88198147686154,2572.132725493371,-4.071427045199518,142598.5972422126,10.5,10500142598.597242,47.655,-122.3035,60.0,6.55
2026-01-20T23:06:34+00:00,SAT-56465,273.4295628744754,43.940137484423865,2568.072155586959,-4.060372296253841,142211.41317259334,10.5,10500142211.413172,47.655,-122.3035,60.0,6.566666666666666
2026-01-20T23:06:35+00:00,SAT-56465,273.59995886825,43.99805836788753,2564.022610950162,-4.049260252203225,141822.22238604104,10.5,10500141822.222385,47.655,-122.3035,60.0,6.583333333333333
2026-01-20T23:06:36+00:00,SAT-56465,273.77125956747625,44.055740157970654,2559.984148725298,-4.038090741194172,141431.01886351925,10.5,10500141431.018864,47.655,-122.3035,60.0,6.6
2026-01-20T23:06:37+00:00,SAT-56465,273.94346784566096,44.11317884899302,2555.95682622608,-4.026863517336235,141037.79399290445,10.5,10500141037.793993,47.655,-122.3035,60.0,6.616666666666666
2026-01-20T23:06:38+00:00,SAT-56465,274.11658652636805,44.17037039779905,2551.9407010114564,-4.01557843112742,140642.54253800443,10.5,10500140642.542538,47.655,-122.3035,60.0,6.633333333333334
2026-01-20T23:06:39+00:00,SAT-56465,274.2906183859352,44.22731072512308,2547.935830789479,-4.004235262570572,140245.2567935882,10.5,10500140245.256794,47.655,-122.3035,60.0,6.65
2026-01-20T23:06:40+00:00,SAT-56465,274.4655661487644,44.28399571458119,2543.9422734876084,-3.9928338030460493,139845.92945291343,10.5,10500139845.929453,47.655,-122.3035,60.0,6.666666666666667
2026-01-20T23:06:41+00:00,SAT-56465,274.64143248617756,44.34042121284435,2539.9600872413707,-3.9813739022900383,139444.5552531058,10.5,10500139444.555254,47.655,-122.3035,60.0,6.683333333333334
2026-01-20T23:06:42+00:00,SAT-56465,274.818220017493,44.396583030484535,2535.9893303361537,-3.9698553236215424,139041.12590459562,10.5,10500139041.125904,47.655,-122.3035,60.0,6.7
2026-01-20T23:06:43+00:00,SAT-56465,274.9959313043937,44.45247694077905,2532.0300612933947,-3.9582778920757433,138635.63527937487,10.5,10500138635.635279,47.655,-122.3035,60.0,6.716666666666667
2026-01-20T23:06:44+00:00,SAT-56465,275.1745688520984,44.50809868062603,2528.082338809031,-3.946641423614065,138228.07693163407,10.5,10500138228.076931,47.655,-122.3035,60.0,6.733333333333333
2026-01-20T23:06:45+00:00,SAT-56465,275.35413510723845,44.563443950466166,2524.1462217625467,-3.934945715627581,137818.4437651517,10.5,10500137818.443766,47.655,-122.3035,60.0,6.75
2026-01-20T23:06:46+00:00,SAT-56465,275.5346324552968,44.6185084140848,2520.221769235494,-3.9231905931372433,137406.72965142122,10.5,10500137406.72965,47.655,-122.3035,60.0,6.766666666666667
2026-01-20T23:06:47+00:00,SAT-56465,275.71606322014003,44.67328769907469,2516.3090404839386,-3.9113758561931307,136992.92758735068,10.5,10500136992.927588,47.655,-122.3035,60.0,6.783333333333333
2026-01-20T23:06:48+00:00,SAT-56465,275.8984296610906,44.727777396572556,2512.408094963362,-3.8995013259008675,136577.0313073023,10.5,10500136577.031307,47.655,-122.3035,60.0,6.8
2026-01-20T23:06:49+00:00,SAT-56465,276.08173397213494,44.781973061653545,2508.518992307663,-3.887566831222142,136159.0348207909,10.5,10500136159.03482,47.655,-122.3035,60.0,6.816666666666666
2026-01-20T23:06:50+00:00,SAT-56465,276.26597828053497,44.835870213551026,2504.641792321325,-3.875572159983332,135738.93069659872,10.5,10500135738.930696,47.655,-122.3035,60.0,6.833333333333333
2026-01-20T23:06:51+00:00,SAT-56465,276.4511646429453,44.889464335207116,2500.776555020435,-3.8635171506762593,135316.71327802626,10.5,10500135316.713278,47.655,-122.3035,60.0,6.85
2026-01-20T23:06:52+00:00,SAT-56465,276.63729504609375,44.942750874118325,2496.92334058216,-3.851401629989853,134892.3764949866,10.5,10500134892.376495,47.655,-122.3035,60.0,6.866666666666666
2026-01-20T23:06:53+00:00,SAT-56465,276.82437140432296,44.9957252423188,2493.082209356517,-3.839225403514296,134465.91353842567,10.5,10500134465.913538,47.655,-122.3035,60.0,6.883333333333334
2026-01-20T23:06:54+00:00,SAT-56465,277.0123955566549,45.048382816253266,2489.253221887412,-3.826988297966468,134037.3183392356,10.5,10500134037.318338,47.655,-122.3035,60.0,6.9
2026-01-20T23:06:55+00:00,SAT-56465,277.20136926593227,45.100718937249724,2485.4364388915733,-3.8146901384283063,133606.5847710459,10.5,10500133606.58477,47.655,-122.3035,60.0,6.916666666666667
2026-01-20T23:06:56+00:00,SAT-56465,277.39129421681787,45.15272891168917,2481.6319212601807,-3.8023307739997043,133173.70754869658,10.5,10500133173.707548,47.655,-122.3035,60.0,6.933333333333334
2026-01-20T23:06:57+00:00,SAT-56465,277.5821720151087,45.20440801154044,2477.839730034912,-3.789909994703567,132738.6793179015,10.5,10500132738.679317,47.655,-122.3035,60.0,6.95
2026-01-20T23:06:58+00:00,SAT-56465,277.77400418269866,45.25575147377485,2474.059926466861,-3.777427653140406,132301.49491610716,10.5,10500132301.494917,47.655,-122.3035,60.0,6.966666666666667
2026-01-20T23:06:59+00:00,SAT-56465,277.96679215884194,45.306754501460475,2470.292571954129,-3.7648835876246776,131862.14868040182,10.5,10500131862.14868,47.655,-122.3035,60.0,6.983333333333333
2026-01-20T23:07:00+00:00,SAT-56465,278.1605372974592,45.35741226381719,2466.5377280560715,-3.7522776129920974,131420.63412554903,10.5,10500131420.634125,47.655,-122.3035,60.0,7.0
2026-01-20T23:07:01+00:00,SAT-56465,278.3552408638457,45.407719896168906,2462.795456516714,-3.739609580783033,130976.94605186446,10.5,10500130976.946053,47.655,-122.3035,60.0,7.016666666666667
2026-01-20T23:07:02+00:00,SAT-56465,278.5509040346206,45.45767250072403,2459.065819228146,-3.726879316077387,130531.07833290643,10.5,10500130531.078333,47.655,-122.3035,60.0,7.033333333333333
2026-01-20T23:07:03+00:00,SAT-56465,278.7475278942416,45.50726514651997,2455.348878256912,-3.714086667971497,130083.02568339034,10.5,10500130083.025682,47.655,-122.3035,60.0,7.05
2026-01-20T23:07:04+00:00,SAT-56465,278.9451134342742,45.55649287006381,2451.644695820055,-3.7012314750334196,129632.78244928665,10.5,10500129632.78245,47.655,-122.3035,60.0,7.066666666666666
2026-01-20T23:07:05+00:00,SAT-56465,279.14366155074265,45.605350675525756,2447.9533342956215,-3.6883135810404637,129180.34315901592,10.5,10500129180.343159,47.655,-122.3035,60.0,7.083333333333333
2026-01-20T23:07:06+00:00,SAT-56465,279.34317304232644,45.653833535159684,2444.274856217464,-3.675332831885656,128725.70241510008,10.5,10500128725.702415,47.655,-122.3035,60.0,7.1
2026-01-20T23:07:07+00:00,SAT-56465,279.54364860840303,45.70193638970144,2440.60932427313,-3.6622890787281994,128268.85500450479,10.5,10500128268.855005,47.655,-122.3035,60.0,7.116666666666666
2026-01-20T23:07:08+00:00,SAT-56465,279.74508884722104,45.74965414882442,2436.9568012986115,-3.6491821595898126,127809.7952540655,10.5,10500127809.795254,47.655,-122.3035,60.0,7.133333333333334
2026-01-20T23:07:09+00:00,SAT-56465,279.9474942530452,45.79698169137295,2433.3173502914474,-3.63601194848434,127348.51875121411,10.5,10500127348.518751,47.655,-122.3035,60.0,7.15
2026-01-20T23:07:10+00:00,SAT-56465,280.15086521609385,45.8439138662559,2429.6910343748254,-3.622778272539812,126885.019441243,10.5,10500126885.019442,47.655,-122.3035,60.0,7.166666666666667
2026-01-20T23:07:11+00:00,SAT-56465,280.3552020176925,45.890445492277586,2426.077916844346,-3.6094810234332493,126419.29353022322,10.5,10500126419.29353,47.655,-122.3035,60.0,7.183333333333334
2026-01-20T23:07:12+00:00,SAT-56465,280.56050483190495,45.93657135943506,2422.478061103642,-3.5961200294006,125951.33500225114,10.5,10500125951.335003,47.655,-122.3035,60.0,7.2
2026-01-20T23:07:13+00:00,SAT-56465,280.76677371966036,45.982286228578246,2418.891530727653,-3.58269516517789,125481.13947005248,10.5,10500125481.13947,47.655,-122.3035,60.0,7.216666666666667
2026-01-20T23:07:14+00:00,SAT-56465,280.9740086293331,46.027584832508964,2415.318389416249,-3.569206301373384,125008.70240178134,10.5,10500125008.702402,47.655,-122.3035,60.0,7.233333333333333
2026-01-20T23:07:15+00:00,SAT-56465,281.1822093943603,46.07246187644249,2411.758700998346,-3.5556532961734337,124534.01883052393,10.5,10500124534.018831,47.655,-122.3035,60.0,7.25
2026-01-20T23:07:16+00:00,SAT-56465,281.3913757303251,46.11691203838965,2408.2125294442953,-3.5420360254575614,124057.08440905606,10.5,10500124057.08441,47.655,-122.3035,60.0,7.266666666666667
2026-01-20T23:07:17+00:00,SAT-56465,281.6015072338872,46.160929969938444,2404.679938848239,-3.52835434982769,123577.89425506743,10.5,10500123577.894255,47.655,-122.3035,60.0,7.283333333333333
2026-01-20T23:07:18+00:00,SAT-56465,281.81260337963744,46.20451029664047,2401.160993443344,-3.51460816235438,123096.44462343676,10.5,10500123096.444624,47.655,-122.3035,60.0,7.3
2026-01-20T23:07:19+00:00,SAT-56465,282.02466351999396,46.247647619015325,2397.655757569423,-3.5007973262502814,122612.73072329242,10.5,10500122612.730722,47.655,-122.3035,60.0,7.316666666666666
2026-01-20T23:07:20+00:00,SAT-56465,282.2376868811455,46.290336512797225,2394.1642957027093,-3.486921739960888,122126.74899776604,10.5,10500122126.748999,47.655,-122.3035,60.0,7.333333333333333
2026-01-20T23:07:21+00:00,SAT-56465,282.45167256314494,46.33257153001004,2390.6866724207216,-3.472981255054007,121638.49424813442,10.5,10500121638.494247,47.655,-122.3035,60.0,7.35
2026-01-20T23:07:22+00:00,SAT-56465,282.6666195347147,46.37434719905574,2387.2229524490144,-3.4589757961286325,121147.96383353526,10.5,10500121147.963833,47.655,-122.3035,60.0,7.366666666666666
2026-01-20T23:07:23+00:00,SAT-56465,282.88252663584547,46.41565802628523,2383.773200588342,-3.44490522662306,120655.15297100013,10.5,10500120655.152971,47.655,-122.3035,60.0,7.383333333333334
2026-01-20T23:07:24+00:00,SAT-56465,283.09939257164586,46.456498495958535,2380.3374817756567,-3.430769456549868,120160.0585087888,10.5,10500120160.058508,47.655,-122.3035,60.0,7.4
2026-01-20T23:07:25+00:00,SAT-56465,283.3172159133052,46.49686307153181,2376.9158610376576,-3.416568361568004,119662.67609195171,10.5,10500119662.676092,47.655,-122.3035,60.0,7.416666666666667
2026-01-20T23:07:26+00:00,SAT-56465,283.5359950936305,46.53674619599441,2373.508403525054,-3.4023018606779125,119163.00288354178,10.5,10500119163.002884,47.655,-122.3035,60.0,7.433333333333334
2026-01-20T23:07:27+00:00,SAT-56465,283.75572840788317,46.57614229314977,2370.115174469338,-3.3879698445432234,118661.03505413682,10.5,10500118661.035053,47.655,-122.3035,60.0,7.45
2026-01-20T23:07:28+00:00,SAT-56465,283.9764140097251,46.61504576807033,2366.7362392110467,-3.373572218592879,118156.76929145837,10.5,10500118156.76929,47.655,-122.3035,60.0,7.466666666666667
2026-01-20T23:07:29+00:00,SAT-56465,284.19804991016895,46.653451008084964,2363.3716631850366,-3.359108899962662,117650.20269325105,10.5,10500117650.202694,47.655,-122.3035,60.0,7.483333333333333
2026-01-20T23:07:30+00:00,SAT-56465,284.4206339762695,46.69135238374523,2360.0215119088075,-3.3445797922453155,117141.33188292487,10.5,10500117141.331882,47.655,-122.3035,60.0,7.5
2026-01-20T23:07:31+00:00,SAT-56465,284.6441639281809,46.728744249526954,2356.6858509960075,-3.3299848109503194,116630.15390126444,10.5,10500116630.153902,47.655,-122.3035,60.0,7.516666666666667
2026-01-20T23:07:32+00:00,SAT-56465,284.8686373378919,46.76562094484566,2353.3647461445535,-3.3153238833976726,116116.66620270869,10.5,10500116116.666203,47.655,-122.3035,60.0,7.533333333333333
2026-01-20T23:07:33+00:00,SAT-56465,285.09405162810634,46.801976795087306,2350.058263124845,-3.3005969209472403,115600.86568270515,10.5,10500115600.865683,47.655,-122.3035,60.0,7.55
2026-01-20T23:07:34+00:00,SAT-56465,285.3204040690538,46.83780611235506,2346.766467795687,-3.2858038607088598,115082.7501385743,10.5,10500115082.75014,47.655,-122.3035,60.0,7.566666666666666
2026-01-20T23:07:35+00:00,SAT-56465,285.547691778415,46.873103196697336,2343.4894260786064,-3.270944624147838,114562.31681969899,10.5,10500114562.31682,47.655,-122.3035,60.0,7.583333333333333
2026-01-20T23:07:36+00:00,SAT-56465,285.775911718217,46.90786233690393,2340.227203973456,-3.25601914471178,114039.56339513282,10.5,10500114039.563395,47.655,-122.3035,60.0,7.6
2026-01-20T23:07:37+00:00,SAT-56465,286.00506069379554,46.942077811628366,2336.979867546464,-3.2410273650211496,113514.48785520173,10.5,10500113514.487856,47.655,-122.3035,60.0,7.616666666666666
2026-01-20T23:07:38+00:00,SAT-56465,286.2351353525792,46.975743890494996,2333.7474829210823,-3.225969226011661,112987.08813122458,10.5,10500112987.08813,47.655,-122.3035,60.0,7.633333333333334
2026-01-20T23:07:39+00:00,SAT-56465,286.46613218214156,47.00885483511406,2330.5301162796736,-3.210844667107076,112457.36210156526,10.5,10500112457.362103,47.655,-122.3035,60.0,7.65
2026-01-20T23:07:40+00:00,SAT-56465,286.69804750821726,47.04140490012469,2327.3278338650125,-3.1956536345092825,111925.30788198637,10.5,10500111925.307882,47.655,-122.3035,60.0,7.666666666666667
2026-01-20T23:07:41+00:00,SAT-56465,286.93087749345284,47.07338833434535,2324.1407019735284,-3.1803960995836547,111390.92446958214,10.5,10500111390.924469,47.655,-122.3035,60.0,7.683333333333334
2026-01-20T23:07:42+00:00,SAT-56465,287.16461813754387,47.104799382124014,2320.9687869302106,-3.165071989884988,110854.20932701508,10.5,10500110854.209328,47.655,-122.3035,60.0,7.7
2026-01-20T23:07:43+00:00,SAT-56465,287.3992652722155,47.135632284027174,2317.8121551322984,-3.1496812928384017,110315.16201385965,10.5,10500110315.162014,47.655,-122.3035,60.0,7.716666666666667
2026-01-20T23:07:44+00:00,SAT-56465,287.63481456409136,47.1658812785737,2314.670872989574,-3.134223962826597,109773.78093240515,10.5,10500109773.780931,47.655,-122.3035,60.0,7.733333333333333
2026-01-20T23:07:45+00:00,SAT-56465,287.8712615105884,47.19554060307518,2311.545006957315,-3.118699966496636,109230.06491449055,10.5,10500109230.064915,47.655,-122.3035,60.0,7.75
2026-01-20T23:07:46+00:00,SAT-56465,288.10860143922326,47.22460449494495,2308.4346235240623,-3.1031092774200744,108684.01303447993,10.5,10500108684.013035,47.655,-122.3035,60.0,7.766666666666667
2026-01-20T23:07:47+00:00,SAT-56465,288.3468295066403,47.253067192972495,2305.339789204715,-3.0874518786325345,108135.62469820908,10.5,10500108135.624699,47.655,-122.3035,60.0,7.783333333333333
2026-01-20T23:07:48+00:00,SAT-56465,288.58594069785,47.2809229386397,2302.2605705310925,-3.071727747132499,107584.89910006756,10.5,10500107584.8991,47.655,-122.3035,60.0,7.8
2026-01-20T23:07:49+00:00,SAT-56465,288.8259298243629,47.308165977313955,2299.1970340579524,-3.0559368823487296,107031.83622004815,10.5,10500107031.83622,47.655,-122.3035,60.0,7.816666666666666
2026-01-20T23:07:50+00:00,SAT-56465,289.06679152455666,47.334790559719515,2296.1492463406234,-3.04007925246616,106476.43494385266,10.5,10500106476.434944,47.655,-122.3035,60.0,7.833333333333333
2026-01-20T23:07:51+00:00,SAT-56465,289.3085202598254,47.36079094295461,2293.117273966164,-3.024154870975992,105918.69574400006,10.5,10500105918.695744,47.655,-122.3035,60.0,7.85
2026-01-20T23:07:52+00:00,SAT-56465,289.5511103169882,47.38616139219819,2290.101183508177,-3.008163733099435,105358.61845311688,10.5,10500105358.618454,47.655,-122.3035,60.0,7.866666666666666
2026-01-20T23:07:53+00:00,SAT-56465,289.7945558055891,47.41089618187827,2287.1010415450323,-2.99210584375504,104796.2032434716,10.5,10500104796.203243,47.655,-122.3035,60.0,7.883333333333334
2026-01-20T23:07:54+00:00,SAT-56465,290.0388506575095,47.43498959710575,2284.1169146501943,-2.975981212567473,104231.45045216069,10.5,10500104231.450453,47.655,-122.3035,60.0,7.9
2026-01-20T23:07:55+00:00,SAT-56465,290.28398862629473,47.45843593507954,2281.148869387527,-2.959789854010071,103664.36058610168,10.5,10500103664.360586,47.655,-122.3035,60.0,7.916666666666667
2026-01-20T23:07:56+00:00,SAT-56465,290.52996328648885,47.481229506513635,2278.1969723064612,-2.943531789730709,103094.93440349471,10.5,10500103094.934404,47.655,-122.3035,60.0,7.933333333333334
2026-01-20T23:07:57+00:00,SAT-56465,290.77676803330706,47.50336463709467,2275.2612899348364,-2.927207036519697,102523.17249240747,10.5,10500102523.172493,47.655,-122.3035,60.0,7.95
2026-01-20T23:07:58+00:00,SAT-56465,291.0243960812702,47.52483566887162,2272.3418887837474,-2.910815633222052,101949.07621335673,10.5,10500101949.076214,47.655,-122.3035,60.0,7.966666666666667
2026-01-20T23:07:59+00:00,SAT-56465,291.2728404653118,47.54563696185649,2269.438835325547,-2.8943575994047417,101372.64625166051,10.5,10500101372.646252,47.655,-122.3035,60.0,7.983333333333333
2026-01-20T23:08:00+00:00,SAT-56465,291.5220940382589,47.56576289534466,2266.552196013074,-2.877833000520883,100793.8848997638,10.5,10500100793.8849,47.655,-122.3035,60.0,8.0
2026-01-20T23:08:01+00:00,SAT-56465,291.7721494743045,47.58520786970179,2263.6820372338875,-2.8612418473198313,100212.79253415452,10.5,10500100212.792534,47.655,-122.3035,60.0,8.016666666666667
2026-01-20T23:08:02+00:00,SAT-56465,292.0229992633447,47.60396630748469,2260.8284253648276,-2.844584217726925,99629.37188410762,10.5,10500099629.371883,47.655,-122.3035,60.0,8.033333333333333
2026-01-20T23:08:03+00:00,SAT-56465,292.27463571659655,47.62203265538897,2257.9914267050144,-2.827860144942382,99043.62411243517,10.5,10500099043.624113,47.655,-122.3035,60.0,8.05
2026-01-20T23:08:04+00:00,SAT-56465,292.5270509619844,47.639401385477356,2255.171107520459,-2.811069705289376,98455.5518922976,10.5,10500098455.551893,47.655,-122.3035,60.0,8.066666666666666
2026-01-20T23:08:05+00:00,SAT-56465,292.78023694772423,47.656066996980236,2252.36753400105,-2.7942129568388774,97865.15725758589,10.5,10500097865.157257,47.655,-122.3035,60.0,8.083333333333334
2026-01-20T23:08:06+00:00,SAT-56465,293.0341854402799,47.6720240177275,2249.580772278763,-2.777289960819424,97272.44235278245,10.5,10500097272.442352,47.655,-122.3035,60.0,8.1
2026-01-20T23:08:07+00:00,SAT-56465,293.2888880244323,47.68726700573039,2246.8108884245053,-2.7603008161948743,96677.4106440202,10.5,10500096677.410645,47.655,-122.3035,60.0,8.116666666666667
2026-01-20T23:08:08+00:00,SAT-56465,293.5443361066786,47.70179055095368,2244.0579484104874,-2.743245581345702,96080.06417603033,10.5,10500096080.064177,47.655,-122.3035,60.0,8.133333333333333
2026-01-20T23:08:09+00:00,SAT-56465,293.80052091126913,47.7155892766803,2241.3220181506917,-2.726124354627934,95480.40639365687,10.5,10500095480.406393,47.655,-122.3035,60.0,8.15
2026-01-20T23:08:10+00:00,SAT-56465,294.0574334840381,47.728657841311765,2238.6031634610094,-2.708937226129877,94878.44045217345,10.5,10500094878.440453,47.655,-122.3035,60.0,8.166666666666666
2026-01-20T23:08:11+00:00,SAT-56465,294.31506469174406,47.74099093992087,2235.9014500674825,-2.691684291815874,94274.16971265728,10.5,10500094274.169712,47.655,-122.3035,60.0,8.183333333333334
2026-01-20T23:08:12+00:00,SAT-56465,294.57340522270715,47.75258330589721,2233.216943600445,-2.6743656641285325,93667.59811332409,10.5,10500093667.598114,47.655,-122.3035,60.0,8.2
2026-01-20T23:08:13+00:00,SAT-56465,294.8324455888379,47.7634297126249,2230.5497095780875,-2.6569814372135316,93058.72895155381,10.5,10500093058.728952,47.655,-122.3035,60.0,8.216666666666667
2026-01-20T23:08:14+00:00,SAT-56465,295.0921761239902,47.773524975045675,2227.8998134247063,-2.6395317415128443,92447.56679597612,10.5,10500092447.566795,47.655,-122.3035,60.0,8.233333333333333
2026-01-20T23:08:15+00:00,SAT-56465,295.3525869882002,47.78286395142184,2225.267320434504,-2.622016689416477,91834.11558296444,10.5,10500091834.115583,47.655,-122.3035,60.0,8.25
2026-01-20T23:08:16+00:00,SAT-56465,295.61366816624417,47.79144154491366,2222.6522957895927,-2.6044364055483022,91218.37967737393,10.5,10500091218.379677,47.655,-122.3035,60.0,8.266666666666667
