satellites_20260121_005943/SAT-65083.csv

timestamp,satellite,azimuth_deg,elevation_deg,distance_km,relative_velocity_kms,doppler_shift_hz,tx_freq_ghz,rx_freq_hz,ue_lat,ue_lon,ue_alt_m,time_minutes
2026-01-20T23:00:00+00:00,SAT-65083,11.748018281763827,31.08909271793123,1100.9005397759352,5.294778071349995,-185445.52494771214,10.5,10499814554.475052,47.655,-122.3035,60.0,0.0
2026-01-20T23:00:01+00:00,SAT-65083,11.80769598173748,30.828749826059468,1106.181198439095,5.314353333128329,-186131.13341846463,10.5,10499813868.866581,47.655,-122.3035,60.0,0.016666666666666666
2026-01-20T23:00:02+00:00,SAT-65083,11.866163881188253,30.57058267229072,1111.481380163335,5.333643950057923,-186806.77242256774,10.5,10499813193.227577,47.655,-122.3035,60.0,0.03333333333333333
2026-01-20T23:00:03+00:00,SAT-65083,11.923448668984397,30.314569864207307,1116.8008010628594,5.352654242775622,-187472.593287,10.5,10499812527.406713,47.655,-122.3035,60.0,0.05
2026-01-20T23:00:04+00:00,SAT-65083,11.97957626075915,30.060690064024268,1122.1391815609877,5.371388519933934,-188128.7469189979,10.5,10499811871.25308,47.655,-122.3035,60.0,0.06666666666666667
