satellites_20260121_005943/SAT-65610.csv

timestamp,satellite,azimuth_deg,elevation_deg,distance_km,relative_velocity_kms,doppler_shift_hz,tx_freq_ghz,rx_freq_hz,ue_lat,ue_lon,ue_alt_m,time_minutes
2026-01-20T23:00:35+00:00,SAT-65610,295.2470881846691,30.018411752104225,4110.412302608904,-3.096039574081397,108436.402118744,10.5,10500108436.402119,47.655,-122.3035,60.0,0.5833333333333334
2026-01-20T23:00:36+00:00,SAT-65610,295.1338055418571,30.04679831470492,4107.324519140353,-3.086452380376666,108100.61804141515,10.5,10500108100.618042,47.655,-122.3035,60.0,0.6
2026-01-20T23:00:37+00:00,SAT-65610,295.0202756555136,30.075021166950197,4104.246297299657,-3.0768395670582858,107763.93665684546,10.5,10500107763.936657,47.655,-122.3035,60.0,0.6166666666666667
2026-01-20T23:00:38+00:00,SAT-65610,294.90649887150573,30.103079379857427,4101.1776626381115,-3.0672011387063334,107426.35812544858,10.5,10500107426.358126,47.655,-122.3035,60.0,0.6333333333333333
2026-01-20T23:00:39+00:00,SAT-65610,294.7924755461692,30.130972023509347,4098.118640702442,-3.0575370980712946,107087.88254355817,10.5,10500107087.882544,47.655,-122.3035,60.0,0.65
2026-01-20T23:00:40+00:00,SAT-65610,294.67820604646613,30.158698167081223,4095.069257036632,-3.0478474584527713,106748.51037698252,10.5,10500106748.510378,47.655,-122.3035,60.0,0.6666666666666666
2026-01-20T23:00:41+00:00,SAT-65610,294.5636907496762,30.186256878980544,4092.0295371714014,-3.0381322335167935,106408.24210436385,10.5,10500106408.242104,47.655,-122.3035,60.0,0.6833333333333333
2026-01-20T23:00:42+00:00,SAT-65610,294.4489300434792,30.21364722689377,4088.9995066238407,-3.0283914304800823,106067.07797846223,10.5,10500106067.077978,47.655,-122.3035,60.0,0.7
2026-01-20T23:00:43+00:00,SAT-65610,294.33392432625317,30.240868277772446,4085.979190903842,-3.018625045030901,105725.0178482624,10.5,10500105725.017849,47.655,-122.3035,60.0,0.7166666666666667
2026-01-20T23:00:44+00:00,SAT-65610,294.218674007604,30.26791909777557,4082.9686155255977,-3.008833109893012,105382.06285988897,10.5,10500105382.06286,47.655,-122.3035,60.0,0.7333333333333333
2026-01-20T23:00:45+00:00,SAT-65610,294.10317950707076,30.294798752647964,4079.967805970665,-2.9990156292328014,105038.2131592664,10.5,10500105038.21316,47.655,-122.3035,60.0,0.75
2026-01-20T23:00:46+00:00,SAT-65610,293.9874412552597,30.321506307509807,4076.976787716443,-2.9891726033160677,104693.46875570403,10.5,10500104693.468756,47.655,-122.3035,60.0,0.7666666666666667
2026-01-20T23:00:47+00:00,SAT-65610,293.87145969407925,30.348040826869543,4073.995586240069,-2.979304064187592,104347.83077154569,10.5,10500104347.830772,47.655,-122.3035,60.0,0.7833333333333333
2026-01-20T23:00:48+00:00,SAT-65610,293.7552352756369,30.374401374954203,4071.0242269867194,-2.9694100038657836,104001.29892724229,10.5,10500104001.298927,47.655,-122.3035,60.0,0.8
2026-01-20T23:00:49+00:00,SAT-65610,293.63876846380936,30.4005870154018,4068.062735409531,-2.959490467501902,103653.87480418193,10.5,10500103653.874804,47.655,-122.3035,60.0,0.8166666666666667
2026-01-20T23:00:50+00:00,SAT-65610,293.52205973233305,30.4265968117797,4065.1111369166088,-2.9495454270574637,103305.55742033833,10.5,10500103305.55742,47.655,-122.3035,60.0,0.8333333333333334
2026-01-20T23:00:51+00:00,SAT-65610,293.40510956764456,30.452429826988556,4062.1694569440233,-2.939574939103935,102956.34875708353,10.5,10500102956.348757,47.655,-122.3035,60.0,0.85
2026-01-20T23:00:52+00:00,SAT-65610,293.28791846575683,30.478085124056058,4059.237720871424,-2.929578997816609,102606.24861041165,10.5,10500102606.24861,47.655,-122.3035,60.0,0.8666666666666667
2026-01-20T23:00:53+00:00,SAT-65610,293.17048693469843,30.503561765638818,4056.315954084268,-2.9195576297845283,102255.25791158344,10.5,10500102255.257912,47.655,-122.3035,60.0,0.8833333333333333
2026-01-20T23:00:54+00:00,SAT-65610,293.0528154933694,30.52885881435662,4053.404181941496,-2.909510840982324,101903.37686985574,10.5,10500101903.37687,47.655,-122.3035,60.0,0.9
2026-01-20T23:00:55+00:00,SAT-65610,292.9349046724041,30.553975332665047,4050.50242979609,-2.8994386544262527,101550.60629135526,10.5,10500101550.60629,47.655,-122.3035,60.0,0.9166666666666666
2026-01-20T23:00:56+00:00,SAT-65610,292.81675501359564,30.578910383054623,4047.6107229780755,-2.889341098509537,101196.94717053267,10.5,10500101196.94717,47.655,-122.3035,60.0,0.9333333333333333
2026-01-20T23:00:57+00:00,SAT-65610,292.69836706975224,30.60366302814876,4044.729086789162,-2.8792181927854243,100842.40019222551,10.5,10500100842.400192,47.655,-122.3035,60.0,0.95
2026-01-20T23:00:58+00:00,SAT-65610,292.57974140512306,30.62823233067948,4041.8575465115573,-2.869069934708749,100486.96526729123,10.5,10500100486.965267,47.655,-122.3035,60.0,0.9666666666666667
2026-01-20T23:00:59+00:00,SAT-65610,292.4608785963465,30.65261735335324,4038.9961274300076,-2.8588963661862987,100130.64386348284,10.5,10500100130.643864,47.655,-122.3035,60.0,0.9833333333333333
2026-01-20T23:01:00+00:00,SAT-65610,292.341779230778,30.676817159284212,4036.1448547874647,-2.848697509130983,99773.43674828311,10.5,10500099773.436749,47.655,-122.3035,60.0,1.0
2026-01-20T23:01:01+00:00,SAT-65610,292.222443907332,30.700830811876777,4033.3037538050244,-2.8384733836779623,99415.34462691055,10.5,10500099415.344627,47.655,-122.3035,60.0,1.0166666666666666
2026-01-20T23:01:02+00:00,SAT-65610,292.1028732366486,30.72465737486562,4030.472849683703,-2.828224006400791,99056.36807984111,10.5,10500099056.36808,47.655,-122.3035,60.0,1.0333333333333334
2026-01-20T23:01:03+00:00,SAT-65610,291.9830678413016,30.74829591234141,4027.652167607986,-2.8179493991076874,98696.50787089087,10.5,10500098696.507872,47.655,-122.3035,60.0,1.05
2026-01-20T23:01:04+00:00,SAT-65610,291.8630283556702,30.77174548885147,4024.8417327406096,-2.807649606948896,98335.76558141236,10.5,10500098335.765581,47.655,-122.3035,60.0,1.0666666666666667
2026-01-20T23:01:05+00:00,SAT-65610,291.7427554250439,30.79500516964987,4022.0415701992792,-2.797324635032025,97974.14139029564,10.5,10500097974.14139,47.655,-122.3035,60.0,1.0833333333333333
2026-01-20T23:01:06+00:00,SAT-65610,291.62224970734627,30.818074020420372,4019.251705096607,-2.7869745097494363,97611.63622191284,10.5,10500097611.636223,47.655,-122.3035,60.0,1.1
2026-01-20T23:01:07+00:00,SAT-65610,291.5015118723239,30.84095110751222,4016.4721625188836,-2.7765992759108657,97248.25164569047,10.5,10500097248.251646,47.655,-122.3035,60.0,1.1166666666666667
2026-01-20T23:01:08+00:00,SAT-65610,291.3805426008593,30.863635498148238,4013.7029675077083,-2.7661989478714895,96883.98816440752,10.5,10500096883.988165,47.655,-122.3035,60.0,1.1333333333333333
2026-01-20T23:01:09+00:00,SAT-65610,291.25934258629064,30.88612626023223,4010.944145090365,-2.755773554082975,96518.84677456175,10.5,10500096518.846775,47.655,-122.3035,60.0,1.15
2026-01-20T23:01:10+00:00,SAT-65610,291.1379125339155,30.90842246252465,4008.195720265759,-2.745323123851306,96152.82850257265,10.5,10500096152.828503,47.655,-122.3035,60.0,1.1666666666666667
2026-01-20T23:01:11+00:00,SAT-65610,291.0162531610024,30.93052317470841,4005.4577180035717,-2.7348476893711897,95785.93447603505,10.5,10500095785.934477,47.655,-122.3035,60.0,1.1833333333333333
2026-01-20T23:01:12+00:00,SAT-65610,290.8943651967531,30.952427467471832,4002.730163241372,-2.724347296727485,95418.16630903567,10.5,10500095418.16631,47.655,-122.3035,60.0,1.2
2026-01-20T23:01:13+00:00,SAT-65610,290.7722493817508,30.97413441267893,4000.013080870769,-2.7138219379574062,95049.52372268407,10.5,10500095049.523724,47.655,-122.3035,60.0,1.2166666666666666
2026-01-20T23:01:14+00:00,SAT-65610,290.6499064703689,30.995643082999326,3997.306495791313,-2.7032716804569916,94680.00907747458,10.5,10500094680.009077,47.655,-122.3035,60.0,1.2333333333333334
2026-01-20T23:01:15+00:00,SAT-65610,290.5273372275789,31.01695255257069,3994.610432835337,-2.6926965484439305,94309.62322161312,10.5,10500094309.623222,47.655,-122.3035,60.0,1.25
2026-01-20T23:01:16+00:00,SAT-65610,290.4045424308822,31.038061896714844,3991.9249168110223,-2.682096575741266,93938.36733972571,10.5,10500093938.36734,47.655,-122.3035,60.0,1.2666666666666666
2026-01-20T23:01:17+00:00,SAT-65610,290.2815228699427,31.058970192076764,3989.2499724928166,-2.671471786149436,93566.24226540442,10.5,10500093566.242266,47.655,-122.3035,60.0,1.2833333333333334
2026-01-20T23:01:18+00:00,SAT-65610,290.1582793471172,31.079676516609315,3986.58562463143,-2.6608222258915375,93193.24961757759,10.5,10500093193.249619,47.655,-122.3035,60.0,1.3
2026-01-20T23:01:19+00:00,SAT-65610,290.03481267650363,31.100179949811228,3983.9318979314744,-2.6501479374816794,92819.39088526914,10.5,10500092819.390884,47.655,-122.3035,60.0,1.3166666666666667
2026-01-20T23:01:20+00:00,SAT-65610,289.9111236841756,31.120479572759557,3981.288817055159,-2.639448940763301,92444.66676348029,10.5,10500092444.666763,47.655,-122.3035,60.0,1.3333333333333333
2026-01-20T23:01:21+00:00,SAT-65610,289.7872132092473,31.140574467999997,3978.6564066449046,-2.628725282050979,92069.0788743434,10.5,10500092069.078875,47.655,-122.3035,60.0,1.35
2026-01-20T23:01:22+00:00,SAT-65610,289.66308210275406,31.160463719814754,3976.0346912969394,-2.6179770020078865,91692.62864205478,10.5,10500091692.628641,47.655,-122.3035,60.0,1.3666666666666667
2026-01-20T23:01:23+00:00,SAT-65610,289.5387312279555,31.180146414242927,3973.423695566936,-2.6072041419934546,91315.3175151967,10.5,10500091315.317514,47.655,-122.3035,60.0,1.3833333333333333
2026-01-20T23:01:24+00:00,SAT-65610,289.4141614603651,31.199621639150454,3970.823443969322,-2.5964067358286935,90937.14667832397,10.5,10500090937.146679,47.655,-122.3035,60.0,1.4
2026-01-20T23:01:25+00:00,SAT-65610,289.28937368813763,31.218888484238963,3968.2339609847886,-2.58558482029245,90558.11741958739,10.5,10500090558.11742,47.655,-122.3035,60.0,1.4166666666666667
2026-01-20T23:01:26+00:00,SAT-65610,289.16436881201525,31.23794604113528,3965.65527105735,-2.5747384475809287,90178.23156711884,10.5,10500090178.231567,47.655,-122.3035,60.0,1.4333333333333333
2026-01-20T23:01:27+00:00,SAT-65610,289.0391477446427,31.25679340357108,3963.0873985789626,-2.563867660171137,89797.4906086428,10.5,10500089797.490608,47.655,-122.3035,60.0,1.45
2026-01-20T23:01:28+00:00,SAT-65610,288.9137114110848,31.27542966737685,3960.530367899219,-2.552972489021283,89415.89562844663,10.5,10500089415.895628,47.655,-122.3035,60.0,1.4666666666666666
2026-01-20T23:01:29+00:00,SAT-65610,288.788060749406,31.293853930465527,3957.984203336835,-2.542052990679963,89033.44860710141,10.5,10500089033.448606,47.655,-122.3035,60.0,1.4833333333333334
2026-01-20T23:01:30+00:00,SAT-65610,288.66219670953507,31.312065293086633,3955.4489291541304,-2.531109208062271,88650.15104767527,10.5,10500088650.151047,47.655,-122.3035,60.0,1.5
2026-01-20T23:01:31+00:00,SAT-65610,288.53612025393716,31.330062857793557,3952.9245695706227,-2.520141184865451,88266.00448063052,10.5,10500088266.00448,47.655,-122.3035,60.0,1.5166666666666666
2026-01-20T23:01:32+00:00,SAT-65610,288.4098323576408,31.347845729518312,3950.4111487622504,-2.5091489636874673,87881.01039792804,10.5,10500087881.010399,47.655,-122.3035,60.0,1.5333333333333334
2026-01-20T23:01:33+00:00,SAT-65610,288.28333400832696,31.365413015632406,3947.9086908624663,-2.4981325980646987,87495.17067463831,10.5,10500087495.170675,47.655,-122.3035,60.0,1.55
2026-01-20T23:01:34+00:00,SAT-65610,288.15662620586517,31.3827638260932,3945.417219951329,-2.4870921362485463,87108.48700072948,10.5,10500087108.487001,47.655,-122.3035,60.0,1.5666666666666667
2026-01-20T23:01:35+00:00,SAT-65610,288.02970996259,31.399897273474423,3942.9367600607775,-2.476027621305045,86720.96088455625,10.5,10500086720.960884,47.655,-122.3035,60.0,1.5833333333333333
2026-01-20T23:01:36+00:00,SAT-65610,287.9025863036231,31.416812473001198,3940.467335179796,-2.464939113174651,86332.59442548697,10.5,10500086332.594425,47.655,-122.3035,60.0,1.6
2026-01-20T23:01:37+00:00,SAT-65610,287.7752562660637,31.43350854273477,3938.0089692375896,-2.453826646686682,85943.38884339164,10.5,10500085943.388844,47.655,-122.3035,60.0,1.6166666666666667
2026-01-20T23:01:38+00:00,SAT-65610,287.6477209002934,31.449984603472483,3935.5616861286276,-2.442690297268065,85553.34678004036,10.5,10500085553.34678,47.655,-122.3035,60.0,1.6333333333333333
2026-01-20T23:01:39+00:00,SAT-65610,287.51998126798134,31.46623977909142,3933.1255096721525,-2.4315300896426764,85162.46910136781,10.5,10500085162.4691,47.655,-122.3035,60.0,1.65
2026-01-20T23:01:40+00:00,SAT-65610,287.392038444665,31.482273196279582,3930.700463662749,-2.420346098839509,84770.75843520668,10.5,10500084770.758434,47.655,-122.3035,60.0,1.6666666666666667
2026-01-20T23:01:41+00:00,SAT-65610,287.26389351726164,31.498083984942383,3928.2865718201724,-2.4091383671495628,84378.21626276673,10.5,10500084378.216263,47.655,-122.3035,60.0,1.6833333333333333
2026-01-20T23:01:42+00:00,SAT-65610,287.1355475857594,31.51367127805658,3925.8838578220025,-2.3979069612690576,83984.84492003167,10.5,10500083984.84492,47.655,-122.3035,60.0,1.7
2026-01-20T23:01:43+00:00,SAT-65610,287.0070017619979,31.529034211900793,3923.4923452792964,-2.386651919506585,83590.64574873043,10.5,10500083590.645748,47.655,-122.3035,60.0,1.7166666666666666
2026-01-20T23:01:44+00:00,SAT-65610,286.87825717117676,31.544171925945225,3921.112057764909,-2.3753733121555447,83195.62121083519,10.5,10500083195.62121,47.655,-122.3035,60.0,1.7333333333333334
2026-01-20T23:01:45+00:00,SAT-65610,286.74931495022724,31.559083563128336,3918.7430187815858,-2.3640711947475865,82799.77325129927,10.5,10500082799.77325,47.655,-122.3035,60.0,1.75
2026-01-20T23:01:46+00:00,SAT-65610,286.6201762486201,31.573768269834407,3916.3852517766904,-2.3527456237322046,82403.10384722268,10.5,10500082403.103848,47.655,-122.3035,60.0,1.7666666666666666
2026-01-20T23:01:47+00:00,SAT-65610,286.4908422283261,31.588225195971763,3914.0387801412885,-2.341396652666106,82005.61487438792,10.5,10500082005.614874,47.655,-122.3035,60.0,1.7833333333333334
2026-01-20T23:01:48+00:00,SAT-65610,286.3613140640272,31.602453495029117,3911.703627213029,-2.330024354942325,81607.30890332942,10.5,10500081607.308903,47.655,-122.3035,60.0,1.8
2026-01-20T23:01:49+00:00,SAT-65610,286.23159294207505,31.61645232426878,3909.3798162563667,-2.318628781988635,81208.1877352654,10.5,10500081208.187735,47.655,-122.3035,60.0,1.8166666666666667
2026-01-20T23:01:50+00:00,SAT-65610,286.10168006169204,31.630220844666123,3907.0673704844635,-2.3072099900537846,80808.25334026494,10.5,10500080808.25334,47.655,-122.3035,60.0,1.8333333333333333
2026-01-20T23:01:51+00:00,SAT-65610,285.97157663473394,31.643758221013854,3904.7663130543833,-2.2957680549799173,80407.50837464075,10.5,10500080407.508375,47.655,-122.3035,60.0,1.85
2026-01-20T23:01:52+00:00,SAT-65610,285.84128388468315,31.657063622110993,3902.47666704755,-2.2843030364853982,80005.95492998253,10.5,10500080005.95493,47.655,-122.3035,60.0,1.8666666666666667
2026-01-20T23:01:53+00:00,SAT-65610,285.7108030475031,31.670136220739966,3900.1984554858286,-2.2728149989672612,79603.59526174686,10.5,10500079603.595263,47.655,-122.3035,60.0,1.8833333333333333
2026-01-20T23:01:54+00:00,SAT-65610,285.5801353714368,31.682975193768293,3897.9317013268583,-2.261304000325968,79200.4313978528,10.5,10500079200.431398,47.655,-122.3035,60.0,1.9
2026-01-20T23:01:55+00:00,SAT-65610,285.4492821173619,31.695579722186725,3895.6764274705333,-2.2497701123018214,78796.46585094921,10.5,10500078796.46585,47.655,-122.3035,60.0,1.9166666666666667
2026-01-20T23:01:56+00:00,SAT-65610,285.3182445580737,31.707948991261656,3893.4326567451976,-2.238213407348665,78391.70115867618,10.5,10500078391.701159,47.655,-122.3035,60.0,1.9333333333333333
2026-01-20T23:01:57+00:00,SAT-65610,285.1870239782347,31.720082190611684,3891.200411906935,-2.226633942428786,77986.13931609398,10.5,10500077986.139317,47.655,-122.3035,60.0,1.95
2026-01-20T23:01:58+00:00,SAT-65610,285.0556216752684,31.731978514197216,3888.9797156550194,-2.215031793601848,77579.78298713373,10.5,10500077579.782988,47.655,-122.3035,60.0,1.9666666666666666
2026-01-20T23:01:59+00:00,SAT-65610,284.92403895830023,31.743637160499677,3886.770590612867,-2.2034070304715963,77172.63460961301,10.5,10500077172.63461,47.655,-122.3035,60.0,1.9833333333333334
2026-01-20T23:02:00+00:00,SAT-65610,284.79227714853585,31.75505733255979,3884.573059334477,-2.191759719967017,76764.69652766807,10.5,10500076764.696527,47.655,-122.3035,60.0,2.0
2026-01-20T23:02:01+00:00,SAT-65610,284.6603375794134,31.766238238038895,3882.3871443070966,-2.180089935299201,76355.97130546096,10.5,10500076355.971306,47.655,-122.3035,60.0,2.0166666666666666
2026-01-20T23:02:02+00:00,SAT-65610,284.52822159627794,31.77717908932656,3880.2128679449584,-2.1683977469683944,75946.46141220852,10.5,10500075946.461412,47.655,-122.3035,60.0,2.033333333333333
2026-01-20T23:02:03+00:00,SAT-65610,284.39593055652074,31.78787910360151,3878.0502525919815,-2.1566832316847813,75536.16953462586,10.5,10500075536.169535,47.655,-122.3035,60.0,2.05
2026-01-20T23:02:04+00:00,SAT-65610,284.2634658292504,31.798337502937226,3875.8993205155816,-2.1449464651873362,75125.09832541228,10.5,10500075125.098326,47.655,-122.3035,60.0,2.066666666666667
2026-01-20T23:02:05+00:00,SAT-65610,284.1308287953279,31.808553514370985,3873.7600939076347,-2.1331875119279835,74713.25004194678,10.5,10500074713.250042,47.655,-122.3035,60.0,2.0833333333333335
2026-01-20T23:02:06+00:00,SAT-65610,283.9980208480603,31.818526369925117,3871.6325948957387,-2.1214064616227573,74300.62782646438,10.5,10500074300.627827,47.655,-122.3035,60.0,2.1
2026-01-20T23:02:07+00:00,SAT-65610,283.86504339169295,31.828255306802763,3869.5168455180133,-2.109603380553681,73887.2340004419,10.5,10500073887.234001,47.655,-122.3035,60.0,2.1166666666666667
2026-01-20T23:02:08+00:00,SAT-65610,283.73189784281595,31.83773956735096,3867.412867746474,-2.0977783497406413,73473.0714015385,10.5,10500073473.071402,47.655,-122.3035,60.0,2.1333333333333333
2026-01-20T23:02:09+00:00,SAT-65610,283.5985856294694,31.846978399205522,3865.320683472333,-2.0859314442614196,73058.14265929567,10.5,10500073058.14266,47.655,-122.3035,60.0,2.15
2026-01-20T23:02:10+00:00,SAT-65610,283.4651081915247,31.85597105533893,3863.2403145119233,-2.0740627519521477,72642.45085010628,10.5,10500072642.45085,47.655,-122.3035,60.0,2.1666666666666665
2026-01-20T23:02:11+00:00,SAT-65610,283.33146697987706,31.8647167941901,3861.1717825939763,-2.062172349580945,72225.99866271461,10.5,10500072225.998663,47.655,-122.3035,60.0,2.183333333333333
2026-01-20T23:02:12+00:00,SAT-65610,283.1976634571381,31.87321487969032,3859.1151093706603,-2.050260313185113,71808.78876026858,10.5,10500071808.788761,47.655,-122.3035,60.0,2.2
2026-01-20T23:02:13+00:00,SAT-65610,283.06369909765584,31.881464581336342,3857.0703164183105,-2.038326724857391,71390.82401800317,10.5,10500071390.824018,47.655,-122.3035,60.0,2.216666666666667
2026-01-20T23:02:14+00:00,SAT-65610,282.92957538716496,31.889465174291505,3855.0374252313864,-2.0263716774332674,70972.10768740988,10.5,10500070972.107687,47.655,-122.3035,60.0,2.2333333333333334
2026-01-20T23:02:15+00:00,SAT-65610,282.79529382207943,31.897215939501425,3853.016457211759,-2.0143952430530128,70552.64229514617,10.5,10500070552.642296,47.655,-122.3035,60.0,2.25
2026-01-20T23:02:16+00:00,SAT-65610,282.66085591079104,31.904716163686633,3851.0074336893545,-2.002397512988325,70132.43103793295,10.5,10500070132.431038,47.655,-122.3035,60.0,2.2666666666666666
2026-01-20T23:02:17+00:00,SAT-65610,282.5262631724508,31.91196513949213,3849.0103759030676,-1.9903785727791965,69711.4769117426,10.5,10500069711.476912,47.655,-122.3035,60.0,2.283333333333333
2026-01-20T23:02:18+00:00,SAT-65610,282.3915171373256,31.918962165538225,3847.0253050064825,-1.9783385039135868,69289.78277062814,10.5,10500069289.78277,47.655,-122.3035,60.0,2.3
2026-01-20T23:02:19+00:00,SAT-65610,282.2566193470211,31.925706546480612,3845.0522420719126,-1.966277400235291,68867.35190139625,10.5,10500068867.351902,47.655,-122.3035,60.0,2.316666666666667
2026-01-20T23:02:20+00:00,SAT-65610,282.12157135370387,31.932197593128343,3843.091208078078,-1.9541953434645234,68444.18716623451,10.5,10500068444.187166,47.655,-122.3035,60.0,2.3333333333333335
2026-01-20T23:02:21+00:00,SAT-65610,281.9863747208374,31.938434622475192,3841.1422239221965,-1.942092429100353,68020.29190992426,10.5,10500068020.29191,47.655,-122.3035,60.0,2.35
2026-01-20T23:02:22+00:00,SAT-65610,281.85103102228913,31.944416957819232,3839.20531040624,-1.929968745440882,67595.66922503855,10.5,10500067595.669226,47.655,-122.3035,60.0,2.3666666666666667
2026-01-20T23:02:23+00:00,SAT-65610,281.71554184276044,31.95014392881189,3837.2804882441205,-1.9178243770864063,67170.3220746376,10.5,10500067170.322075,47.655,-122.3035,60.0,2.3833333333333333
2026-01-20T23:02:24+00:00,SAT-65610,281.5799087780325,31.955614871521004,3835.367778065373,-1.9056594220394842,66744.25389118557,10.5,10500066744.253891,47.655,-122.3035,60.0,2.4
2026-01-20T23:02:25+00:00,SAT-65610,281.4441334340361,31.96082912854473,3833.4672004017925,-1.8934739682902377,66317.4677564687,10.5,10500066317.467756,47.655,-122.3035,60.0,2.4166666666666665
2026-01-20T23:02:26+00:00,SAT-65610,281.3082174275139,31.96578604905433,3831.5787756974173,-1.881268115531056,65889.96716213618,10.5,10500065889.967163,47.655,-122.3035,60.0,2.433333333333333
2026-01-20T23:02:27+00:00,SAT-65610,281.1721623851806,31.970484988898775,3829.702524296861,-1.8690419596340422,65461.75546603458,10.5,10500065461.755466,47.655,-122.3035,60.0,2.45
2026-01-20T23:02:28+00:00,SAT-65610,281.0359699439722,31.974925310664823,3827.838466449119,-1.8567955865696504,65032.835679212876,10.5,10500065032.83568,47.655,-122.3035,60.0,2.466666666666667
2026-01-20T23:02:29+00:00,SAT-65610,280.8996417516746,31.979106383724684,3825.986622317447,-1.844529092694317,64603.211176481054,10.5,10500064603.211176,47.655,-122.3035,60.0,2.4833333333333334
2026-01-20T23:02:30+00:00,SAT-65610,280.7631794662252,31.983027584337076,3824.1470119690002,-1.8322425885504157,64172.88582950063,10.5,10500064172.88583,47.655,-122.3035,60.0,2.5
2026-01-20T23:02:31+00:00,SAT-65610,280.62658475463616,31.98668829574628,3822.319655360686,-1.8199361569493075,63741.86253867578,10.5,10500063741.86254,47.655,-122.3035,60.0,2.5166666666666666
2026-01-20T23:02:32+00:00,SAT-65610,280.4898592949408,31.990087908192564,3820.504572366822,-1.8076099042014206,63310.14502744735,10.5,10500063310.145027,47.655,-122.3035,60.0,2.533333333333333
2026-01-20T23:02:33+00:00,SAT-65610,280.35300477448834,31.99322581903461,3818.701782755698,-1.7952639270164035,62877.73668299632,10.5,10500062877.736683,47.655,-122.3035,60.0,2.55
2026-01-20T23:02:34+00:00,SAT-65610,280.2160228905992,31.996101432799,3816.911306199154,-1.7828983361434738,62444.64138422881,10.5,10500062444.641384,47.655,-122.3035,60.0,2.566666666666667
2026-01-20T23:02:35+00:00,SAT-65610,280.0789153494982,31.99871416127363,3815.1331622585735,-1.7705132095903018,62010.86186330334,10.5,10500062010.861864,47.655,-122.3035,60.0,2.5833333333333335
2026-01-20T23:02:36+00:00,SAT-65610,279.94168386867926,32.00106342352597,3813.3673704175417,-1.7581086729994855,61576.402520755204,10.5,10500061576.402521,47.655,-122.3035,60.0,2.6
2026-01-20T23:02:37+00:00,SAT-65610,279.80433017336713,32.003148646046476,3811.613950034337,-1.7456848222197494,61141.266713612145,10.5,10500061141.266714,47.655,-122.3035,60.0,2.6166666666666667
2026-01-20T23:02:38+00:00,SAT-65610,279.6668559986795,32.00496926277036,3809.8729203716434,-1.7332417568413307,60705.457929945565,10.5,10500060705.45793,47.655,-122.3035,60.0,2.6333333333333333
2026-01-20T23:02:39+00:00,SAT-65610,279.5292630892787,32.00652471515292,3808.14430059282,-1.720779583350501,60268.979899355116,10.5,10500060268.979898,47.655,-122.3035,60.0,2.65
2026-01-20T23:02:40+00:00,SAT-65610,279.3915531988661,32.00781445224837,3806.428109755025,-1.7082984073929373,59831.83632199927,10.5,10500059831.836323,47.655,-122.3035,60.0,2.6666666666666665
2026-01-20T23:02:41+00:00,SAT-65610,279.2537280901531,32.00883793077416,3804.7243668100523,-1.6957983455263006,59394.031280220384,10.5,10500059394.03128,47.655,-122.3035,60.0,2.683333333333333
2026-01-20T23:02:42+00:00,SAT-65610,279.11578953401755,32.00959461518662,3803.033090593447,-1.6832794882691071,58955.56794435978,10.5,10500058955.567944,47.655,-122.3035,60.0,2.7
2026-01-20T23:02:43+00:00,SAT-65610,278.9777393114171,32.01008397772779,3801.35429985048,-1.6707419551465146,58516.45050069406,10.5,10500058516.4505,47.655,-122.3035,60.0,2.716666666666667
2026-01-20T23:02:44+00:00,SAT-65610,278.83957921112693,32.010305498512444,3799.6880132072138,-1.6581858526280226,58076.682678235484,10.5,10500058076.682678,47.655,-122.3035,60.0,2.7333333333333334
2026-01-20T23:02:45+00:00,SAT-65610,278.70131103071367,32.010258665585106,3798.0342491835263,-1.6456112933884963,57636.26842333442,10.5,10500057636.268423,47.655,-122.3035,60.0,2.75
2026-01-20T23:02:46+00:00,SAT-65610,278.5629365759632,32.00994297498607,3796.3930261869205,-1.6330183842328594,57195.21147675111,10.5,10500057195.211477,47.655,-122.3035,60.0,2.7666666666666666
2026-01-20T23:02:47+00:00,SAT-65610,278.42445766132107,32.00935793081627,3794.7643625183787,-1.6204072315498068,56753.51556466764,10.5,10500056753.515564,47.655,-122.3035,60.0,2.783333333333333
2026-01-20T23:02:48+00:00,SAT-65610,278.2858761098644,32.00850304530426,3793.1482763727795,-1.6077779641415395,56311.18519828195,10.5,10500056311.185198,47.655,-122.3035,60.0,2.8
2026-01-20T23:02:49+00:00,SAT-65610,278.14719375146433,32.00737783886333,3791.544785816542,-1.5951306818676514,55868.22387509942,10.5,10500055868.223875,47.655,-122.3035,60.0,2.816666666666667
2026-01-20T23:02:50+00:00,SAT-65610,278.0084124250244,32.00598184016065,3789.953908816493,-1.5824655018057145,55424.635695671845,10.5,10500055424.635696,47.655,-122.3035,60.0,2.8333333333333335
2026-01-20T23:02:51+00:00,SAT-65610,277.86953397707333,32.00431458617729,3788.375663222692,-1.5697825403527939,54980.424736716814,10.5,10500054980.424736,47.655,-122.3035,60.0,2.85
2026-01-20T23:02:52+00:00,SAT-65610,277.73056026172793,32.00237562226778,3786.8100667691137,-1.5570819186700073,54535.59524180917,10.5,10500054535.595242,47.655,-122.3035,60.0,2.8666666666666667
2026-01-20T23:02:53+00:00,SAT-65610,277.5914931402619,32.00016450221566,3785.2571370688934,-1.5443637430799788,54090.15093481697,10.5,10500054090.150934,47.655,-122.3035,60.0,2.8833333333333333
2026-01-20T23:02:54+00:00,SAT-65610,277.45233448224866,31.997680788309854,3783.7168916291284,-1.531628137755537,53644.09616479791,10.5,10500053644.096165,47.655,-122.3035,60.0,2.9
2026-01-20T23:02:55+00:00,SAT-65610,277.31308616404874,31.994924051386594,3782.1893478330735,-1.5188752197813684,53197.43503255298,10.5,10500053197.435032,47.655,-122.3035,60.0,2.9166666666666665
2026-01-20T23:02:56+00:00,SAT-65610,277.17375006930627,31.991893870895176,3780.6745229472117,-1.5061051072235319,52750.17167325498,10.5,10500052750.171673,47.655,-122.3035,60.0,2.933333333333333
2026-01-20T23:02:57+00:00,SAT-65610,277.0343280888252,31.988589834956908,3779.1724341202744,-1.493317926344655,52302.31050915523,10.5,10500052302.310509,47.655,-122.3035,60.0,2.95
2026-01-20T23:02:58+00:00,SAT-65610,276.8948221197779,31.9850115404065,3777.683098375066,-1.4805137868653198,51853.85538313261,10.5,10500051853.855383,47.655,-122.3035,60.0,2.966666666666667
2026-01-20T23:02:59+00:00,SAT-65610,276.7552340670955,31.981158592883656,3776.206532624966,-1.4676928191815055,51404.8108622059,10.5,10500051404.810862,47.655,-122.3035,60.0,2.9833333333333334
2026-01-20T23:03:00+00:00,SAT-65610,276.61556584157563,31.977030606846622,3774.7427536533023,-1.4548551434023143,50955.18115310393,10.5,10500050955.181152,47.655,-122.3035,60.0,3.0
2026-01-20T23:03:01+00:00,SAT-65610,276.47581936074516,31.972627205650756,3773.2917781236156,-1.442000885166788,50504.970656237376,10.5,10500050504.970655,47.655,-122.3035,60.0,3.0166666666666666
2026-01-20T23:03:02+00:00,SAT-65610,276.3359965482565,31.96794802158767,3771.8536225741427,-1.4291301614523793,50054.18346865144,10.5,10500050054.183468,47.655,-122.3035,60.0,3.033333333333333
2026-01-20T23:03:03+00:00,SAT-65610,276.19609933464255,31.962992695967483,3770.4283034264545,-1.4162431043921615,49602.8242182053,10.5,10500049602.824219,47.655,-122.3035,60.0,3.05
2026-01-20T23:03:04+00:00,SAT-65610,276.05612965584356,31.957760879128024,3769.0158369703404,-1.4033398408352487,49150.89734769148,10.5,10500049150.897348,47.655,-122.3035,60.0,3.066666666666667
2026-01-20T23:03:05+00:00,SAT-65610,275.916089453627,31.952252230500342,3767.61623936908,-1.3904204866689607,48698.406915974134,10.5,10500048698.406916,47.655,-122.3035,60.0,3.0833333333333335
2026-01-20T23:03:06+00:00,SAT-65610,275.77598067651525,31.946466418700865,3766.2295266703763,-1.3774851810489528,48245.35779687295,10.5,10500048245.357798,47.655,-122.3035,60.0,3.1
2026-01-20T23:03:07+00:00,SAT-65610,275.635805277581,31.940403121503888,3764.8557147831434,-1.364534047278997,47791.75430900757,10.5,10500047791.754309,47.655,-122.3035,60.0,3.1166666666666667
2026-01-20T23:03:08+00:00,SAT-65610,275.4955652158149,31.934062025944698,3763.4948194933236,-1.3515672142634474,47337.60096715374,10.5,10500047337.600967,47.655,-122.3035,60.0,3.1333333333333333
2026-01-20T23:03:09+00:00,SAT-65610,275.35526245555184,31.92744282835137,3762.1468564582983,-1.3385848082303717,46882.90219235236,10.5,10500046882.902193,47.655,-122.3035,60.0,3.15
2026-01-20T23:03:10+00:00,SAT-65610,275.21489896663115,31.92054523440642,3760.8118412095564,-1.3255869653333716,46427.66275327848,10.5,10500046427.662754,47.655,-122.3035,60.0,3.1666666666666665
2026-01-20T23:03:11+00:00,SAT-65610,275.0744767233951,31.9133689591518,3759.4897891427972,-1.312573816611323,45971.88723946782,10.5,10500045971.88724,47.655,-122.3035,60.0,3.183333333333333
2026-01-20T23:03:12+00:00,SAT-65610,274.9339977050578,31.905913727055015,3758.1807155230304,-1.2995454885133704,45515.580079704305,10.5,10500045515.58008,47.655,-122.3035,60.0,3.2
2026-01-20T23:03:13+00:00,SAT-65610,274.79346389612084,31.898179272083343,3756.8846354891534,-1.286502118156699,45058.74607641177,10.5,10500045058.746077,47.655,-122.3035,60.0,3.216666666666667
2026-01-20T23:03:14+00:00,SAT-65610,274.65287728522026,31.890165337694935,3755.6015640433116,-1.2734438368998564,44601.38983032219,10.5,10500044601.38983,47.655,-122.3035,60.0,3.2333333333333334
2026-01-20T23:03:15+00:00,SAT-65610,274.51223986563605,31.881871676914905,3754.3315160566435,-1.2603707820114765,44143.51614916377,10.5,10500044143.51615,47.655,-122.3035,60.0,3.25
2026-01-20T23:03:16+00:00,SAT-65610,274.37155363458146,31.873298052342854,3753.0745062633837,-1.2472830873978125,43685.12972289994,10.5,10500043685.129723,47.655,-122.3035,60.0,3.2666666666666666
2026-01-20T23:03:17+00:00,SAT-65610,274.2308205934964,31.86444423621788,3751.830549264219,-1.234180884501776,43226.235155217444,10.5,10500043226.235155,47.655,-122.3035,60.0,3.283333333333333
2026-01-20T23:03:18+00:00,SAT-65610,274.09004274820023,31.855310010477695,3750.5996595287424,-1.2210643119575886,42766.83730167314,10.5,10500042766.837301,47.655,-122.3035,60.0,3.3
2026-01-20T23:03:19+00:00,SAT-65610,273.94922210809926,31.845895166757646,3749.3818513882834,-1.2079335119692063,42306.94114285112,10.5,10500042306.941143,47.655,-122.3035,60.0,3.316666666666667
2026-01-20T23:03:20+00:00,SAT-65610,273.8083606856742,31.83619950640006,3748.177139032346,-1.1947886183046474,41846.55136387319,10.5,10500041846.551363,47.655,-122.3035,60.0,3.3333333333333335
2026-01-20T23:03:21+00:00,SAT-65610,273.66746049733166,31.82622284055546,3746.9855365170242,-1.1816297644224218,41385.67263902092,10.5,10500041385.67264,47.655,-122.3035,60.0,3.35
2026-01-20T23:03:22+00:00,SAT-65610,273.5265235633276,31.81596499022661,3745.8070577653066,-1.1684570988075755,40924.3101688687,10.5,10500040924.31017,47.655,-122.3035,60.0,3.3666666666666667
2026-01-20T23:03:23+00:00,SAT-65610,273.3855519060957,31.805425786194117,3744.641716552096,-1.1552707582840505,40462.46874556975,10.5,10500040462.468746,47.655,-122.3035,60.0,3.3833333333333333
2026-01-20T23:03:24+00:00,SAT-65610,273.244547551383,31.79460506913732,3743.489526515834,-1.1420708787213527,40000.15312784888,10.5,10500040000.153128,47.655,-122.3035,60.0,3.4
2026-01-20T23:03:25+00:00,SAT-65610,273.1035125283163,31.783502689687214,3742.3505011594557,-1.1288576063968205,39537.368438957245,10.5,10500039537.368439,47.655,-122.3035,60.0,3.4166666666666665
2026-01-20T23:03:26+00:00,SAT-65610,272.9624488681374,31.772118508371133,3741.224653840009,-1.1156310853145255,39074.119722526564,10.5,10500039074.119722,47.655,-122.3035,60.0,3.433333333333333
2026-01-20T23:03:27+00:00,SAT-65610,272.8213586043772,31.76045239566456,3740.1119977709222,-1.1023914542870734,38610.41184036148,10.5,10500038610.41184,47.655,-122.3035,60.0,3.45
2026-01-20T23:03:28+00:00,SAT-65610,272.68024377333336,31.7485042320702,3739.0125460271797,-1.089138854075586,38146.24972251187,10.5,10500038146.249723,47.655,-122.3035,60.0,3.466666666666667
2026-01-20T23:03:29+00:00,SAT-65610,272.53910641381833,31.73627390814068,3737.926311543382,-1.0758734371368452,37681.63870865916,10.5,10500037681.638708,47.655,-122.3035,60.0,3.4833333333333334
2026-01-20T23:03:30+00:00,SAT-65610,272.39794856565345,31.72376132438825,3736.8533071020775,-1.0625953417691396,37216.58364259439,10.5,10500037216.583643,47.655,-122.3035,60.0,3.5
2026-01-20T23:03:31+00:00,SAT-65610,272.2567722712823,31.710966391459834,3735.7935453478863,-1.0493047160443312,36751.08971042052,10.5,10500036751.08971,47.655,-122.3035,60.0,3.5166666666666666
2026-01-20T23:03:32+00:00,SAT-65610,272.1155795744892,31.69788903006348,3734.747038777751,-1.0360017053534232,36285.1620043455,10.5,10500036285.162004,47.655,-122.3035,60.0,3.533333333333333
2026-01-20T23:03:33+00:00,SAT-65610,271.97437252068505,31.6845291710315,3733.713799743612,-1.0226864534982159,35818.80556091663,10.5,10500035818.805561,47.655,-122.3035,60.0,3.55
2026-01-20T23:03:34+00:00,SAT-65610,271.8331531569492,31.670886755358737,3732.69384045399,-1.0093591143153078,35352.02576814234,10.5,10500035352.025768,47.655,-122.3035,60.0,3.566666666666667
2026-01-20T23:03:35+00:00,SAT-65610,271.69192353077966,31.656961734121104,3731.6871729639797,-0.9960198276850755,34884.82752522511,10.5,10500034884.827526,47.655,-122.3035,60.0,3.5833333333333335
2026-01-20T23:03:36+00:00,SAT-65610,271.5506856916618,31.642754068659,3730.6938091891684,-0.9826687511658118,34417.21635052281,10.5,10500034417.21635,47.655,-122.3035,60.0,3.6
2026-01-20T23:03:37+00:00,SAT-65610,271.4094416888413,31.628263730393748,3729.7137608880057,-0.9693060268176467,33949.19721958212,10.5,10500033949.19722,47.655,-122.3035,60.0,3.6166666666666667
2026-01-20T23:03:38+00:00,SAT-65610,271.26819357310364,31.613490701034316,3728.7470396772596,-0.9559318098666529,33480.77556907671,10.5,10500033480.77557,47.655,-122.3035,60.0,3.6333333333333333
2026-01-20T23:03:39+00:00,SAT-65610,271.1269433951006,31.59843497244207,3727.793657018886,-0.9425462447636267,33011.95645828448,10.5,10500033011.956459,47.655,-122.3035,60.0,3.65
2026-01-20T23:03:40+00:00,SAT-65610,270.9856932065812,31.583096546788397,3726.853624230775,-0.9291494892950516,32542.745413555538,10.5,10500032542.745413,47.655,-122.3035,60.0,3.6666666666666665
2026-01-20T23:03:41+00:00,SAT-65610,270.84444505860046,31.567475436394357,3725.9269524734514,-0.9157416893083117,32073.1475430822,10.5,10500032073.147543,47.655,-122.3035,60.0,3.683333333333333
2026-01-20T23:03:42+00:00,SAT-65610,270.7032010029828,31.5515716639174,3725.0136527619816,-0.9023230019810435,31603.168351890152,10.5,10500031603.168352,47.655,-122.3035,60.0,3.7
2026-01-20T23:03:43+00:00,SAT-65610,270.56196309073516,31.535385262205864,3724.113735954672,-0.888893575277366,31132.813022308732,10.5,10500031132.813023,47.655,-122.3035,60.0,3.716666666666667
2026-01-20T23:03:44+00:00,SAT-65610,270.42073337319215,31.518916274453936,3723.2272127622623,-0.875453565065742,30662.08701351083,10.5,10500030662.087013,47.655,-122.3035,60.0,3.7333333333333334
2026-01-20T23:03:45+00:00,SAT-65610,270.2795139008689,31.502164754098708,3722.3540937400367,-0.8620031276151098,30190.995798695683,10.5,10500030190.995798,47.655,-122.3035,60.0,3.75
2026-01-20T23:03:46+00:00,SAT-65610,270.13830672327856,31.48513076482324,3721.4943892874285,-0.8485424120874635,29719.544602147285,10.5,10500029719.544601,47.655,-122.3035,60.0,3.7666666666666666
2026-01-20T23:03:47+00:00,SAT-65610,269.9971138898828,31.467814380692566,3720.6481096551065,-0.8350715788510427,29247.739040639735,10.5,10500029247.73904,47.655,-122.3035,60.0,3.783333333333333
2026-01-20T23:03:48+00:00,SAT-65610,269.85593744836467,31.45021568597264,3719.815264933799,-0.8215907804642739,28775.584457414458,10.5,10500028775.584457,47.655,-122.3035,60.0,3.8
2026-01-20T23:03:49+00:00,SAT-65610,269.71477944569114,31.432334775278857,3718.9958650620824,-0.8081001752604849,28303.086397974334,10.5,10500028303.086397,47.655,-122.3035,60.0,3.816666666666667
2026-01-20T23:03:50+00:00,SAT-65610,269.5736419271617,31.414171753482396,3718.189919820623,-0.7945999157996269,27830.250205614186,10.5,10500027830.250206,47.655,-122.3035,60.0,3.8333333333333335
2026-01-20T23:03:51+00:00,SAT-65610,269.4325269372422,31.395726735838718,3717.397438837932,-0.7810901634196228,27357.081531070537,10.5,10500027357.081532,47.655,-122.3035,60.0,3.85
2026-01-20T23:03:52+00:00,SAT-65610,269.29143651806976,31.376999847813845,3716.618431581615,-0.7675710744813993,26883.58585076444,10.5,10500026883.585852,47.655,-122.3035,60.0,3.8666666666666667
2026-01-20T23:03:53+00:00,SAT-65610,269.1503727101783,31.357991225196276,3715.852907363332,-0.7540428077965191,26409.768726948598,10.5,10500026409.768726,47.655,-122.3035,60.0,3.8833333333333333
2026-01-20T23:03:54+00:00,SAT-65610,269.0093375519861,31.338701014049533,3715.1008753363562,-0.7405055214853659,25935.63569766769,10.5,10500025935.635698,47.655,-122.3035,60.0,3.9
2026-01-20T23:03:55+00:00,SAT-65610,268.86833307987285,31.319129370737937,3714.362344496262,-0.7269593727037221,25461.192267181992,10.5,10500025461.192266,47.655,-122.3035,60.0,3.9166666666666665
2026-01-20T23:03:56+00:00,SAT-65610,268.7273613282107,31.299276461951514,3713.6373236818854,-0.7134045258154514,24986.444192209263,10.5,10500024986.444193,47.655,-122.3035,60.0,3.933333333333333
2026-01-20T23:03:57+00:00,SAT-65610,268.58642432812576,31.27914246454535,3712.9258215681384,-0.6998411376825849,24511.396966721368,10.5,10500024511.396967,47.655,-122.3035,60.0,3.95
2026-01-20T23:03:58+00:00,SAT-65610,268.4455241086304,31.25872756571477,3712.22784667349,-0.6862693670714541,24036.056151386794,10.5,10500024036.05615,47.655,-122.3035,60.0,3.966666666666667
2026-01-20T23:03:59+00:00,SAT-65610,268.30466269625845,31.238031962958722,3711.5434073580636,-0.672689380089624,23560.42756399513,10.5,10500023560.427565,47.655,-122.3035,60.0,3.9833333333333334
2026-01-20T23:04:00+00:00,SAT-65610,268.1638421136824,31.217055863891062,3710.872511816321,-0.65910133579921,23084.51677557447,10.5,10500023084.516775,47.655,-122.3035,60.0,4.0
2026-01-20T23:04:01+00:00,SAT-65610,268.02306438087703,31.195799486420945,3710.215168084084,-0.645505395497477,22608.32943543733,10.5,10500022608.329435,47.655,-122.3035,60.0,4.016666666666667
2026-01-20T23:04:02+00:00,SAT-65610,267.882331514622,31.174263058691118,3709.5713840363082,-0.6319017217334362,22131.871236737647,10.5,10500022131.871237,47.655,-122.3035,60.0,4.033333333333333
2026-01-20T23:04:03+00:00,SAT-65610,267.74164552824243,31.152446819049654,3708.9411673858326,-0.6182904789492166,21655.147938934388,10.5,10500021655.14794,47.655,-122.3035,60.0,4.05
2026-01-20T23:04:04+00:00,SAT-65610,267.6010084311015,31.13035101597978,3708.324525681494,-0.6046718293904219,21178.16522455488,10.5,10500021178.165224,47.655,-122.3035,60.0,4.066666666666666
2026-01-20T23:04:05+00:00,SAT-65610,267.46042222901485,31.107975908170584,3707.721466310315,-0.5910459354530883,20700.92878139525,10.5,10500020700.928782,47.655,-122.3035,60.0,4.083333333333333
2026-01-20T23:04:06+00:00,SAT-65610,267.31988892406474,31.085321764497408,3707.1319964973563,-0.5774129629972787,20223.44441857649,10.5,10500020223.444418,47.655,-122.3035,60.0,4.1
2026-01-20T23:04:07+00:00,SAT-65610,267.1794105139188,31.062388863917935,3706.5561233022604,-0.5637730763416249,19745.717891232147,10.5,10500019745.717892,47.655,-122.3035,60.0,4.116666666666666
2026-01-20T23:04:08+00:00,SAT-65610,267.03898899198543,31.039177495500603,3705.993853620789,-0.5501264393468531,19267.754938457983,10.5,10500019267.754938,47.655,-122.3035,60.0,4.133333333333334
2026-01-20T23:04:09+00:00,SAT-65610,266.89862634748533,31.015687958442022,3705.445194185281,-0.5364732176671965,18789.561362165965,10.5,10500018789.561361,47.655,-122.3035,60.0,4.15
2026-01-20T23:04:10+00:00,SAT-65610,266.758324564963,30.991920561988028,3704.910151562861,-0.5228135769802665,18311.142965086863,10.5,10500018311.142965,47.655,-122.3035,60.0,4.166666666666667
2026-01-20T23:04:11+00:00,SAT-65610,266.61808562425085,30.96787562542973,3704.388732155419,-0.5091476826109708,17832.505537598256,10.5,10500017832.505537,47.655,-122.3035,60.0,4.183333333333334
2026-01-20T23:04:12+00:00,SAT-65610,266.4779115004093,30.94355347809526,3703.8809421999613,-0.4954757033568815,17353.65499170515,10.5,10500017353.654991,47.655,-122.3035,60.0,4.2
2026-01-20T23:04:13+00:00,SAT-65610,266.3378041629402,30.91895445921035,3703.386787765147,-0.4817978009492841,16874.596991921266,10.5,10500016874.596992,47.655,-122.3035,60.0,4.216666666666667
2026-01-20T23:04:14+00:00,SAT-65610,266.1977655772521,30.894078918157003,3702.9062747583334,-0.4681141471832314,16395.337555236063,10.5,10500016395.337555,47.655,-122.3035,60.0,4.233333333333333
2026-01-20T23:04:15+00:00,SAT-65610,266.0577977023474,30.86892721406189,3702.4394089155426,-0.4544249068042602,15915.882451735099,10.5,10500015915.882452,47.655,-122.3035,60.0,4.25
2026-01-20T23:04:16+00:00,SAT-65610,265.917902492289,30.843499716053106,3701.98619580849,-0.44073024901397745,15436.237607574383,10.5,10500015436.237608,47.655,-122.3035,60.0,4.266666666666667
2026-01-20T23:04:17+00:00,SAT-65610,265.7780818952034,30.817796803077563,3701.5466408401403,-0.42703033830126935,14956.408783850487,10.5,10500014956.408783,47.655,-122.3035,60.0,4.283333333333333
2026-01-20T23:04:18+00:00,SAT-65610,265.63833785420115,30.79181886406307,3701.1207492494077,-0.41332534789131886,14476.402047642066,10.5,10500014476.402048,47.655,-122.3035,60.0,4.3
2026-01-20T23:04:19+00:00,SAT-65610,265.4986723052857,30.765566297528053,3700.708526102444,-0.39961544213985817,13996.223155382084,10.5,10500013996.223156,47.655,-122.3035,60.0,4.316666666666666
2026-01-20T23:04:20+00:00,SAT-65610,265.35908717937724,30.739039511947013,3700.3099763014834,-0.3859007904375523,13515.878039848152,10.5,10500013515.87804,47.655,-122.3035,60.0,4.333333333333333
2026-01-20T23:04:21+00:00,SAT-65610,265.21958440109086,30.712238925517575,3699.92510457982,-0.37218156443207073,13035.372712867722,10.5,10500013035.372713,47.655,-122.3035,60.0,4.35
2026-01-20T23:04:22+00:00,SAT-65610,265.0801658879267,30.685164965993316,3699.5539154995595,-0.3584579288725073,12554.712944650953,10.5,10500012554.712944,47.655,-122.3035,60.0,4.366666666666666
2026-01-20T23:04:23+00:00,SAT-65610,264.9408335522138,30.657818071048165,3699.196413458498,-0.34473005843704596,12073.904853166729,10.5,10500012073.904854,47.655,-122.3035,60.0,4.383333333333334
2026-01-20T23:04:24+00:00,SAT-65610,264.80158929812546,30.63019868768494,3698.8526026802165,-0.3309981193120261,11592.954258963628,10.5,10500011592.95426,47.655,-122.3035,60.0,4.4
2026-01-20T23:04:25+00:00,SAT-65610,264.6624350241671,30.60230727270872,3698.522487222556,-0.3172622819873924,11111.86713332068,10.5,10500011111.867134,47.655,-122.3035,60.0,4.416666666666667
2026-01-20T23:04:26+00:00,SAT-65610,264.52337262171847,30.574144292427125,3698.2060709733205,-0.3035227175898888,10630.649469820326,10.5,10500010630.64947,47.655,-122.3035,60.0,4.433333333333334
2026-01-20T23:04:27+00:00,SAT-65610,264.38440397491,30.54571022261064,3697.9033576496445,-0.2897795966440189,10149.307240952001,10.5,10500010149.307241,47.655,-122.3035,60.0,4.45
2026-01-20T23:04:28+00:00,SAT-65610,264.2455309605908,30.51700554846684,3697.614350798591,-0.2760330882350078,9667.846368795514,10.5,10500009667.846369,47.655,-122.3035,60.0,4.466666666666667
2026-01-20T23:04:29+00:00,SAT-65610,264.10675544885294,30.48803076473369,3697.339053798591,-0.2622833642260098,9186.272872725513,10.5,10500009186.272873,47.655,-122.3035,60.0,4.483333333333333
2026-01-20T23:04:30+00:00,SAT-65610,263.9680793020202,30.458786375455972,3697.07746985667,-0.24853059671853456,8704.592780464853,10.5,10500008704.592781,47.655,-122.3035,60.0,4.5
2026-01-20T23:04:31+00:00,SAT-65610,263.82950437442906,30.429272893911573,3696.8296020082093,-0.2347749543033092,8222.811996773937,10.5,10500008222.811996,47.655,-122.3035,60.0,4.516666666666667
2026-01-20T23:04:32+00:00,SAT-65610,263.69103251357376,30.399490842840258,3696.595453120451,-0.22101660956922614,7740.936566445826,10.5,10500007740.936567,47.655,-122.3035,60.0,4.533333333333333
2026-01-20T23:04:33+00:00,SAT-65610,263.55266555881565,30.36944075414777,3696.3750258885075,-0.2072557348190498,7258.97252425217,10.5,10500007258.972525,47.655,-122.3035,60.0,4.55
2026-01-20T23:04:34+00:00,SAT-65610,263.4144053411256,30.339123168825815,3696.1683228356474,-0.19349250092948,6776.925855017807,10.5,10500006776.925856,47.655,-122.3035,60.0,4.566666666666666
2026-01-20T23:04:35+00:00,SAT-65610,263.2762536837371,30.308538637068448,3695.975346314721,-0.17972707947246125,6294.802567917979,10.5,10500006294.802568,47.655,-122.3035,60.0,4.583333333333333
2026-01-20T23:04:36+00:00,SAT-65610,263.1382124017916,30.277687718175343,3695.79609850746,-0.16595964257796333,5812.60869167234,10.5,10500005812.608692,47.655,-122.3035,60.0,4.6
2026-01-20T23:04:37+00:00,SAT-65610,263.00028330200905,30.246570980451395,3695.630581423929,-0.1521903620425638,5330.350243323733,10.5,10500005330.350243,47.655,-122.3035,60.0,4.616666666666666
2026-01-20T23:04:38+00:00,SAT-65610,262.86246818267085,30.21518900117554,3695.478796902852,-0.13841941034080554,4848.033263660216,10.5,10500004848.033264,47.655,-122.3035,60.0,4.633333333333334
2026-01-20T23:04:39+00:00,SAT-65610,262.7247688335142,30.183542366551983,3695.3407466109384,-0.124646959652972,4365.663783163638,10.5,10500004365.663784,47.655,-122.3035,60.0,4.65
2026-01-20T23:04:40+00:00,SAT-65610,262.58718703537954,30.151631671598363,3695.216432043178,-0.11087318113223464,3883.24779634204,10.5,10500003883.247797,47.655,-122.3035,60.0,4.666666666666667
2026-01-20T23:04:41+00:00,SAT-65610,262.44972456119376,30.119457520348057,3695.105854523862,-0.09709824938206882,3400.7914185477025,10.5,10500003400.791418,47.655,-122.3035,60.0,4.683333333333334
2026-01-20T23:04:42+00:00,SAT-65610,262.3123831735809,30.087020525260282,3695.0090152031453,-0.0833223353416854,2918.3006367948615,10.5,10500002918.300636,47.655,-122.3035,60.0,4.7
2026-01-20T23:04:43+00:00,SAT-65610,262.17516462702304,30.054321307692298,3694.9259150606977,-0.06954561070703448,2435.7814646019615,10.5,10500002435.781466,47.655,-122.3035,60.0,4.716666666666667
2026-01-20T23:04:44+00:00,SAT-65610,262.0380706674099,30.0213604977697,3694.8565549049526,-0.05576825018831764,1953.2400210592864,10.5,10500001953.24002,47.655,-122.3035,60.0,4.733333333333333
