satellites_20260121_005943/SAT-65675.csv

timestamp,satellite,azimuth_deg,elevation_deg,distance_km,relative_velocity_kms,doppler_shift_hz,tx_freq_ghz,rx_freq_hz,ue_lat,ue_lon,ue_alt_m,time_minutes
2026-01-20T23:03:06+00:00,SAT-65675,308.8452262456694,30.028686540199438,4046.219896467919,-1.219771267298613,42721.54940814233,10.5,10500042721.549408,47.655,-122.3035,60.0,3.1
2026-01-20T23:03:07+00:00,SAT-65675,308.724463166832,30.064319227477768,4045.003377924,-1.2082414282069815,42317.7256719824,10.5,10500042317.725672,47.655,-122.3035,60.0,3.1166666666666667
2026-01-20T23:03:08+00:00,SAT-65675,308.60350910323575,30.099759980334753,4043.798358472935,-1.196699595482538,41913.48186806837,10.5,10500041913.481869,47.655,-122.3035,60.0,3.1333333333333333
2026-01-20T23:03:09+00:00,SAT-65675,308.48236495706465,30.135007991125203,4042.6048500763736,-1.185145879422694,41508.82185948216,10.5,10500041508.82186,47.655,-122.3035,60.0,3.15
2026-01-20T23:03:10+00:00,SAT-65675,308.3610316397419,30.170062455392756,4041.4228645859625,-1.1735803794448922,41103.749128243144,10.5,10500041103.749128,47.655,-122.3035,60.0,3.1666666666666665
2026-01-20T23:03:11+00:00,SAT-65675,308.23951007310546,30.204922571582298,4040.2524137541964,-1.16200319223337,40698.26706064229,10.5,10500040698.267061,47.655,-122.3035,60.0,3.183333333333333
2026-01-20T23:03:12+00:00,SAT-65675,308.11780118977487,30.23958754099136,4039.0935092371424,-1.1504144219172754,40292.37930372281,10.5,10500040292.379303,47.655,-122.3035,60.0,3.2
2026-01-20T23:03:13+00:00,SAT-65675,307.9959059323911,30.274056568056544,4037.9461625870167,-1.1388141722669536,39886.08949196118,10.5,10500039886.089493,47.655,-122.3035,60.0,3.216666666666667
2026-01-20T23:03:14+00:00,SAT-65675,307.87382525369384,30.30832886038576,4036.810385252543,-1.127202543817931,39479.401146536766,10.5,10500039479.401146,47.655,-122.3035,60.0,3.2333333333333334
2026-01-20T23:03:15+00:00,SAT-65675,307.75156011691143,30.342403628705586,4035.686188582175,-1.115579637224149,39072.31779277638,10.5,10500039072.317793,47.655,-122.3035,60.0,3.25
2026-01-20T23:03:16+00:00,SAT-65675,307.6291114958485,30.376280086900326,4034.573583823983,-1.1039455600035657,38664.843196413705,10.5,10500038664.843197,47.655,-122.3035,60.0,3.2666666666666666
2026-01-20T23:03:17+00:00,SAT-65675,307.5064803741049,30.409957452289962,4033.4725821188063,-1.0923004151921487,38256.98096620416,10.5,10500038256.980967,47.655,-122.3035,60.0,3.283333333333333
2026-01-20T23:03:18+00:00,SAT-65675,307.38366774563616,30.443434945526523,4032.3831945047214,-1.0806443069998528,37848.7347520212,10.5,10500037848.734753,47.655,-122.3035,60.0,3.3
2026-01-20T23:03:19+00:00,SAT-65675,307.2606746146645,30.476711790682213,4031.3054319158737,-1.0689773355002332,37440.108058864,10.5,10500037440.108059,47.655,-122.3035,60.0,3.316666666666667
2026-01-20T23:03:20+00:00,SAT-65675,307.137501996236,30.50978721515169,4030.2393051866015,-1.0572996130728773,37031.10482274111,10.5,10500037031.104822,47.655,-122.3035,60.0,3.3333333333333335
2026-01-20T23:03:21+00:00,SAT-65675,307.0141509147557,30.542660450114425,4029.184825039163,-1.0456112407605151,36621.728582596326,10.5,10500036621.728582,47.655,-122.3035,60.0,3.35
2026-01-20T23:03:22+00:00,SAT-65675,306.89062240542415,30.575330730195283,4028.1420020950445,-1.0339123292976276,36211.983216819586,10.5,10500036211.983217,47.655,-122.3035,60.0,3.3666666666666667
2026-01-20T23:03:23+00:00,SAT-65675,306.7669175130614,30.607797293842786,4027.1108468652924,-1.0222029783389959,35801.87221574286,10.5,10500035801.872215,47.655,-122.3035,60.0,3.3833333333333333
2026-01-20T23:03:24+00:00,SAT-65675,306.643037293554,30.640059382996473,4026.091369761562,-1.010483300294193,35391.399516424884,10.5,10500035391.399517,47.655,-122.3035,60.0,3.4
2026-01-20T23:03:25+00:00,SAT-65675,306.51898281226545,30.67211624356814,4025.083581083402,-0.9987534011697314,34980.56883166214,10.5,10500034980.568832,47.655,-122.3035,60.0,3.4166666666666665
2026-01-20T23:03:26+00:00,SAT-65675,306.39475514490084,30.703967125266747,4024.0874910246353,-0.9870133880231212,34569.38391106148,10.5,10500034569.383911,47.655,-122.3035,60.0,3.433333333333333
2026-01-20T23:03:27+00:00,SAT-65675,306.27035537739573,30.735611281685337,4023.1031096723136,-0.9752633729813659,34157.84868178485,10.5,10500034157.848682,47.655,-122.3035,60.0,3.45
2026-01-20T23:03:28+00:00,SAT-65675,306.14578460528185,30.767047970516856,4022.1304470016603,-0.9635034573443538,33745.96669178287,10.5,10500033745.966692,47.655,-122.3035,60.0,3.466666666666667
2026-01-20T23:03:29+00:00,SAT-65675,306.02104393517544,30.798276453230265,4021.1695128868687,-0.9517337591542582,33333.74207539174,10.5,10500033333.742075,47.655,-122.3035,60.0,3.4833333333333334
2026-01-20T23:03:30+00:00,SAT-65675,305.8961344825419,30.8292959956929,4020.2203170844055,-0.9399543799589786,32921.17838924845,10.5,10500032921.178389,47.655,-122.3035,60.0,3.5
2026-01-20T23:03:31+00:00,SAT-65675,305.77105737398097,30.860105867646983,4019.28286924946,-0.9281654342736431,32508.2796441572,10.5,10500032508.279644,47.655,-122.3035,60.0,3.5166666666666666
2026-01-20T23:03:32+00:00,SAT-65675,305.6458137454882,30.890705343201578,4018.357178923011,-0.9163670335533876,32095.049743748285,10.5,10500032095.049744,47.655,-122.3035,60.0,3.533333333333333
2026-01-20T23:03:33+00:00,SAT-65675,305.5204047428345,30.921093700785747,4017.4432555348803,-0.9045592848486075,31681.49243737939,10.5,10500031681.492437,47.655,-122.3035,60.0,3.55
2026-01-20T23:03:34+00:00,SAT-65675,305.39483152232754,30.95127022301817,4016.5411084081247,-0.8927423018180806,31267.61170586168,10.5,10500031267.611706,47.655,-122.3035,60.0,3.566666666666667
2026-01-20T23:03:35+00:00,SAT-65675,305.26909524979305,30.98123419700797,4015.650746752445,-0.8809161976601365,30853.41151387949,10.5,10500030853.411514,47.655,-122.3035,60.0,3.5833333333333335
2026-01-20T23:03:36+00:00,SAT-65675,305.1431971007207,31.01098491436875,4014.7721796646447,-0.869081077507658,30438.895543631083,10.5,10500030438.895544,47.655,-122.3035,60.0,3.6
2026-01-20T23:03:37+00:00,SAT-65675,305.0171382614608,31.040521670985232,4013.9054161366776,-0.8572370626777855,30024.068044155894,10.5,10500030024.068045,47.655,-122.3035,60.0,3.6166666666666667
2026-01-20T23:03:38+00:00,SAT-65675,304.8909199268508,31.069843767631813,4013.0504650395,-0.8453842597472543,29608.932748222003,10.5,10500029608.932749,47.655,-122.3035,60.0,3.6333333333333333
2026-01-20T23:03:39+00:00,SAT-65675,304.7645433024165,31.098950509497577,4012.207335137779,-0.8335227853199749,29193.4937397916,10.5,10500029193.49374,47.655,-122.3035,60.0,3.65
2026-01-20T23:03:40+00:00,SAT-65675,304.6380096028996,31.127841206585032,4011.376035079886,-0.8216527515265076,28777.754946151214,10.5,10500028777.754946,47.655,-122.3035,60.0,3.6666666666666665
2026-01-20T23:03:41+00:00,SAT-65675,304.5113200529454,31.156515173599402,4010.556573402364,-0.8097742699912259,28361.720276858574,10.5,10500028361.720278,47.655,-122.3035,60.0,3.683333333333333
2026-01-20T23:03:42+00:00,SAT-65675,304.3844758872491,31.18497172996565,4009.748958530426,-0.7978874603668511,27945.39392265811,10.5,10500027945.393923,47.655,-122.3035,60.0,3.7
2026-01-20T23:03:43+00:00,SAT-65675,304.2574783492059,31.21321020018464,4008.9531987699534,-0.7859924337420928,27528.77977434634,10.5,10500027528.779774,47.655,-122.3035,60.0,3.716666666666667
2026-01-20T23:03:44+00:00,SAT-65675,304.1303286923796,31.241229913546686,4008.1693023160346,-0.7740893045329762,27111.88183925644,10.5,10500027111.88184,47.655,-122.3035,60.0,3.7333333333333334
2026-01-20T23:03:45+00:00,SAT-65675,304.0030281799623,31.26903020430535,4007.397277249647,-0.762178189266162,26694.704198644988,10.5,10500026694.704199,47.655,-122.3035,60.0,3.75
2026-01-20T23:03:46+00:00,SAT-65675,303.87557808440675,31.296610411803364,4006.6371315355523,-0.7502592047930643,26277.250945142776,10.5,10500026277.250946,47.655,-122.3035,60.0,3.7666666666666666
2026-01-20T23:03:47+00:00,SAT-65675,303.7479796873972,31.32396988052924,4005.888873021972,-0.7383324654936242,25859.52608481917,10.5,10500025859.526085,47.655,-122.3035,60.0,3.783333333333333
2026-01-20T23:03:48+00:00,SAT-65675,303.6202342802877,31.35110796006274,4005.152509443053,-0.726398088902303,25441.533734228167,10.5,10500025441.533733,47.655,-122.3035,60.0,3.8
2026-01-20T23:03:49+00:00,SAT-65675,303.49234316356217,31.37802400524392,4004.428048415721,-0.7144561896292649,25023.277907502536,10.5,10500025023.277908,47.655,-122.3035,60.0,3.816666666666667
2026-01-20T23:03:50+00:00,SAT-65675,303.3643076473806,31.404717376098187,4003.7154974425976,-0.7025068877617593,24604.762810605705,10.5,10500024604.76281,47.655,-122.3035,60.0,3.8333333333333335
2026-01-20T23:03:51+00:00,SAT-65675,303.2361290505121,31.431187438108868,4003.0148639065364,-0.6905502982331785,24185.992468991244,10.5,10500024185.99247,47.655,-122.3035,60.0,3.85
2026-01-20T23:03:52+00:00,SAT-65675,303.1078087013984,31.457433562037554,4002.326155075765,-0.6785865412283497,23766.97109204019,10.5,10500023766.971092,47.655,-122.3035,60.0,3.8666666666666667
2026-01-20T23:03:53+00:00,SAT-65675,302.97934793708305,31.483455124192613,4001.6493780986466,-0.6666157313376173,23347.702693191106,10.5,10500023347.702694,47.655,-122.3035,60.0,3.8833333333333333
2026-01-20T23:03:54+00:00,SAT-65675,302.85074810436834,31.509251506231468,4000.984540009259,-0.6546379902938455,22928.19153604384,10.5,10500022928.191536,47.655,-122.3035,60.0,3.9
2026-01-20T23:03:55+00:00,SAT-65675,302.7220105583405,31.534822095509686,4000.331647720273,-0.6426534357824368,22508.441742438987,10.5,10500022508.441742,47.655,-122.3035,60.0,3.9166666666666665
2026-01-20T23:03:56+00:00,SAT-65675,302.5931366632113,31.56016628494689,3999.690708026986,-0.6306621839102634,22088.457378930347,10.5,10500022088.457378,47.655,-122.3035,60.0,3.933333333333333
2026-01-20T23:03:57+00:00,SAT-65675,302.46412779269025,31.585283473000864,3999.0617276088997,-0.6186643585802881,21668.24278512378,10.5,10500021668.242785,47.655,-122.3035,60.0,3.95
2026-01-20T23:03:58+00:00,SAT-65675,302.3349853282536,31.610173064048645,3998.444713021942,-0.6066600752488615,21247.802004789075,10.5,10500021247.802004,47.655,-122.3035,60.0,3.966666666666667
2026-01-20T23:03:59+00:00,SAT-65675,302.2057106610557,31.634834468053526,3997.8396707068937,-0.5946494581752085,20827.139390009903,10.5,10500020827.13939,47.655,-122.3035,60.0,3.9833333333333334
2026-01-20T23:04:00+00:00,SAT-65675,302.0763051898896,31.65926710100086,3997.2466069806073,-0.5826326208468368,20406.258915598824,10.5,10500020406.258915,47.655,-122.3035,60.0,4.0
2026-01-20T23:04:01+00:00,SAT-65675,301.9467703237168,31.683470384451883,3996.665528046749,-0.5706096903380001,19985.16503223374,10.5,10500019985.165031,47.655,-122.3035,60.0,4.016666666666667
2026-01-20T23:04:02+00:00,SAT-65675,301.8171074784608,31.707443746197296,3996.0964399822524,-0.5585807848545188,19563.861879982476,10.5,10500019563.86188,47.655,-122.3035,60.0,4.033333333333333
2026-01-20T23:04:03+00:00,SAT-65675,301.6873180790674,31.731186619900686,3995.5393487461574,-0.5465460242640903,19142.353657118845,10.5,10500019142.353657,47.655,-122.3035,60.0,4.05
2026-01-20T23:04:04+00:00,SAT-65675,301.5574035591711,31.75469844520279,3994.994260177958,-0.5345055296749774,18720.6446053665,10.5,10500018720.644606,47.655,-122.3035,60.0,4.066666666666666
2026-01-20T23:04:05+00:00,SAT-65675,301.4273653607471,31.777978667826343,3994.461179996362,-0.5224594246018633,18298.739050732107,10.5,10500018298.73905,47.655,-122.3035,60.0,4.083333333333333
2026-01-20T23:04:06+00:00,SAT-65675,301.297204933492,31.801026739723056,3993.9401137968925,-0.5104078290725352,17876.641197096495,10.5,10500017876.641197,47.655,-122.3035,60.0,4.1
2026-01-20T23:04:07+00:00,SAT-65675,301.16692373570595,31.823842118951283,3993.431067055364,-0.4983508669000018,17454.35538091495,10.5,10500017454.355381,47.655,-122.3035,60.0,4.116666666666666
2026-01-20T23:04:08+00:00,SAT-65675,301.036523233264,31.846424269895017,3992.934045124109,-0.48628865589773623,17031.88572851366,10.5,10500017031.885729,47.655,-122.3035,60.0,4.133333333333334
2026-01-20T23:04:09+00:00,SAT-65675,300.9060049013167,31.868772663001483,3992.4490532379605,-0.47422132288130947,16609.236681510345,10.5,10500016609.236681,47.655,-122.3035,60.0,4.15
2026-01-20T23:04:10+00:00,SAT-65675,300.77537022170753,31.890886775269426,3991.9760965052737,-0.4621489892669652,16186.412492415453,10.5,10500016186.412493,47.655,-122.3035,60.0,4.166666666666667
2026-01-20T23:04:11+00:00,SAT-65675,300.6446206844626,31.91276609002101,3991.5151799133114,-0.4500717770320219,15763.417433390634,10.5,10500015763.417433,47.655,-122.3035,60.0,4.183333333333334
2026-01-20T23:04:12+00:00,SAT-65675,300.51375778769295,31.934410096953766,3991.0663083276845,-0.4379898101500849,15340.255846515964,10.5,10500015340.255846,47.655,-122.3035,60.0,4.2
2026-01-20T23:04:13+00:00,SAT-65675,300.3827830369082,31.955818292292822,3990.629486490362,-0.42590321197879766,14916.932052297914,10.5,10500014916.932053,47.655,-122.3035,60.0,4.216666666666667
2026-01-20T23:04:14+00:00,SAT-65675,300.2516979452214,31.976990178784813,3990.2047190202816,-0.41381210560187315,14493.450361648751,10.5,10500014493.450361,47.655,-122.3035,60.0,4.233333333333333
2026-01-20T23:04:15+00:00,SAT-65675,300.12050403339083,31.99792526572658,3989.792010413628,-0.40171661402526637,14069.81508275734,10.5,10500014069.815083,47.655,-122.3035,60.0,4.25
2026-01-20T23:04:16+00:00,SAT-65675,299.9892028299207,32.01862306897971,3989.3913650439067,-0.38961686264559836,13646.030607543778,10.5,10500013646.030607,47.655,-122.3035,60.0,4.266666666666667
2026-01-20T23:04:17+00:00,SAT-65675,299.85779587005436,32.039083111163976,3989.0027871595616,-0.377512974692441,13222.10125202893,10.5,10500013222.101252,47.655,-122.3035,60.0,4.283333333333333
2026-01-20T23:04:18+00:00,SAT-65675,299.72628469671054,32.059304921537766,3988.626280886135,-0.36540507448244836,12798.03137030788,10.5,10500012798.03137,47.655,-122.3035,60.0,4.3
2026-01-20T23:04:19+00:00,SAT-65675,299.59467085988393,32.07928803612192,3988.261850225184,-0.35329328642781943,12373.825319822103,10.5,10500012373.82532,47.655,-122.3035,60.0,4.316666666666666
2026-01-20T23:04:20+00:00,SAT-65675,299.46295591675397,32.099031997714334,3987.909499054187,-0.3411777355755204,11949.487480245296,10.5,10500011949.48748,47.655,-122.3035,60.0,4.333333333333333
2026-01-20T23:04:21+00:00,SAT-65675,299.3311414312879,32.118536355977916,3987.5692311259068,-0.32905854671942336,11525.022222386746,10.5,10500011525.022223,47.655,-122.3035,60.0,4.35
2026-01-20T23:04:22+00:00,SAT-65675,299.19922897433986,32.137800667451735,3987.2410500686447,-0.31693584455480606,11100.433913602536,10.5,10500011100.433914,47.655,-122.3035,60.0,4.366666666666666
2026-01-20T23:04:23+00:00,SAT-65675,299.06722012368215,32.15682449557624,3986.9249593863424,-0.3048097540559589,10675.726931020954,10.5,10500010675.72693,47.655,-122.3035,60.0,4.383333333333334
2026-01-20T23:04:24+00:00,SAT-65675,298.93511646388697,32.1756074107362,3986.620962458297,-0.2926804004431506,10250.905660385495,10.5,10500010250.90566,47.655,-122.3035,60.0,4.4
2026-01-20T23:04:25+00:00,SAT-65675,298.8029195861455,32.194148990315966,3986.329062538922,-0.280547909709652,9825.974514513458,10.5,10500009825.974514,47.655,-122.3035,60.0,4.416666666666667
2026-01-20T23:04:26+00:00,SAT-65675,298.67063108793974,32.212448818770575,3986.049262756971,-0.2684124070899621,9400.937879646734,10.5,10500009400.93788,47.655,-122.3035,60.0,4.433333333333334
2026-01-20T23:04:27+00:00,SAT-65675,298.5382525732703,32.230506487617,3985.7815661163004,-0.2562740183659326,8975.800161197825,10.5,10500008975.800161,47.655,-122.3035,60.0,4.45
2026-01-20T23:04:28+00:00,SAT-65675,298.4057856524437,32.24832159548996,3985.5259754953167,-0.24413286934787523,8550.56576557603,10.5,10500008550.565765,47.655,-122.3035,60.0,4.466666666666667
2026-01-20T23:04:29+00:00,SAT-65675,298.2732319419798,32.26589374817857,3985.2824936469538,-0.2319890861073268,8125.239108339847,10.5,10500008125.239109,47.655,-122.3035,60.0,4.483333333333333
2026-01-20T23:04:30+00:00,SAT-65675,298.14059306438753,32.283222558677586,3985.051123198409,-0.21984279416542216,7699.824585770375,10.5,10500007699.824585,47.655,-122.3035,60.0,4.5
2026-01-20T23:04:31+00:00,SAT-65675,298.0078706486095,32.30030764715471,3984.8318666516952,-0.20769412081545852,7274.32665621733,10.5,10500007274.326656,47.655,-122.3035,60.0,4.516666666666667
2026-01-20T23:04:32+00:00,SAT-65675,297.87506632872925,32.31714864114001,3984.6247263818686,-0.1955431912629662,6848.749704908004,10.5,10500006848.749704,47.655,-122.3035,60.0,4.533333333333333
2026-01-20T23:04:33+00:00,SAT-65675,297.7421817453735,32.33374517536538,3984.4297046391152,-0.18339013263962847,6423.09818453171,10.5,10500006423.098185,47.655,-122.3035,60.0,4.55
2026-01-20T23:04:34+00:00,SAT-65675,297.60921854430836,32.35009689196524,3984.2468035468296,-0.17123507096158622,5997.376508706751,10.5,10500005997.376509,47.655,-122.3035,60.0,4.566666666666666
2026-01-20T23:04:35+00:00,SAT-65675,297.4761783773072,32.366203440388496,3984.0760251027236,-0.1590781330337374,5571.589118677037,10.5,10500005571.589119,47.655,-122.3035,60.0,4.583333333333333
2026-01-20T23:04:36+00:00,SAT-65675,297.3430629013906,32.3820644775116,3983.917371178045,-0.14691944577888696,5145.740459816081,10.5,10500005145.74046,47.655,-122.3035,60.0,4.6
2026-01-20T23:04:37+00:00,SAT-65675,297.20987377861536,32.39767966768141,3983.770843517455,-0.13475913553538715,4719.834957027388,10.5,10500004719.834957,47.655,-122.3035,60.0,4.616666666666666
2026-01-20T23:04:38+00:00,SAT-65675,297.0766126769154,32.41304868263473,3983.636443739614,-0.12259732936173753,4293.877060437071,10.5,10500004293.87706,47.655,-122.3035,60.0,4.633333333333334
2026-01-20T23:04:39+00:00,SAT-65675,296.9432812688325,32.428171201664895,3983.514173336464,-0.11043415412280606,3867.871213389443,10.5,10500003867.871214,47.655,-122.3035,60.0,4.65
2026-01-20T23:04:40+00:00,SAT-65675,296.8098812322325,32.443046911555676,3983.404033673419,-0.09826973669006746,3441.821859460215,10.5,10500003441.82186,47.655,-122.3035,60.0,4.666666666666667
2026-01-20T23:04:41+00:00,SAT-65675,296.67641424979297,32.45767550665712,3983.3060259893596,-0.08610420412202135,3015.7334487755,10.5,10500003015.733448,47.655,-122.3035,60.0,4.683333333333334
2026-01-20T23:04:42+00:00,SAT-65675,296.5428820090756,32.472056688892266,3983.2201513964487,-0.07393768354730171,2589.610433917813,10.5,10500002589.610434,47.655,-122.3035,60.0,4.7
2026-01-20T23:04:43+00:00,SAT-65675,296.4092862021118,32.486190167819466,3983.146410880058,-0.061770302109789066,2163.4572680036704,10.5,10500002163.457268,47.655,-122.3035,60.0,4.716666666666667
2026-01-20T23:04:44+00:00,SAT-65675,296.27562852537716,32.5000756606466,3983.0848052987535,-0.04960218673482947,1737.278396495583,10.5,10500001737.278397,47.655,-122.3035,60.0,4.733333333333333
2026-01-20T23:04:45+00:00,SAT-65675,296.14191068032574,32.51371289218982,3983.0353353845167,-0.03743346486513669,1311.0782829764692,10.5,10500001311.078283,47.655,-122.3035,60.0,4.75
2026-01-20T23:04:46+00:00,SAT-65675,296.0081343725152,32.527101594981545,3982.9980017422245,-0.025264263454008874,884.861373887842,10.5,10500000884.861374,47.655,-122.3035,60.0,4.766666666666667
2026-01-20T23:04:47+00:00,SAT-65675,295.87430131107504,32.540241509332255,3982.9728048501397,-0.013094710019376309,458.6321354470206,10.5,10500000458.632135,47.655,-122.3035,60.0,4.783333333333333
2026-01-20T23:04:48+00:00,SAT-65675,295.7404132102734,32.553132383187084,3982.9597450593474,-0.0009249314804864055,32.39501290291718,10.5,10500000032.395014,47.655,-122.3035,60.0,4.8
2026-01-20T23:04:49+00:00,SAT-65675,295.6064717875027,32.565773972337375,3982.9588225943507,0.011244944734685436,-393.84553067775,10.5,10499999606.154469,47.655,-122.3035,60.0,4.816666666666666
2026-01-20T23:04:50+00:00,SAT-65675,295.47247876430373,32.57816604032952,3982.970037552566,0.023414791206803558,-820.0850325308629,10.5,10499999179.914967,47.655,-122.3035,60.0,4.833333333333333
2026-01-20T23:04:51+00:00,SAT-65675,295.3384358663794,32.590308358477785,3982.9933899043294,0.03558448113401931,-1246.3190515193105,10.5,10499998753.680948,47.655,-122.3035,60.0,4.85
2026-01-20T23:04:52+00:00,SAT-65675,295.2043448220565,32.60220070601362,3983.028879493514,0.04775388685965841,-1672.5431165663722,10.5,10499998327.456884,47.655,-122.3035,60.0,4.866666666666666
2026-01-20T23:04:53+00:00,SAT-65675,295.07020736389444,32.613842869948265,3983.0765060366753,0.05992288136689523,-2098.752779005534,10.5,10499997901.247221,47.655,-122.3035,60.0,4.883333333333334
2026-01-20T23:04:54+00:00,SAT-65675,294.9360252275893,32.625234645179624,3983.136269123692,0.07209133747119165,-2524.943584296281,10.5,10499997475.056416,47.655,-122.3035,60.0,4.9
2026-01-20T23:04:55+00:00,SAT-65675,294.8018001519515,32.63637583450107,3983.2081682175967,0.08425912773898188,-2951.1110691760955,10.5,10499997048.888931,47.655,-122.3035,60.0,4.916666666666667
2026-01-20T23:04:56+00:00,SAT-65675,294.66753387922574,32.64726624858288,3983.2922026543283,0.09642612525864178,-3377.2507886630647,10.5,10499996622.749212,47.655,-122.3035,60.0,4.933333333333334
2026-01-20T23:04:57+00:00,SAT-65675,294.5332281543009,32.65790570604321,3983.388371643253,0.10859220274602213,-3803.3582847278713,10.5,10499996196.641716,47.655,-122.3035,60.0,4.95
2026-01-20T23:04:58+00:00,SAT-65675,294.39888472514156,32.66829403341933,3983.4966742667916,0.12075723359493894,-4229.429123086408,10.5,10499995770.570877,47.655,-122.3035,60.0,4.966666666666667
2026-01-20T23:04:59+00:00,SAT-65675,294.264505342002,32.67843106523343,3983.6171094810966,0.13292109021173715,-4655.458834869155,10.5,10499995344.541164,47.655,-122.3035,60.0,4.983333333333333
2026-01-20T23:05:00+00:00,SAT-65675,294.1300917582723,32.688316643932346,3983.7496761150683,0.14508364537935256,-5081.442964396396,10.5,10499994918.557035,47.655,-122.3035,60.0,5.0
2026-01-20T23:05:01+00:00,SAT-65675,293.9956457299185,32.69795061993654,3983.894372870726,0.1572447734104625,-5507.377109566432,10.5,10499994492.62289,47.655,-122.3035,60.0,5.016666666666667
2026-01-20T23:05:02+00:00,SAT-65675,293.86116901439607,32.70733285172047,3984.0511983247407,0.16940434676731606,-5933.256803467745,10.5,10499994066.743196,47.655,-122.3035,60.0,5.033333333333333
2026-01-20T23:05:03+00:00,SAT-65675,293.72666337190014,32.71646320572338,3984.2201509265833,0.1815622379833131,-6359.077581680816,10.5,10499993640.922419,47.655,-122.3035,60.0,5.05
2026-01-20T23:05:04+00:00,SAT-65675,293.5921305651528,32.72534155637078,3984.401228998599,0.19371832170960548,-6784.835053958754,10.5,10499993215.164946,47.655,-122.3035,60.0,5.066666666666666
2026-01-20T23:05:05+00:00,SAT-65675,293.45757235796026,32.733967786172315,3984.594430738117,0.2058724695282055,-7210.524722560424,10.5,10499992789.475277,47.655,-122.3035,60.0,5.083333333333333
2026-01-20T23:05:06+00:00,SAT-65675,293.3229905170412,32.7423417856022,3984.7997542143935,0.21802455719615113,-7636.14223597175,10.5,10499992363.857763,47.655,-122.3035,60.0,5.1
2026-01-20T23:05:07+00:00,SAT-65675,293.1883868095097,32.750463453260146,3985.0171973727706,0.23017445681028148,-8061.683114483006,10.5,10499991938.316885,47.655,-122.3035,60.0,5.116666666666666
2026-01-20T23:05:08+00:00,SAT-65675,293.05376300491685,32.75833269574144,3985.2467580310295,0.24232204284234662,-8487.142961563895,10.5,10499991512.857038,47.655,-122.3035,60.0,5.133333333333334
2026-01-20T23:05:09+00:00,SAT-65675,292.9191208738113,32.76594942772524,3985.4884338817574,0.25446718751268316,-8912.5173018301,10.5,10499991087.482698,47.655,-122.3035,60.0,5.15
2026-01-20T23:05:10+00:00,SAT-65675,292.784462188803,32.773313571911636,3985.7422224901034,0.26660976726696667,-9337.801807886543,10.5,10499990662.198193,47.655,-122.3035,60.0,5.166666666666667
2026-01-20T23:05:11+00:00,SAT-65675,292.64978872248963,32.780425059135,3986.008121297991,0.2787496537725906,-9762.991984982495,10.5,10499990237.008015,47.655,-122.3035,60.0,5.183333333333334
2026-01-20T23:05:12+00:00,SAT-65675,292.5151022495936,32.7872838282433,3986.2861276193535,0.29088672179200675,-10188.08344676927,10.5,10499989811.916553,47.655,-122.3035,60.0,5.2
2026-01-20T23:05:13+00:00,SAT-65675,292.3804045454152,32.79388982618006,3986.5762386432207,0.30302084705633386,-10613.071840824981,10.5,10499989386.92816,47.655,-122.3035,60.0,5.216666666666667
2026-01-20T23:05:14+00:00,SAT-65675,292.2456973855101,32.800243007991796,3986.878451434685,0.3151519025751736,-11037.952719408715,10.5,10499988962.047281,47.655,-122.3035,60.0,5.233333333333333
2026-01-20T23:05:15+00:00,SAT-65675,292.1109825466058,32.80634333677928,3987.1927629321863,0.32727976201983017,-11462.721657955173,10.5,10499988537.278341,47.655,-122.3035,60.0,5.25
2026-01-20T23:05:16+00:00,SAT-65675,291.97626180627896,32.81219078371096,3987.5191699481743,0.3394043023868893,-11887.374348364485,10.5,10499988112.625652,47.655,-122.3035,60.0,5.266666666666667
2026-01-20T23:05:17+00:00,SAT-65675,291.84153694162444,32.817785328074116,3987.8576691724215,0.35152539743608524,-12311.90636916855,10.5,10499987688.093632,47.655,-122.3035,60.0,5.283333333333333
2026-01-20T23:05:18+00:00,SAT-65675,291.7068097304214,32.823126957216026,3988.208257168798,0.36364292212756727,-12736.313340942874,10.5,10499987263.686659,47.655,-122.3035,60.0,5.3
2026-01-20T23:05:19+00:00,SAT-65675,291.57208195056637,32.8282156665624,3988.5709303764665,0.3757567507079441,-13160.59085927176,10.5,10499986839.409142,47.655,-122.3035,60.0,5.316666666666666
2026-01-20T23:05:20+00:00,SAT-65675,291.43735538027437,32.833051459602586,3988.9456851091727,0.3878667603796307,-13584.734623264347,10.5,10499986415.265377,47.655,-122.3035,60.0,5.333333333333333
2026-01-20T23:05:21+00:00,SAT-65675,291.30263179695805,32.837634347922304,3989.332517558191,0.39997282544615637,-14008.740230498533,10.5,10499985991.25977,47.655,-122.3035,60.0,5.35
2026-01-20T23:05:22+00:00,SAT-65675,291.167912978198,32.84196435115831,3989.731423789436,0.4120748214846492,-14432.603323159039,10.5,10499985567.396677,47.655,-122.3035,60.0,5.366666666666666
2026-01-20T23:05:23+00:00,SAT-65675,291.0332007011527,32.846041497011264,3990.14239974473,0.42417262590284505,-14856.319607546207,10.5,10499985143.680393,47.655,-122.3035,60.0,5.383333333333334
2026-01-20T23:05:24+00:00,SAT-65675,290.8984967420237,32.849865821249864,3990.56544124363,0.4362661121575788,-15279.884651583123,10.5,10499984720.115349,47.655,-122.3035,60.0,5.4
2026-01-20T23:05:25+00:00,SAT-65675,290.7638028770812,32.85343736767127,3991.0005439794886,0.44835515914312934,-15703.294213635148,10.5,10499984296.705786,47.655,-122.3035,60.0,5.416666666666667
2026-01-20T23:05:26+00:00,SAT-65675,290.62912088104787,32.85675618813485,3991.447703524874,0.46043964223841893,-16126.543928944999,10.5,10499983873.456072,47.655,-122.3035,60.0,5.433333333333334
2026-01-20T23:05:27+00:00,SAT-65675,290.49445252802957,32.859822342523536,3991.9069153280666,0.47251943687979864,-16549.629434766786,10.5,10499983450.370565,47.655,-122.3035,60.0,5.45
2026-01-20T23:05:28+00:00,SAT-65675,290.3597995913893,32.862635898737516,3992.3781747131147,0.484594422803159,-16972.54651894268,10.5,10499983027.453482,47.655,-122.3035,60.0,5.466666666666667
2026-01-20T23:05:29+00:00,SAT-65675,290.22516384253663,32.86519693270589,3992.861476884124,0.49666447425765,-17395.290777145987,10.5,10499982604.709223,47.655,-122.3035,60.0,5.483333333333333
2026-01-20T23:05:30+00:00,SAT-65675,290.0905470523121,32.86750552834463,3993.356816919784,0.5087294697711235,-17817.85795490825,10.5,10499982182.142046,47.655,-122.3035,60.0,5.5
2026-01-20T23:05:31+00:00,SAT-65675,289.9559509897631,32.86956177756685,3993.864189777635,0.5207892882764829,-18240.24381194763,10.5,10499981759.756187,47.655,-122.3035,60.0,5.516666666666667
2026-01-20T23:05:32+00:00,SAT-65675,289.82137742203656,32.871365780266466,3994.383590294476,0.532843804927509,-18662.443975621445,10.5,10499981337.556025,47.655,-122.3035,60.0,5.533333333333333
2026-01-20T23:05:33+00:00,SAT-65675,289.68682811519307,32.87291764429228,3994.915013182591,0.544892900002871,-19084.45425278226,10.5,10499980915.545748,47.655,-122.3035,60.0,5.55
2026-01-20T23:05:34+00:00,SAT-65675,289.5523048329159,32.874217485448796,3995.45845303486,0.5569364499009806,-19506.270314379613,10.5,10499980493.729685,47.655,-122.3035,60.0,5.566666666666666
2026-01-20T23:05:35+00:00,SAT-65675,289.4178093373305,32.875265427470445,3996.0139043208947,0.568974334124963,-19927.887940103254,10.5,10499980072.11206,47.655,-122.3035,60.0,5.583333333333333
2026-01-20T23:05:36+00:00,SAT-65675,289.283343388244,32.87606160201127,3996.5813613901287,0.5810064324112173,-20349.302917813166,10.5,10499979650.697083,47.655,-122.3035,60.0,5.6
2026-01-20T23:05:37+00:00,SAT-65675,289.1489087430071,32.87660614862702,3997.1608184720535,0.5930326228820357,-20770.510978836483,10.5,10499979229.489021,47.655,-122.3035,60.0,5.616666666666666
2026-01-20T23:05:38+00:00,SAT-65675,289.01450715682574,32.87689921475437,3997.752269674608,0.6050527843453,-21191.507878512573,10.5,10499978808.49212,47.655,-122.3035,60.0,5.633333333333334
2026-01-20T23:05:39+00:00,SAT-65675,288.8801403825107,32.87694095569476,3998.3557089848614,0.6170667963569904,-21612.289398382396,10.5,10499978387.710602,47.655,-122.3035,60.0,5.65
2026-01-20T23:05:40+00:00,SAT-65675,288.74581017026304,32.87673153459506,3998.9711302697615,0.6290745397781959,-22032.85136569732,10.5,10499977967.148634,47.655,-122.3035,60.0,5.666666666666667
2026-01-20T23:05:41+00:00,SAT-65675,288.61151826730827,32.876271122427134,3999.5985272774337,0.6410758948398134,-22453.18958563674,10.5,10499977546.810415,47.655,-122.3035,60.0,5.683333333333334
2026-01-20T23:05:42+00:00,SAT-65675,288.47726641801125,32.87555989796517,4000.237893636554,0.6530707402958523,-22873.2998116532,10.5,10499977126.700188,47.655,-122.3035,60.0,5.7
2026-01-20T23:05:43+00:00,SAT-65675,288.3430563640441,32.87459804776838,4000.8892228548757,0.6650589585259629,-23293.177924184503,10.5,10499976706.822075,47.655,-122.3035,60.0,5.716666666666667
2026-01-20T23:05:44+00:00,SAT-65675,288.2088898436445,32.873385766152694,4001.552508322846,0.6770404316993911,-23712.819796299234,10.5,10499976287.180204,47.655,-122.3035,60.0,5.733333333333333
2026-01-20T23:05:45+00:00,SAT-65675,288.07476859157555,32.8719232551672,4002.2277433133936,0.6890150348565856,-24132.221051385317,10.5,10499975867.778948,47.655,-122.3035,60.0,5.75
2026-01-20T23:05:46+00:00,SAT-65675,287.94069434041313,32.87021072458769,4002.9149209748243,0.700982658795348,-24551.377864719845,10.5,10499975448.622135,47.655,-122.3035,60.0,5.766666666666667
2026-01-20T23:05:47+00:00,SAT-65675,287.80666881751154,32.86824839185502,4003.6140343465295,0.7129431785119111,-24970.285858142128,10.5,10499975029.714142,47.655,-122.3035,60.0,5.783333333333333
2026-01-20T23:05:48+00:00,SAT-65675,287.6726937478979,32.86603648208895,4004.325076343232,0.724896480404927,-25388.941052852417,10.5,10499974611.058947,47.655,-122.3035,60.0,5.8
2026-01-20T23:05:49+00:00,SAT-65675,287.5387708520972,32.8635752280321,4005.048039766356,0.7368424434255945,-25807.339209209662,10.5,10499974192.660791,47.655,-122.3035,60.0,5.816666666666666
2026-01-20T23:05:50+00:00,SAT-65675,287.40490184742237,32.86086487004698,4005.7829172965985,0.7487809522410603,-26225.4762877695,10.5,10499973774.523712,47.655,-122.3035,60.0,5.833333333333333
2026-01-20T23:05:51+00:00,SAT-65675,287.27108844686643,32.85790565607061,4006.529701499634,0.7607118913776948,-26643.348244156947,10.5,10499973356.651756,47.655,-122.3035,60.0,5.85
2026-01-20T23:05:52+00:00,SAT-65675,287.1373323591163,32.854697841585484,4007.2883848259676,0.7726351425000823,-27060.950933765194,10.5,10499972939.049067,47.655,-122.3035,60.0,5.866666666666666
2026-01-20T23:05:53+00:00,SAT-65675,287.00363528894445,32.851241689603505,4008.0589596080877,0.7845505894840711,-27478.280289435257,10.5,10499972521.719711,47.655,-122.3035,60.0,5.883333333333334
2026-01-20T23:05:54+00:00,SAT-65675,286.86999893678257,32.84753747062912,4008.841418062667,0.7964581185346817,-27895.332325585583,10.5,10499972104.667675,47.655,-122.3035,60.0,5.9
2026-01-20T23:05:55+00:00,SAT-65675,286.7364249982776,32.843585462618016,4009.6357522928856,0.8083576122943131,-28312.10293185657,10.5,10499971687.897068,47.655,-122.3035,60.0,5.916666666666667
2026-01-20T23:05:56+00:00,SAT-65675,286.60291516482357,32.83938595096448,4010.4419542848805,0.8202489563454161,-28728.58810086166,10.5,10499971271.4119,47.655,-122.3035,60.0,5.933333333333334
2026-01-20T23:05:57+00:00,SAT-65675,286.4694711230021,32.83493922845668,4011.260015910675,0.8321320360117574,-29144.783816154086,10.5,10499970855.216185,47.655,-122.3035,60.0,5.95
2026-01-20T23:05:58+00:00,SAT-65675,286.3360945545977,32.830245595246694,4012.0899289279246,0.8440067369393153,-29560.68607257228,10.5,10499970439.313927,47.655,-122.3035,60.0,5.966666666666667
2026-01-20T23:05:59+00:00,SAT-65675,286.2027871364541,32.82530535881712,4012.9316849802317,0.8558729451699708,-29976.290878820884,10.5,10499970023.709122,47.655,-122.3035,60.0,5.983333333333333
2026-01-20T23:06:00+00:00,SAT-65675,286.0695505403901,32.820118833946054,4013.785275597548,0.8677305471120321,-30391.59425643836,10.5,10499969608.405743,47.655,-122.3035,60.0,6.0
2026-01-20T23:06:01+00:00,SAT-65675,285.9363864330604,32.81468634267286,4014.6506921965347,0.8795794295341345,-30806.592239583333,10.5,10499969193.40776,47.655,-122.3035,60.0,6.016666666666667
2026-01-20T23:06:02+00:00,SAT-65675,285.8032964758668,32.809008214261546,4015.527926080923,0.8914194796104732,-31221.28087661888,10.5,10499968778.719124,47.655,-122.3035,60.0,6.033333333333333
2026-01-20T23:06:03+00:00,SAT-65675,285.6702823248273,32.803084785165176,4016.416968441921,0.903250584866423,-31635.656228207852,10.5,10499968364.343771,47.655,-122.3035,60.0,6.05
2026-01-20T23:06:04+00:00,SAT-65675,285.53734563048664,32.79691639898818,4017.3178103585615,0.9150726332517223,-32049.71436987612,10.5,10499967950.28563,47.655,-122.3035,60.0,6.066666666666666
2026-01-20T23:06:05+00:00,SAT-65675,285.40448803778105,32.790503406449055,4018.230442798125,0.9268855138468981,-32463.451416754553,10.5,10499967536.548584,47.655,-122.3035,60.0,6.083333333333333
2026-01-20T23:06:06+00:00,SAT-65675,285.27171118585477,32.783846165336115,4019.154856617268,0.9386891123070771,-32876.863364002,10.5,10499967123.136637,47.655,-122.3035,60.0,6.1
2026-01-20T23:06:07+00:00,SAT-65675,285.1390167084526,32.77694504049687,4020.0910425586085,0.9504833239435603,-33289.9465449774,10.5,10499966710.053455,47.655,-122.3035,60.0,6.116666666666666
2026-01-20T23:06:08+00:00,SAT-65675,285.0064062325719,32.76980040372982,4021.0389912603555,0.9622680304885258,-33702.696817441356,10.5,10499966297.303183,47.655,-122.3035,60.0,6.133333333333334
2026-01-20T23:06:09+00:00,SAT-65675,284.87388138023556,32.76241263384853,4021.9986932427623,0.9740431265422759,-34115.1104898506,10.5,10499965884.88951,47.655,-122.3035,60.0,6.15
2026-01-20T23:06:10+00:00,SAT-65675,284.741443766718,32.75478211654776,4022.970138920967,0.9858085041350452,-34527.18378064726,10.5,10499965472.81622,47.655,-122.3035,60.0,6.166666666666667
2026-01-20T23:06:11+00:00,SAT-65675,284.60909500085177,32.746909244382806,4023.9533186024246,0.9975640491704797,-34938.91269369437,10.5,10499965061.087307,47.655,-122.3035,60.0,6.183333333333334
2026-01-20T23:06:12+00:00,SAT-65675,284.4768366857767,32.738794416779776,4024.948222480797,1.009309656923289,-35350.29356106928,10.5,10499964649.706438,47.655,-122.3035,60.0,6.2
2026-01-20T23:06:13+00:00,SAT-65675,284.3446704176732,32.730438039921886,4025.9548406453023,1.0210452156832102,-35761.32247020606,10.5,10499964238.67753,47.655,-122.3035,60.0,6.216666666666667
2026-01-20T23:06:14+00:00,SAT-65675,284.21259778662244,32.72184052676609,4026.9731630737438,1.03277062085455,-36171.99575772107,10.5,10499963828.004242,47.655,-122.3035,60.0,6.233333333333333
2026-01-20T23:06:15+00:00,SAT-65675,284.0806203756466,32.71300229694405,4028.0031796396092,1.0444857623894315,-36582.30956927219,10.5,10499963417.690432,47.655,-122.3035,60.0,6.25
2026-01-20T23:06:16+00:00,SAT-65675,283.9487397613708,32.70392377676722,4029.0448801066323,1.056190533151571,-36992.26015249355,10.5,10499963007.739847,47.655,-122.3035,60.0,6.266666666666667
2026-01-20T23:06:17+00:00,SAT-65675,283.8169575135904,32.69460539916138,4030.0982541316953,1.0678848282428832,-37401.843833410494,10.5,10499962598.156166,47.655,-122.3035,60.0,6.283333333333333
2026-01-20T23:06:18+00:00,SAT-65675,283.68527519498514,32.68504760360538,4031.163291267063,1.0795685414840615,-37811.05689317456,10.5,10499962188.943108,47.655,-122.3035,60.0,6.3
2026-01-20T23:06:19+00:00,SAT-65675,283.5536943612144,32.6752508360993,4032.239980959103,1.0912415653535903,-38219.89556592747,10.5,10499961780.104435,47.655,-122.3035,60.0,6.316666666666666
2026-01-20T23:06:20+00:00,SAT-65675,283.4222165610579,32.66521554913537,4033.328312546949,1.102903794531054,-38628.35616290277,10.5,10499961371.643837,47.655,-122.3035,60.0,6.333333333333333
2026-01-20T23:06:21+00:00,SAT-65675,283.2908433360915,32.654942201634825,4034.428275264695,1.1145551268652962,-39036.43510633483,10.5,10499960963.564894,47.655,-122.3035,60.0,6.35
2026-01-20T23:06:22+00:00,SAT-65675,283.1595762203037,32.64443125887519,4035.539858244555,1.1261954552733948,-39444.12864572679,10.5,10499960555.871355,47.655,-122.3035,60.0,6.366666666666666
2026-01-20T23:06:23+00:00,SAT-65675,283.0284167406139,32.63368319249241,4036.6630505119474,1.1378246766954958,-39851.433171486606,10.5,10499960148.566828,47.655,-122.3035,60.0,6.383333333333334
2026-01-20T23:06:24+00:00,SAT-65675,282.89736641638956,32.62269848039926,4037.7978409895054,1.1494426867661292,-40258.34502829406,10.5,10499959741.654972,47.655,-122.3035,60.0,6.4
2026-01-20T23:06:25+00:00,SAT-65675,282.7664267595422,32.611477606753375,4038.944218495773,1.1610493852796027,-40664.86070652193,10.5,10499959335.139294,47.655,-122.3035,60.0,6.416666666666667
2026-01-20T23:06:26+00:00,SAT-65675,282.635599274052,32.60002106187165,4040.102171749359,1.1726446659646215,-41070.97648409996,10.5,10499958929.023516,47.655,-122.3035,60.0,6.433333333333334
2026-01-20T23:06:27+00:00,SAT-65675,282.5048854565878,32.58832934224463,4041.271689362881,1.1842284315352172,-41476.688953662,10.5,10499958523.311047,47.655,-122.3035,60.0,6.45
2026-01-20T23:06:28+00:00,SAT-65675,282.3742867955101,32.57640295040173,4042.452759851932,1.1958005746772276,-41881.994356612166,10.5,10499958118.005644,47.655,-122.3035,60.0,6.466666666666667
2026-01-20T23:06:29+00:00,SAT-65675,282.24380477191613,32.56424239496591,4043.645371625077,1.2073609981112907,-42286.8892858157,10.5,10499957713.110714,47.655,-122.3035,60.0,6.483333333333333
2026-01-20T23:06:30+00:00,SAT-65675,282.11344085853193,32.551848190506476,4044.8495129938597,1.218909599297461,-42691.37014988996,10.5,10499957308.62985,47.655,-122.3035,60.0,6.5
2026-01-20T23:06:31+00:00,SAT-65675,281.9831965202479,32.53922085754544,4046.065172167559,1.2304462801086662,-43095.43351200981,10.5,10499956904.566488,47.655,-122.3035,60.0,6.516666666666667
2026-01-20T23:06:32+00:00,SAT-65675,281.853073213636,32.52636092246555,4047.2923372575874,1.2419709409724558,-43499.075884726844,10.5,10499956500.924116,47.655,-122.3035,60.0,6.533333333333333
2026-01-20T23:06:33+00:00,SAT-65675,281.72307238706577,32.51326891747742,4048.5309962760507,1.2534834817319276,-43902.29376012268,10.5,10499956097.70624,47.655,-122.3035,60.0,6.55
2026-01-20T23:06:34+00:00,SAT-65675,281.5931954807552,32.499945380578026,4049.781137135165,1.2649838006801084,-44305.08357598889,10.5,10499955694.916424,47.655,-122.3035,60.0,6.566666666666666
2026-01-20T23:06:35+00:00,SAT-65675,281.463443926878,32.486390855520526,4051.04274764571,1.2764718058093998,-44707.44210983018,10.5,10499955292.55789,47.655,-122.3035,60.0,6.583333333333333
2026-01-20T23:06:36+00:00,SAT-65675,281.3338191485857,32.47260589166192,4052.3158155267033,1.2879473964882218,-45109.365837102974,10.5,10499954890.634163,47.655,-122.3035,60.0,6.6
2026-01-20T23:06:37+00:00,SAT-65675,281.20432256084683,32.45859104400648,4053.6003283968007,1.2994104755525777,-45510.851354713086,10.5,10499954489.148645,47.655,-122.3035,60.0,6.616666666666666
2026-01-20T23:06:38+00:00,SAT-65675,281.0749555700795,32.444346873120374,4054.896273777752,1.3108609421142374,-45911.89512912794,10.5,10499954088.104872,47.655,-122.3035,60.0,6.633333333333334
2026-01-20T23:06:39+00:00,SAT-65675,280.9457195744882,32.42987394512402,4056.2036390906874,1.3222987085799982,-46312.494092463065,10.5,10499953687.505907,47.655,-122.3035,60.0,6.65
2026-01-20T23:06:40+00:00,SAT-65675,280.81661596276945,32.41517283149592,4057.5224116693776,1.333723674047908,-46712.64471070527,10.5,10499953287.35529,47.655,-122.3035,60.0,6.666666666666667
2026-01-20T23:06:41+00:00,SAT-65675,280.68764611537074,32.40024410916999,4058.852578746962,1.3451357456408037,-47112.343730903456,10.5,10499952887.65627,47.655,-122.3035,60.0,6.683333333333334
2026-01-20T23:06:42+00:00,SAT-65675,280.55881140372315,32.38508836039674,4060.1941274639476,1.3565348254577705,-47511.587724153454,10.5,10499952488.412275,47.655,-122.3035,60.0,6.7
2026-01-20T23:06:43+00:00,SAT-65675,280.430113190676,32.369706172750504,4061.547044863204,1.367920822774973,-47910.373512922786,10.5,10499952089.626488,47.655,-122.3035,60.0,6.716666666666667
2026-01-20T23:06:44+00:00,SAT-65675,280.3015528298359,32.35409813899728,4062.9113178971184,1.379293644167387,-48308.69782507192,10.5,10499951691.302176,47.655,-122.3035,60.0,6.733333333333333
2026-01-20T23:06:45+00:00,SAT-65675,280.17313166579396,32.338264857075586,4064.2869334249012,1.390653194328052,-48706.557322547946,10.5,10499951293.442677,47.655,-122.3035,60.0,6.75
2026-01-20T23:06:46+00:00,SAT-65675,280.04485103429624,32.3222069300669,4065.673878210711,1.4019993808717612,-49103.94876963014,10.5,10499950896.05123,47.655,-122.3035,60.0,6.766666666666667
2026-01-20T23:06:47+00:00,SAT-65675,279.91671226195893,32.305924966112485,4067.072138926567,1.4133321129115413,-49500.86898307223,10.5,10499950499.131018,47.655,-122.3035,60.0,6.783333333333333
2026-01-20T23:06:48+00:00,SAT-65675,279.78871666612446,32.28941957834398,4068.4817021538443,1.4246513037705104,-49897.314927083185,10.5,10499950102.685074,47.655,-122.3035,60.0,6.8
2026-01-20T23:06:49+00:00,SAT-65675,279.66086555449453,32.27269138478312,4069.9025543874714,1.4359568509819072,-50293.28301284359,10.5,10499949706.716988,47.655,-122.3035,60.0,6.816666666666666
2026-01-20T23:06:50+00:00,SAT-65675,279.53316022651194,32.25574100847629,4071.334682020184,1.4472486770625457,-50688.77052656451,10.5,10499949311.229473,47.655,-122.3035,60.0,6.833333333333333
2026-01-20T23:06:51+00:00,SAT-65675,279.40560197115263,32.23856907714859,4072.778071367441,1.4585266828490926,-51083.77399512656,10.5,10499948916.226006,47.655,-122.3035,60.0,6.85
2026-01-20T23:06:52+00:00,SAT-65675,279.27819206883294,32.22117622340853,4074.2327086458026,1.469790787444142,-51478.290585160394,10.5,10499948521.709415,47.655,-122.3035,60.0,6.866666666666666
2026-01-20T23:06:53+00:00,SAT-65675,279.1509317898109,32.203563084479,4075.6985799911467,1.4810408902049335,-51872.316771730795,10.5,10499948127.683228,47.655,-122.3035,60.0,6.883333333333334
2026-01-20T23:06:54+00:00,SAT-65675,279.02382239588565,32.185730302382744,4077.175671438978,1.4922769137321368,-52265.84984398585,10.5,10499947734.150156,47.655,-122.3035,60.0,6.9
2026-01-20T23:06:55+00:00,SAT-65675,278.8968651384086,32.16767852360999,4078.6639689476065,1.503498769325648,-52658.88669527272,10.5,10499947341.113304,47.655,-122.3035,60.0,6.916666666666667
2026-01-20T23:06:56+00:00,SAT-65675,278.7700612592607,32.14940839920273,4080.163458386881,1.5147063626217612,-53051.424020575236,10.5,10499946948.57598,47.655,-122.3035,60.0,6.933333333333334
2026-01-20T23:06:57+00:00,SAT-65675,278.6434119913089,32.13092058477206,4081.674125532536,1.5258996144408534,-53443.4590466881,10.5,10499946556.540953,47.655,-122.3035,60.0,6.95
2026-01-20T23:06:58+00:00,SAT-65675,278.5169185571596,32.11221574026075,4083.195956081338,1.5370784389557859,-53834.988767581846,10.5,10499946165.011232,47.655,-122.3035,60.0,6.966666666666667
2026-01-20T23:06:59+00:00,SAT-65675,278.39058216970875,32.093294529971224,4084.7289356444567,1.5482427445386011,-54226.00997405782,10.5,10499945773.990026,47.655,-122.3035,60.0,6.983333333333333
2026-01-20T23:07:00+00:00,SAT-65675,278.2644040326261,32.07415762258578,4086.2730497416765,1.5593924500382903,-54616.51982386444,10.5,10499945383.480177,47.655,-122.3035,60.0,7.0
2026-01-20T23:07:01+00:00,SAT-65675,278.13838533949064,32.054805690984395,4087.8282838118475,1.5705274738144304,-55006.51545760874,10.5,10499944993.484543,47.655,-122.3035,60.0,7.016666666666667
2026-01-20T23:07:02+00:00,SAT-65675,278.01252727387447,32.035239412198365,4089.394623212399,1.5816477283637742,-55395.993810556865,10.5,10499944604.00619,47.655,-122.3035,60.0,7.033333333333333
2026-01-20T23:07:03+00:00,SAT-65675,277.8868310097896,32.01545946742996,4090.972053213487,1.5927531331375542,-55784.952061550255,10.5,10499944215.04794,47.655,-122.3035,60.0,7.05
2026-01-20T23:07:04+00:00,SAT-65675,277.76129771117144,31.995466541913807,4092.5605590049363,1.603843600345888,-56173.38713581589,10.5,10499943826.612864,47.655,-122.3035,60.0,7.066666666666666
2026-01-20T23:07:05+00:00,SAT-65675,277.63592853243426,31.97526132495521,4094.1601256890144,1.6149190558095263,-56561.29643528265,10.5,10499943438.703566,47.655,-122.3035,60.0,7.083333333333333
2026-01-20T23:07:06+00:00,SAT-65675,277.510724617439,31.954844509705513,4095.770738294009,1.625979411544446,-56948.67687837791,10.5,10499943051.323122,47.655,-122.3035,60.0,7.1
2026-01-20T23:07:07+00:00,SAT-65675,277.38568710057643,31.93421679328387,4097.3923817604555,1.6370245946373734,-57335.525911370394,10.5,10499942664.474089,47.655,-122.3035,60.0,7.116666666666666
2026-01-20T23:07:08+00:00,SAT-65675,277.2608171056212,31.9133788765333,4099.025040956174,1.6480545128469293,-57721.840303576806,10.5,10499942278.159697,47.655,-122.3035,60.0,7.133333333333334
2026-01-20T23:07:09+00:00,SAT-65675,277.136115747218,31.892331464215072,4100.668700656986,1.659069094414515,-58107.61754170749,10.5,10499941892.382458,47.655,-122.3035,60.0,7.15
2026-01-20T23:07:10+00:00,SAT-65675,277.0115841293469,31.871075264693918,4102.323345567149,1.670068262896762,-58492.854948392334,10.5,10499941507.145052,47.655,-122.3035,60.0,7.166666666666667
2026-01-20T23:07:11+00:00,SAT-65675,276.88722334570656,31.849610989944377,4103.9889603146785,1.6810519316742178,-58877.549489851706,10.5,10499941122.45051,47.655,-122.3035,60.0,7.183333333333334
2026-01-20T23:07:12+00:00,SAT-65675,276.7630344804793,31.827939355630754,4105.665529441201,1.6920200281217697,-59261.69862244694,10.5,10499940738.301378,47.655,-122.3035,60.0,7.2
2026-01-20T23:07:13+00:00,SAT-65675,276.6390186073252,31.80606108087286,4107.3530374159145,1.7029724734104654,-59645.299585254696,10.5,10499940354.700415,47.655,-122.3035,60.0,7.216666666666667
2026-01-20T23:07:14+00:00,SAT-65675,276.51517678984374,31.783976888273802,4109.051468629396,1.7139091894193037,-60028.34964214706,10.5,10499939971.650358,47.655,-122.3035,60.0,7.233333333333333
2026-01-20T23:07:15+00:00,SAT-65675,276.3915100815687,31.76168750385937,4110.76080739431,1.7248301068037293,-60410.84636438438,10.5,10499939589.153635,47.655,-122.3035,60.0,7.25
2026-01-20T23:07:16+00:00,SAT-65675,276.2680195253435,31.739193656909524,4112.481037954163,1.735735137292067,-60792.786660319194,10.5,10499939207.213339,47.655,-122.3035,60.0,7.266666666666667
2026-01-20T23:07:17+00:00,SAT-65675,276.14470615470185,31.716496080155046,4114.212144464422,1.7466242155968816,-61174.16824330937,10.5,10499938825.831757,47.655,-122.3035,60.0,7.283333333333333
2026-01-20T23:07:18+00:00,SAT-65675,276.0215709922541,31.69359550942333,4115.954111015444,1.7574972686504007,-61554.98855421242,10.5,10499938445.011446,47.655,-122.3035,60.0,7.3
2026-01-20T23:07:19+00:00,SAT-65675,275.8986150502883,31.670492683687772,4117.706921624711,1.7683542068529698,-61935.244454869455,10.5,10499938064.755545,47.655,-122.3035,60.0,7.316666666666666
2026-01-20T23:07:20+00:00,SAT-65675,275.7758393319129,31.647188345235747,4119.470560220346,1.7791949796108035,-62314.934173272086,10.5,10499937685.065826,47.655,-122.3035,60.0,7.333333333333333
2026-01-20T23:07:21+00:00,SAT-65675,275.6532448284123,31.62368323909811,4121.245010680011,1.7900194971336654,-62694.05456458644,10.5,10499937305.945435,47.655,-122.3035,60.0,7.35
2026-01-20T23:07:22+00:00,SAT-65675,275.5308325219688,31.59997811351935,4123.030256791819,1.8008276956928302,-63072.60339676296,10.5,10499936927.396603,47.655,-122.3035,60.0,7.366666666666666
2026-01-20T23:07:23+00:00,SAT-65675,275.4086033839056,31.57607371955718,4124.8262822803235,1.8116195009982565,-63450.578067850176,10.5,10499936549.421932,47.655,-122.3035,60.0,7.383333333333334
2026-01-20T23:07:24+00:00,SAT-65675,275.2865583754394,31.55197081117388,4126.633070795985,1.8223948359214963,-63827.97587648356,10.5,10499936172.024124,47.655,-122.3035,60.0,7.4
2026-01-20T23:07:25+00:00,SAT-65675,275.1646984478931,31.527670145221038,4128.450605912344,1.8331536449730816,-64204.79487918724,10.5,10499935795.20512,47.655,-122.3035,60.0,7.416666666666667
2026-01-20T23:07:26+00:00,SAT-65675,275.0430245413022,31.503172481099135,4130.278871147598,1.8438958418776241,-64581.03205423218,10.5,10499935418.967945,47.655,-122.3035,60.0,7.433333333333334
2026-01-20T23:07:27+00:00,SAT-65675,274.92153758647567,31.47847858111916,4132.117849933898,1.8546213694141533,-64956.685397497924,10.5,10499935043.314602,47.655,-122.3035,60.0,7.45
2026-01-20T23:07:28+00:00,SAT-65675,274.800238503129,31.45358921006094,4133.967525646326,1.865330152797113,-65331.75228967797,10.5,10499934668.247711,47.655,-122.3035,60.0,7.466666666666667
2026-01-20T23:07:29+00:00,SAT-65675,274.6791282010577,31.428505135358016,4135.827881585383,1.87602212256455,-65706.23029792088,10.5,10499934293.769703,47.655,-122.3035,60.0,7.483333333333333
2026-01-20T23:07:30+00:00,SAT-65675,274.55820757983605,31.40322712697715,4137.698900982286,1.8866972217440117,-66080.1174268104,10.5,10499933919.882574,47.655,-122.3035,60.0,7.5
2026-01-20T23:07:31+00:00,SAT-65675,274.4374775280587,31.377755957195372,4139.58056701144,1.8973553698731285,-66453.41085821395,10.5,10499933546.589142,47.655,-122.3035,60.0,7.516666666666667
2026-01-20T23:07:32+00:00,SAT-65675,274.3169389248655,31.35209240087115,4141.472862766993,1.9079965080873453,-66826.10853044584,10.5,10499933173.89147,47.655,-122.3035,60.0,7.533333333333333
2026-01-20T23:07:33+00:00,SAT-65675,274.19659263861865,31.326237235098287,4143.375771284392,1.9186205693072422,-67198.20809410104,10.5,10499932801.791906,47.655,-122.3035,60.0,7.55
2026-01-20T23:07:34+00:00,SAT-65675,274.0764395274585,31.30019123926945,4145.289275532182,1.929227486746137,-67569.70721002741,10.5,10499932430.29279,47.655,-122.3035,60.0,7.566666666666666
2026-01-20T23:07:35+00:00,SAT-65675,273.95648043933306,31.273955195021237,4147.213358412296,1.939817199009555,-67940.60372793076,10.5,10499932059.396273,47.655,-122.3035,60.0,7.583333333333333
2026-01-20T23:07:36+00:00,SAT-65675,273.83671621169344,31.24752988611078,4149.148002765442,1.9503896437943273,-68310.8954656906,10.5,10499931689.104534,47.655,-122.3035,60.0,7.6
2026-01-20T23:07:37+00:00,SAT-65675,273.7171476716175,31.220916098378602,4151.093191370186,1.9609447514733298,-68680.57998467048,10.5,10499931319.420015,47.655,-122.3035,60.0,7.616666666666666
2026-01-20T23:07:38+00:00,SAT-65675,273.59777563628006,31.194114619800658,4153.048906935655,1.9714824622656872,-69049.65519109128,10.5,10499930950.344809,47.655,-122.3035,60.0,7.633333333333334
2026-01-20T23:07:39+00:00,SAT-65675,273.4786009123975,31.16712624030227,4155.015132111354,1.982002709353713,-69418.118744715,10.5,10499930581.881256,47.655,-122.3035,60.0,7.65
2026-01-20T23:07:40+00:00,SAT-65675,273.359624296707,31.139951751808606,4156.99184948015,1.9925054454526399,-69785.96898942908,10.5,10499930214.03101,47.655,-122.3035,60.0,7.666666666666667
2026-01-20T23:07:41+00:00,SAT-65675,273.24084657485116,31.11259194792339,4158.979041577749,2.002990593708968,-70153.20323349882,10.5,10499929846.796766,47.655,-122.3035,60.0,7.683333333333334
2026-01-20T23:07:42+00:00,SAT-65675,273.1222685231723,31.085047624292347,4160.976690863207,2.0134581031528263,-70519.8196917438,10.5,10499929480.180307,47.655,-122.3035,60.0,7.7
2026-01-20T23:07:43+00:00,SAT-65675,273.00389090723525,31.057319578193493,4162.984779744752,2.0239079060837524,-70885.8159930074,10.5,10499929114.184008,47.655,-122.3035,60.0,7.716666666666667
2026-01-20T23:07:44+00:00,SAT-65675,272.88571448285415,31.02940860872476,4165.003290563086,2.034339952874087,-71251.19039911908,10.5,10499928748.8096,47.655,-122.3035,60.0,7.733333333333333
2026-01-20T23:07:45+00:00,SAT-65675,272.76773999509544,31.001315516501624,4167.032205609419,2.0447541784630574,-71615.9406313754,10.5,10499928384.059368,47.655,-122.3035,60.0,7.75
2026-01-20T23:07:46+00:00,SAT-65675,272.64996817921985,30.973041103827004,4169.071507110073,2.055150528035098,-71980.06476990334,10.5,10499928019.93523,47.655,-122.3035,60.0,7.766666666666667
2026-01-20T23:07:47+00:00,SAT-65675,272.532399760142,30.94458617449955,4171.1211772367,2.065528941013969,-72343.56069306679,10.5,10499927656.439306,47.655,-122.3035,60.0,7.783333333333333
2026-01-20T23:07:48+00:00,SAT-65675,272.41503545281927,30.915951533849405,4173.181198100538,2.075889361923417,-72706.42645785266,10.5,10499927293.573542,47.655,-122.3035,60.0,7.8
2026-01-20T23:07:49+00:00,SAT-65675,272.29787596200117,30.887137988617162,4175.251551757497,2.086231729681525,-73068.65992491382,10.5,10499926931.340075,47.655,-122.3035,60.0,7.816666666666666
2026-01-20T23:07:50+00:00,SAT-65675,272.18092198260206,30.85814634698945,4177.332220202566,2.0965560052651457,-73430.25972749465,10.5,10499926569.740273,47.655,-122.3035,60.0,7.833333333333333
2026-01-20T23:07:51+00:00,SAT-65675,272.06417419853744,30.828977418239905,4179.423185391816,2.106862110052173,-73791.22311191638,10.5,10499926208.776888,47.655,-122.3035,60.0,7.85
2026-01-20T23:07:52+00:00,SAT-65675,271.9476332849552,30.799632013242114,4181.524429202908,2.1171500098145137,-74151.54887936638,10.5,10499925848.45112,47.655,-122.3035,60.0,7.866666666666666
2026-01-20T23:07:53+00:00,SAT-65675,271.8312999058624,30.77011094379851,4183.635933479363,2.1274196388129245,-74511.23472737832,10.5,10499925488.765272,47.655,-122.3035,60.0,7.883333333333334
2026-01-20T23:07:54+00:00,SAT-65675,271.71517471589345,30.740415023039617,4185.757679999139,2.137670945290812,-74870.27884321734,10.5,10499925129.721157,47.655,-122.3035,60.0,7.9
2026-01-20T23:07:55+00:00,SAT-65675,271.59925835961167,30.710545065180973,4187.889650488576,2.147903883495691,-75228.67962443791,10.5,10499924771.320375,47.655,-122.3035,60.0,7.916666666666667
2026-01-20T23:07:56+00:00,SAT-65675,271.48355147124323,30.680501885394577,4190.031826628382,2.158118389094564,-75586.43481782627,10.5,10499924413.565182,47.655,-122.3035,60.0,7.933333333333334
2026-01-20T23:07:57+00:00,SAT-65675,271.3680546757268,30.650286300026846,4192.184190035106,2.168314422641952,-75943.54304183494,10.5,10499924056.456959,47.655,-122.3035,60.0,7.95
2026-01-20T23:07:58+00:00,SAT-65675,271.2527685874465,30.61989912620206,4194.3467222859545,2.178491922717972,-76300.00214527981,10.5,10499923699.997854,47.655,-122.3035,60.0,7.966666666666667
2026-01-20T23:07:59+00:00,SAT-65675,271.1376938114627,30.58934118209069,4196.519404896879,2.1886508511949607,-76655.8107927688,10.5,10499923344.189207,47.655,-122.3035,60.0,7.983333333333333
2026-01-20T23:08:00+00:00,SAT-65675,271.02283094233417,30.558613286534822,4198.702219345803,2.1987911476501614,-77010.96686804139,10.5,10499922989.033133,47.655,-122.3035,60.0,8.0
2026-01-20T23:08:01+00:00,SAT-65675,270.9081805653591,30.527716259321632,4200.8951470503935,2.2089127682054026,-77365.46883429844,10.5,10499922634.531166,47.655,-122.3035,60.0,8.016666666666667
2026-01-20T23:08:02+00:00,SAT-65675,270.7937432557596,30.49665092090605,4203.098169384551,2.2190156570429096,-77719.31473656536,10.5,10499922280.685263,47.655,-122.3035,60.0,8.033333333333333
2026-01-20T23:08:03+00:00,SAT-65675,270.67951957937163,30.465418092538116,4205.311267666508,2.2290997784648163,-78072.50332455184,10.5,10499921927.496675,47.655,-122.3035,60.0,8.05
2026-01-20T23:08:04+00:00,SAT-65675,270.56551009166276,30.43401859593286,4207.534423178897,2.2391650689106175,-78425.03237210018,10.5,10499921574.967628,47.655,-122.3035,60.0,8.066666666666666
2026-01-20T23:08:05+00:00,SAT-65675,270.45171533922405,30.4024532536277,4209.767617140958,2.2492114995474815,-78776.90086936261,10.5,10499921223.09913,47.655,-122.3035,60.0,8.083333333333334
2026-01-20T23:08:06+00:00,SAT-65675,270.3381358580762,30.37072288844478,4212.010830743172,2.2592390111886416,-79128.10674336823,10.5,10499920871.893257,47.655,-122.3035,60.0,8.1
2026-01-20T23:08:07+00:00,SAT-65675,270.22477217525534,30.33882832388183,4214.264045116997,2.2692475636882943,-79478.64858804116,10.5,10499920521.351412,47.655,-122.3035,60.0,8.116666666666667
2026-01-20T23:08:08+00:00,SAT-65675,270.1116248079239,30.306770383801382,4216.527241353849,2.279237106259021,-79828.52462459118,10.5,10499920171.475376,47.655,-122.3035,60.0,8.133333333333333
2026-01-20T23:08:09+00:00,SAT-65675,269.9986942639693,30.274549892541067,4218.800400494491,2.2892075979916715,-80177.73342020683,10.5,10499919822.26658,47.655,-122.3035,60.0,8.15
2026-01-20T23:08:10+00:00,SAT-65675,269.88598104156773,30.242167674733214,4221.083503538889,2.299158998090938,-80526.27354606382,10.5,10499919473.726454,47.655,-122.3035,60.0,8.166666666666666
2026-01-20T23:08:11+00:00,SAT-65675,269.77348562925704,30.209624555260973,4223.376531446318,2.309091258467032,-80874.14331785437,10.5,10499919125.856682,47.655,-122.3035,60.0,8.183333333333334
2026-01-20T23:08:12+00:00,SAT-65675,269.6612085063573,30.17692135932733,4225.679465128096,2.319004337195888,-81221.34126722036,10.5,10499918778.658733,47.655,-122.3035,60.0,8.2
2026-01-20T23:08:13+00:00,SAT-65675,269.5491501427304,30.144058912323437,4227.992285453725,2.328898192370722,-81567.86592640894,10.5,10499918432.134073,47.655,-122.3035,60.0,8.216666666666667
2026-01-20T23:08:14+00:00,SAT-65675,269.4373109988557,30.111038039793343,4230.314973250917,2.3387727819465107,-81913.71582282554,10.5,10499918086.284178,47.655,-122.3035,60.0,8.233333333333333
2026-01-20T23:08:15+00:00,SAT-65675,269.3256915258877,30.07785956739398,4232.647509305444,2.3486280650039406,-82258.88952330274,10.5,10499917741.110477,47.655,-122.3035,60.0,8.25
2026-01-20T23:08:16+00:00,SAT-65675,269.2142921656902,30.04452432084479,4234.989874362276,2.358464000576941,-82603.38559303542,10.5,10499917396.614407,47.655,-122.3035,60.0,8.266666666666667
2026-01-20T23:08:17+00:00,SAT-65675,269.10311335088767,30.011033125886506,4237.342049125517,2.36828055074266,-82947.20270380493,10.5,10499917052.797297,47.655,-122.3035,60.0,8.283333333333333
